"id","ts","event_value","event_author","event_free_text","event_option.actions","event_option.event_comment","event_option.filename","event_option.formation","event_option.milestone","event_option.sample_description","event_option.sample_name","event_option.type","vehicleReNavData.altitude_uom","vehicleReNavData.altitude_value","vehicleReNavData.depth_uom","vehicleReNavData.depth_value","vehicleReNavData.heading_uom","vehicleReNavData.heading_value","vehicleReNavData.latitude_uom","vehicleReNavData.latitude_value","vehicleReNavData.longitude_uom","vehicleReNavData.longitude_value","vehicleReNavData.pitch_uom","vehicleReNavData.pitch_value","vehicleReNavData.roll_uom","vehicleReNavData.roll_value","vehicleRealtimeFramegrabberData.camera_name_2_uom","vehicleRealtimeFramegrabberData.camera_name_2_value","vehicleRealtimeFramegrabberData.camera_name_3_uom","vehicleRealtimeFramegrabberData.camera_name_3_value","vehicleRealtimeFramegrabberData.camera_name_4_uom","vehicleRealtimeFramegrabberData.camera_name_4_value","vehicleRealtimeFramegrabberData.camera_name_uom","vehicleRealtimeFramegrabberData.camera_name_value","vehicleRealtimeFramegrabberData.filename_2_uom","vehicleRealtimeFramegrabberData.filename_2_value","vehicleRealtimeFramegrabberData.filename_3_uom","vehicleRealtimeFramegrabberData.filename_3_value","vehicleRealtimeFramegrabberData.filename_4_uom","vehicleRealtimeFramegrabberData.filename_4_value","vehicleRealtimeFramegrabberData.filename_uom","vehicleRealtimeFramegrabberData.filename_value","vehicleRealtimeNavData.altitude_uom","vehicleRealtimeNavData.altitude_value","vehicleRealtimeNavData.depth_uom","vehicleRealtimeNavData.depth_value","vehicleRealtimeNavData.heading_uom","vehicleRealtimeNavData.heading_value","vehicleRealtimeNavData.latitude_uom","vehicleRealtimeNavData.latitude_value","vehicleRealtimeNavData.local_x_uom","vehicleRealtimeNavData.local_x_value","vehicleRealtimeNavData.local_y_uom","vehicleRealtimeNavData.local_y_value","vehicleRealtimeNavData.longitude_uom","vehicleRealtimeNavData.longitude_value","vehicleRealtimeNavData.pitch_uom","vehicleRealtimeNavData.pitch_value","vehicleRealtimeNavData.roll_uom","vehicleRealtimeNavData.roll_value","vehicleTemperatureProbe.probe1_temperature_uom","vehicleTemperatureProbe.probe1_temperature_value","vehicleTemperatureProbe.probe2_temperature_uom","vehicleTemperatureProbe.probe2_temperature_value","vehicleTemperatureProbe.probe3_temperature_uom","vehicleTemperatureProbe.probe3_temperature_value","vehicleTemperatureProbe.probe4_temperature_uom","vehicleTemperatureProbe.probe4_temperature_value"
"64f793516ce66f001a254cd1","2023-09-05T20:45:05.397Z","ASNAP","admin","",,,,,,,,,,,,,,,,,,,,,,,,"PilotCam",,"BrowCam",,"UserSelect",,"SciCam",,"/PilotCam.20230905_204505397.jpg",,"/BrowCam.20230905_204505397.jpg",,"/UserSelect.20230905_204505397.jpg",,"/SciCam.20230905_204505397.jpg","meters","0.00","meters","0.50","deg","20.66","ddeg","-8.5309835","meters","9770065.83","meters","-6051801.95","ddeg","-4.0926308","deg","-0.1","deg","0.1","degC","20.06","degC","-999.99","degC","-999.99","degC","-999.99"
"64f7936f6ce66f001a254cd5","2023-09-05T20:45:35.465Z","ASNAP","admin","",,,,,,,,,,,,,,,,,,,,,,,,"PilotCam",,"BrowCam",,"UserSelect",,"SciCam",,"/PilotCam.20230905_204535465.jpg",,"/BrowCam.20230905_204535465.jpg",,"/UserSelect.20230905_204535465.jpg",,"/SciCam.20230905_204535465.jpg","meters","0.00","meters","0.53","deg","20.23","ddeg","-8.5309835","meters","9770065.83","meters","-6051801.95","ddeg","-4.0926308","deg","0.3","deg","-2.3","degC","20.00","degC","-999.99","degC","-999.99","degC","-999.99"
"64f7938d6ce66f001a254cd9","2023-09-05T20:46:05.508Z","ASNAP","admin","",,,,,,,,,,,,,,,,,,,,,,,,"PilotCam",,"BrowCam",,"UserSelect",,"SciCam",,"/PilotCam.20230905_204605508.jpg",,"/BrowCam.20230905_204605508.jpg",,"/UserSelect.20230905_204605508.jpg",,"/SciCam.20230905_204605508.jpg","meters","0.00","meters","0.55","deg","21.47","ddeg","-8.5309835","meters","9770065.83","meters","-6051801.95","ddeg","-4.0926308","deg","-0.0","deg","0.0","degC","19.98","degC","-999.99","degC","-999.99","degC","-999.99"
"64f793ab6ce66f001a254cdd","2023-09-05T20:46:35.578Z","ASNAP","admin","",,,,,,,,,,,,,,,,,,,,,,,,"PilotCam",,"BrowCam",,"UserSelect",,"SciCam",,"/PilotCam.20230905_204635578.jpg",,"/BrowCam.20230905_204635578.jpg",,"/UserSelect.20230905_204635578.jpg",,"/SciCam.20230905_204635578.jpg","meters","0.00","meters","0.56","deg","22.76","ddeg","-8.5309835","meters","9770065.83","meters","-6051801.95","ddeg","-4.0926308","deg","-0.6","deg","-0.5","degC","20.02","degC","-999.99","degC","-999.99","degC","-999.99"
"64f793c96ce66f001a254ce1","2023-09-05T20:47:05.633Z","ASNAP","admin","",,,,,,,,,,,,,,,,,,,,,,,,"PilotCam",,"BrowCam",,"UserSelect",,"SciCam",,"/PilotCam.20230905_204705633.jpg",,"/BrowCam.20230905_204705633.jpg",,"/UserSelect.20230905_204705633.jpg",,"/SciCam.20230905_204705633.jpg","meters","0.00","meters","0.57","deg","25.38","ddeg","-8.5309835","meters","9770065.83","meters","-6051801.95","ddeg","-4.0926308","deg","-0.8","deg","-0.6","degC","20.03","degC","-999.99","degC","-999.99","degC","-999.99"
"64f793e76ce66f001a254ce5","2023-09-05T20:47:35.652Z","ASNAP","admin","",,,,,,,,,,,,,,,,,,,,,,,,"PilotCam",,"BrowCam",,"UserSelect",,"SciCam",,"/PilotCam.20230905_204735652.jpg",,"/BrowCam.20230905_204735652.jpg",,"/UserSelect.20230905_204735652.jpg",,"/SciCam.20230905_204735652.jpg","meters","0.00","meters","0.59","deg","30.02","ddeg","-8.5309835","meters","9770065.83","meters","-6051801.95","ddeg","-4.0926308","deg","-0.5","deg","-0.7","degC","19.97","degC","-999.99","degC","-999.99","degC","-999.99"
"64f794056ce66f001a254ce9","2023-09-05T20:48:05.697Z","ASNAP","admin","",,,,,,,,,,,,,,,,,,,,,,,,"PilotCam",,"BrowCam",,"UserSelect",,"SciCam",,"/PilotCam.20230905_204805697.jpg",,"/BrowCam.20230905_204805697.jpg",,"/UserSelect.20230905_204805697.jpg",,"/SciCam.20230905_204805697.jpg","meters","0.00","meters","0.61","deg","36.33","ddeg","-8.5309835","meters","9770065.83","meters","-6051801.95","ddeg","-4.0926308","deg","-1.4","deg","-1.1","degC","19.94","degC","-999.99","degC","-999.99","degC","-999.99"
"64f794236ce66f001a254ced","2023-09-05T20:48:35.723Z","ASNAP","admin","",,,,,,,,,,,,,,,,,,,,,,,,"PilotCam",,"BrowCam",,"UserSelect",,"SciCam",,"/PilotCam.20230905_204835723.jpg",,"/BrowCam.20230905_204835723.jpg",,"/UserSelect.20230905_204835723.jpg",,"/SciCam.20230905_204835723.jpg","meters","0.00","meters","0.62","deg","42.42","ddeg","-8.5309835","meters","9770065.83","meters","-6051801.95","ddeg","-4.0926308","deg","-0.5","deg","-1.5","degC","19.93","degC","-999.99","degC","-999.99","degC","-999.99"
"64f794416ce66f001a254cf1","2023-09-05T20:49:05.768Z","ASNAP","admin","",,,,,,,,,,,,,,,,,,,,,,,,"PilotCam",,"BrowCam",,"UserSelect",,"SciCam",,"/PilotCam.20230905_204905768.jpg",,"/BrowCam.20230905_204905768.jpg",,"/UserSelect.20230905_204905768.jpg",,"/SciCam.20230905_204905768.jpg","meters","0.00","meters","0.61","deg","44.34","ddeg","-8.5309835","meters","9770065.83","meters","-6051801.95","ddeg","-4.0926308","deg","-0.1","deg","-0.1","degC","19.91","degC","-999.99","degC","-999.99","degC","-999.99"
"64f7945f6ce66f001a254cf5","2023-09-05T20:49:35.813Z","ASNAP","admin","",,,,,,,,,,,,,,,,,,,,,,,,"PilotCam",,"BrowCam",,"UserSelect",,"SciCam",,"/PilotCam.20230905_204935813.jpg",,"/BrowCam.20230905_204935813.jpg",,"/UserSelect.20230905_204935813.jpg",,"/SciCam.20230905_204935813.jpg","meters","0.00","meters","0.62","deg","43.16","ddeg","-8.5309835","meters","9770065.83","meters","-6051801.95","ddeg","-4.0926308","deg","-0.9","deg","-0.8","degC","19.93","degC","-999.99","degC","-999.99","degC","-999.99"
"64f7947d6ce66f001a254cf9","2023-09-05T20:50:05.858Z","ASNAP","admin","",,,,,,,,,,,,,,,,,,,,,,,,"PilotCam",,"BrowCam",,"UserSelect",,"SciCam",,"/PilotCam.20230905_205005858.jpg",,"/BrowCam.20230905_205005858.jpg",,"/UserSelect.20230905_205005858.jpg",,"/SciCam.20230905_205005858.jpg","meters","0.00","meters","0.63","deg","42.34","ddeg","-8.5309835","meters","9770065.83","meters","-6051801.95","ddeg","-4.0926308","deg","-0.1","deg","-0.9","degC","19.97","degC","-999.99","degC","-999.99","degC","-999.99"
"64f7949b6ce66f001a254cfd","2023-09-05T20:50:35.885Z","ASNAP","admin","",,,,,,,,,,,,,,,,,,,,,,,,"PilotCam",,"BrowCam",,"UserSelect",,"SciCam",,"/PilotCam.20230905_205035885.jpg",,"/BrowCam.20230905_205035885.jpg",,"/UserSelect.20230905_205035885.jpg",,"/SciCam.20230905_205035885.jpg","meters","0.00","meters","0.63","deg","41.00","ddeg","-8.5309835","meters","9770065.83","meters","-6051801.95","ddeg","-4.0926308","deg","-0.9","deg","-1.7","degC","19.96","degC","-999.99","degC","-999.99","degC","-999.99"
"64f794b96ce66f001a254d01","2023-09-05T20:51:05.928Z","ASNAP","admin","",,,,,,,,,,,,,,,,,,,,,,,,"PilotCam",,"BrowCam",,"UserSelect",,"SciCam",,"/PilotCam.20230905_205105928.jpg",,"/BrowCam.20230905_205105928.jpg",,"/UserSelect.20230905_205105928.jpg",,"/SciCam.20230905_205105928.jpg","meters","0.00","meters","0.63","deg","36.57","ddeg","-8.5309835","meters","9770065.83","meters","-6051801.95","ddeg","-4.0926308","deg","-0.1","deg","-0.6","degC","19.96","degC","-999.99","degC","-999.99","degC","-999.99"
"64f794d86ce66f001a254d05","2023-09-05T20:51:35.999Z","ASNAP","admin","",,,,,,,,,,,,,,,,,,,,,,,,"PilotCam",,"BrowCam",,"UserSelect",,"SciCam",,"/PilotCam.20230905_205135999.jpg",,"/BrowCam.20230905_205135999.jpg",,"/UserSelect.20230905_205135999.jpg",,"/SciCam.20230905_205135999.jpg","meters","0.00","meters","0.65","deg","37.37","ddeg","-8.5309835","meters","9770065.83","meters","-6051801.95","ddeg","-4.0926308","deg","-0.7","deg","-1.3","degC","19.95","degC","-999.99","degC","-999.99","degC","-999.99"
"64f794f66ce66f001a254d09","2023-09-05T20:52:06.061Z","ASNAP","admin","",,,,,,,,,,,,,,,,,,,,,,,,"PilotCam",,"BrowCam",,"UserSelect",,"SciCam",,"/PilotCam.20230905_205206061.jpg",,"/BrowCam.20230905_205206061.jpg",,"/UserSelect.20230905_205206061.jpg",,"/SciCam.20230905_205206061.jpg","meters","0.00","meters","0.68","deg","41.21","ddeg","-8.5309835","meters","9770065.83","meters","-6051801.95","ddeg","-4.0926308","deg","-2.2","deg","-0.6","degC","19.91","degC","-999.99","degC","-999.99","degC","-999.99"
"64f795146ce66f001a254d0d","2023-09-05T20:52:36.133Z","ASNAP","admin","",,,,,,,,,,,,,,,,,,,,,,,,"PilotCam",,"BrowCam",,"UserSelect",,"SciCam",,"/PilotCam.20230905_205236133.jpg",,"/BrowCam.20230905_205236133.jpg",,"/UserSelect.20230905_205236133.jpg",,"/SciCam.20230905_205236133.jpg","meters","0.00","meters","0.63","deg","43.36","ddeg","-8.5309835","meters","9770065.83","meters","-6051801.95","ddeg","-4.0926308","deg","-0.5","deg","-0.2","degC","19.90","degC","-999.99","degC","-999.99","degC","-999.99"
"64f795326ce66f001a254d11","2023-09-05T20:53:06.181Z","ASNAP","admin","",,,,,,,,,,,,,,,,,,,,,,,,"PilotCam",,"BrowCam",,"UserSelect",,"SciCam",,"/PilotCam.20230905_205306181.jpg",,"/BrowCam.20230905_205306181.jpg",,"/UserSelect.20230905_205306181.jpg",,"/SciCam.20230905_205306181.jpg","meters","0.00","meters","0.65","deg","42.96","ddeg","-8.5309835","meters","9770065.83","meters","-6051801.95","ddeg","-4.0926308","deg","-0.0","deg","-0.7","degC","19.87","degC","-999.99","degC","-999.99","degC","-999.99"
"64f795506ce66f001a254d15","2023-09-05T20:53:36.236Z","ASNAP","admin","",,,,,,,,,,,,,,,,,,,,,,,,"PilotCam",,"BrowCam",,"UserSelect",,"SciCam",,"/PilotCam.20230905_205336236.jpg",,"/BrowCam.20230905_205336236.jpg",,"/UserSelect.20230905_205336236.jpg",,"/SciCam.20230905_205336236.jpg","meters","0.00","meters","0.66","deg","43.22","ddeg","-8.5309835","meters","9770065.83","meters","-6051801.95","ddeg","-4.0926308","deg","-0.2","deg","-1.3","degC","19.87","degC","-999.99","degC","-999.99","degC","-999.99"
"64f7956e6ce66f001a254d19","2023-09-05T20:54:06.269Z","ASNAP","admin","",,,,,,,,,,,,,,,,,,,,,,,,"PilotCam",,"BrowCam",,"UserSelect",,"SciCam",,"/PilotCam.20230905_205406269.jpg",,"/BrowCam.20230905_205406269.jpg",,"/UserSelect.20230905_205406269.jpg",,"/SciCam.20230905_205406269.jpg","meters","0.00","meters","0.66","deg","40.96","ddeg","-8.5309835","meters","9770065.83","meters","-6051801.95","ddeg","-4.0926308","deg","-0.3","deg","-0.4","degC","19.86","degC","-999.99","degC","-999.99","degC","-999.99"
"64f7956f6ce66f001a254d1d","2023-09-05T20:54:07.214Z","FREE_FORM","guest","J2-1547 predive test1",,,,,,,,,,,,,,,,,,,,,,,,"PilotCam",,"BrowCam",,"UserSelect",,"SciCam",,"/PilotCam.20230905_205407214.jpg",,"/BrowCam.20230905_205407214.jpg",,"/UserSelect.20230905_205407214.jpg",,"/SciCam.20230905_205407214.jpg","meters","0.00","meters","0.67","deg","40.77","ddeg","-8.5309835","meters","9770065.83","meters","-6051801.95","ddeg","-4.0926308","deg","-0.7","deg","-0.3","degC","19.85","degC","-999.99","degC","-999.99","degC","-999.99"
"64f7958c6ce66f001a254d21","2023-09-05T20:54:36.339Z","ASNAP","admin","",,,,,,,,,,,,,,,,,,,,,,,,"PilotCam",,"BrowCam",,"UserSelect",,"SciCam",,"/PilotCam.20230905_205436339.jpg",,"/BrowCam.20230905_205436339.jpg",,"/UserSelect.20230905_205436339.jpg",,"/SciCam.20230905_205436339.jpg","meters","0.00","meters","0.69","deg","40.35","ddeg","-8.5309835","meters","9770065.83","meters","-6051801.95","ddeg","-4.0926308","deg","-1.0","deg","-0.5","degC","19.87","degC","-999.99","degC","-999.99","degC","-999.99"
"64f795aa6ce66f001a254d25","2023-09-05T20:55:06.399Z","ASNAP","admin","",,,,,,,,,,,,,,,,,,,,,,,,"PilotCam",,"BrowCam",,"UserSelect",,"SciCam",,"/PilotCam.20230905_205506399.jpg",,"/BrowCam.20230905_205506399.jpg",,"/UserSelect.20230905_205506399.jpg",,"/SciCam.20230905_205506399.jpg","meters","0.00","meters","0.65","deg","40.30","ddeg","-8.5309835","meters","9770065.83","meters","-6051801.95","ddeg","-4.0926308","deg","-0.4","deg","-0.7","degC","19.87","degC","-999.99","degC","-999.99","degC","-999.99"
"64f795c86ce66f001a254d29","2023-09-05T20:55:36.443Z","ASNAP","admin","",,,,,,,,,,,,,,,,,,,,,,,,"PilotCam",,"BrowCam",,"UserSelect",,"SciCam",,"/PilotCam.20230905_205536443.jpg",,"/BrowCam.20230905_205536443.jpg",,"/UserSelect.20230905_205536443.jpg",,"/SciCam.20230905_205536443.jpg","meters","0.00","meters","0.65","deg","40.48","ddeg","-8.5309835","meters","9770065.83","meters","-6051801.95","ddeg","-4.0926308","deg","-0.1","deg","0.4","degC","19.85","degC","-999.99","degC","-999.99","degC","-999.99"
"64f795e66ce66f001a254d2d","2023-09-05T20:56:06.481Z","ASNAP","admin","",,,,,,,,,,,,,,,,,,,,,,,,"PilotCam",,"BrowCam",,"UserSelect",,"SciCam",,"/PilotCam.20230905_205606481.jpg",,"/BrowCam.20230905_205606481.jpg",,"/UserSelect.20230905_205606481.jpg",,"/SciCam.20230905_205606481.jpg","meters","0.00","meters","0.67","deg","39.95","ddeg","-8.5309835","meters","9770065.83","meters","-6051801.95","ddeg","-4.0926308","deg","-0.1","deg","-0.9","degC","19.81","degC","-999.99","degC","-999.99","degC","-999.99"
"64f796046ce66f001a254d31","2023-09-05T20:56:36.507Z","ASNAP","admin","",,,,,,,,,,,,,,,,,,,,,,,,"PilotCam",,"BrowCam",,"UserSelect",,"SciCam",,"/PilotCam.20230905_205636507.jpg",,"/BrowCam.20230905_205636507.jpg",,"/UserSelect.20230905_205636507.jpg",,"/SciCam.20230905_205636507.jpg","meters","0.00","meters","0.68","deg","40.17","ddeg","-8.5309835","meters","9770065.83","meters","-6051801.95","ddeg","-4.0926308","deg","-0.7","deg","-0.8","degC","19.85","degC","-999.99","degC","-999.99","degC","-999.99"
"64f796226ce66f001a254d35","2023-09-05T20:57:06.552Z","ASNAP","admin","",,,,,,,,,,,,,,,,,,,,,,,,"PilotCam",,"BrowCam",,"UserSelect",,"SciCam",,"/PilotCam.20230905_205706552.jpg",,"/BrowCam.20230905_205706552.jpg",,"/UserSelect.20230905_205706552.jpg",,"/SciCam.20230905_205706552.jpg","meters","0.00","meters","0.69","deg","39.70","ddeg","-8.5309835","meters","9770065.83","meters","-6051801.95","ddeg","-4.0926308","deg","-0.9","deg","-1.4","degC","19.83","degC","-999.99","degC","-999.99","degC","-999.99"
"64f796406ce66f001a254d39","2023-09-05T20:57:36.597Z","ASNAP","admin","",,,,,,,,,,,,,,,,,,,,,,,,"PilotCam",,"BrowCam",,"UserSelect",,"SciCam",,"/PilotCam.20230905_205736597.jpg",,"/BrowCam.20230905_205736597.jpg",,"/UserSelect.20230905_205736597.jpg",,"/SciCam.20230905_205736597.jpg","meters","0.00","meters","0.69","deg","39.24","ddeg","-8.5309835","meters","9770065.83","meters","-6051801.95","ddeg","-4.0926308","deg","-1.2","deg","1.0","degC","19.82","degC","-999.99","degC","-999.99","degC","-999.99"
"64f7965e6ce66f001a254d3d","2023-09-05T20:58:06.642Z","ASNAP","admin","",,,,,,,,,,,,,,,,,,,,,,,,"PilotCam",,"BrowCam",,"UserSelect",,"SciCam",,"/PilotCam.20230905_205806642.jpg",,"/BrowCam.20230905_205806642.jpg",,"/UserSelect.20230905_205806642.jpg",,"/SciCam.20230905_205806642.jpg","meters","0.00","meters","0.68","deg","40.08","ddeg","-8.5309835","meters","9770065.83","meters","-6051801.95","ddeg","-4.0926308","deg","-0.8","deg","-1.3","degC","19.85","degC","-999.99","degC","-999.99","degC","-999.99"
"64f7967c6ce66f001a254d41","2023-09-05T20:58:36.681Z","ASNAP","admin","",,,,,,,,,,,,,,,,,,,,,,,,"PilotCam",,"BrowCam",,"UserSelect",,"SciCam",,"/PilotCam.20230905_205836681.jpg",,"/BrowCam.20230905_205836681.jpg",,"/UserSelect.20230905_205836681.jpg",,"/SciCam.20230905_205836681.jpg","meters","0.00","meters","0.69","deg","40.70","ddeg","-8.5309835","meters","9770065.83","meters","-6051801.95","ddeg","-4.0926308","deg","-0.1","deg","-1.1","degC","19.84","degC","-999.99","degC","-999.99","degC","-999.99"
"64f7969a6ce66f001a254d45","2023-09-05T20:59:06.702Z","ASNAP","admin","",,,,,,,,,,,,,,,,,,,,,,,,"PilotCam",,"BrowCam",,"UserSelect",,"SciCam",,"/PilotCam.20230905_205906702.jpg",,"/BrowCam.20230905_205906702.jpg",,"/UserSelect.20230905_205906702.jpg",,"/SciCam.20230905_205906702.jpg","meters","0.00","meters","0.70","deg","38.50","ddeg","-8.5309835","meters","9770065.83","meters","-6051801.95","ddeg","-4.0926308","deg","-1.3","deg","0.6","degC","19.80","degC","-999.99","degC","-999.99","degC","-999.99"
"64f796b86ce66f001a254d49","2023-09-05T20:59:36.747Z","ASNAP","admin","",,,,,,,,,,,,,,,,,,,,,,,,"PilotCam",,"BrowCam",,"UserSelect",,"SciCam",,"/PilotCam.20230905_205936747.jpg",,"/BrowCam.20230905_205936747.jpg",,"/UserSelect.20230905_205936747.jpg",,"/SciCam.20230905_205936747.jpg","meters","0.00","meters","0.67","deg","38.02","ddeg","-8.5309835","meters","9770065.83","meters","-6051801.95","ddeg","-4.0926308","deg","-0.7","deg","-1.0","degC","19.78","degC","-999.99","degC","-999.99","degC","-999.99"
"64f796d66ce66f001a254d4d","2023-09-05T21:00:06.768Z","ASNAP","admin","",,,,,,,,,,,,,,,,,,,,,,,,"PilotCam",,"BrowCam",,"UserSelect",,"SciCam",,"/PilotCam.20230905_210006768.jpg",,"/BrowCam.20230905_210006768.jpg",,"/UserSelect.20230905_210006768.jpg",,"/SciCam.20230905_210006768.jpg","meters","0.00","meters","0.69","deg","35.94","ddeg","-8.5309835","meters","9770065.83","meters","-6051801.95","ddeg","-4.0926308","deg","-0.5","deg","-0.7","degC","19.81","degC","-999.99","degC","-999.99","degC","-999.99"
"64f796f46ce66f001a254d51","2023-09-05T21:00:36.811Z","ASNAP","admin","",,,,,,,,,,,,,,,,,,,,,,,,"PilotCam",,"BrowCam",,"UserSelect",,"SciCam",,"/PilotCam.20230905_210036811.jpg",,"/BrowCam.20230905_210036811.jpg",,"/UserSelect.20230905_210036811.jpg",,"/SciCam.20230905_210036811.jpg","meters","0.00","meters","0.67","deg","35.89","ddeg","-8.5309835","meters","9770065.83","meters","-6051801.95","ddeg","-4.0926308","deg","-0.0","deg","-1.2","degC","19.82","degC","-999.99","degC","-999.99","degC","-999.99"
"64f797126ce66f001a254d55","2023-09-05T21:01:06.844Z","ASNAP","admin","",,,,,,,,,,,,,,,,,,,,,,,,"PilotCam",,"BrowCam",,"UserSelect",,"SciCam",,"/PilotCam.20230905_210106844.jpg",,"/BrowCam.20230905_210106844.jpg",,"/UserSelect.20230905_210106844.jpg",,"/SciCam.20230905_210106844.jpg","meters","0.00","meters","0.70","deg","35.64","ddeg","-8.5309835","meters","9770065.83","meters","-6051801.95","ddeg","-4.0926308","deg","-1.4","deg","-0.5","degC","19.78","degC","-999.99","degC","-999.99","degC","-999.99"
"64f797306ce66f001a254d59","2023-09-05T21:01:36.861Z","ASNAP","admin","",,,,,,,,,,,,,,,,,,,,,,,,"PilotCam",,"BrowCam",,"UserSelect",,"SciCam",,"/PilotCam.20230905_210136861.jpg",,"/BrowCam.20230905_210136861.jpg",,"/UserSelect.20230905_210136861.jpg",,"/SciCam.20230905_210136861.jpg","meters","0.00","meters","0.71","deg","34.88","ddeg","-8.5309835","meters","9770065.83","meters","-6051801.95","ddeg","-4.0926308","deg","0.2","deg","-1.7","degC","19.77","degC","-999.99","degC","-999.99","degC","-999.99"
"64f7974e6ce66f001a254d5d","2023-09-05T21:02:06.906Z","ASNAP","admin","",,,,,,,,,,,,,,,,,,,,,,,,"PilotCam",,"BrowCam",,"UserSelect",,"SciCam",,"/PilotCam.20230905_210206906.jpg",,"/BrowCam.20230905_210206906.jpg",,"/UserSelect.20230905_210206906.jpg",,"/SciCam.20230905_210206906.jpg","meters","0.00","meters","0.71","deg","35.89","ddeg","-8.5309835","meters","9770065.83","meters","-6051801.95","ddeg","-4.0926308","deg","-0.7","deg","-0.4","degC","19.80","degC","-999.99","degC","-999.99","degC","-999.99"
"64f7976c6ce66f001a254d61","2023-09-05T21:02:36.944Z","ASNAP","admin","",,,,,,,,,,,,,,,,,,,,,,,,"PilotCam",,"BrowCam",,"UserSelect",,"SciCam",,"/PilotCam.20230905_210236944.jpg",,"/BrowCam.20230905_210236944.jpg",,"/UserSelect.20230905_210236944.jpg",,"/SciCam.20230905_210236944.jpg","meters","0.00","meters","0.69","deg","35.05","ddeg","-8.5309835","meters","9770065.83","meters","-6051801.95","ddeg","-4.0926308","deg","-0.1","deg","0.1","degC","19.73","degC","-999.99","degC","-999.99","degC","-999.99"
"64f7978a6ce66f001a254d65","2023-09-05T21:03:06.990Z","ASNAP","admin","",,,,,,,,,,,,,,,,,,,,,,,,"PilotCam",,"BrowCam",,"UserSelect",,"SciCam",,"/PilotCam.20230905_210306990.jpg",,"/BrowCam.20230905_210306990.jpg",,"/UserSelect.20230905_210306990.jpg",,"/SciCam.20230905_210306990.jpg","meters","0.00","meters","0.71","deg","35.74","ddeg","-8.5309835","meters","9770065.83","meters","-6051801.95","ddeg","-4.0926308","deg","-1.8","deg","0.9","degC","19.73","degC","-999.99","degC","-999.99","degC","-999.99"
"64f797a96ce66f001a254d69","2023-09-05T21:03:37.037Z","ASNAP","admin","",,,,,,,,,,,,,,,,,,,,,,,,"PilotCam",,"BrowCam",,"UserSelect",,"SciCam",,"/PilotCam.20230905_210337037.jpg",,"/BrowCam.20230905_210337037.jpg",,"/UserSelect.20230905_210337037.jpg",,"/SciCam.20230905_210337037.jpg","meters","0.00","meters","0.71","deg","35.75","ddeg","-8.5309835","meters","9770065.83","meters","-6051801.95","ddeg","-4.0926308","deg","-0.5","deg","-0.7","degC","19.75","degC","-999.99","degC","-999.99","degC","-999.99"
"64f797c76ce66f001a254d6d","2023-09-05T21:04:07.086Z","ASNAP","admin","",,,,,,,,,,,,,,,,,,,,,,,,"PilotCam",,"BrowCam",,"UserSelect",,"SciCam",,"/PilotCam.20230905_210407086.jpg",,"/BrowCam.20230905_210407086.jpg",,"/UserSelect.20230905_210407086.jpg",,"/SciCam.20230905_210407086.jpg","meters","0.00","meters","0.72","deg","35.97","ddeg","-8.5309835","meters","9770065.83","meters","-6051801.95","ddeg","-4.0926308","deg","-1.1","deg","-0.8","degC","19.74","degC","-999.99","degC","-999.99","degC","-999.99"
"64f797e56ce66f001a254d71","2023-09-05T21:04:37.102Z","ASNAP","admin","",,,,,,,,,,,,,,,,,,,,,,,,"PilotCam",,"BrowCam",,"UserSelect",,"SciCam",,"/PilotCam.20230905_210437102.jpg",,"/BrowCam.20230905_210437102.jpg",,"/UserSelect.20230905_210437102.jpg",,"/SciCam.20230905_210437102.jpg","meters","0.00","meters","0.72","deg","35.45","ddeg","-8.5309835","meters","9770065.83","meters","-6051801.95","ddeg","-4.0926308","deg","-1.5","deg","0.2","degC","19.73","degC","-999.99","degC","-999.99","degC","-999.99"
"64f798036ce66f001a254d79","2023-09-05T21:05:07.143Z","ASNAP","admin","",,,,,,,,,,,,,,,,,,,,,,,,"PilotCam",,"BrowCam",,"UserSelect",,"SciCam",,"/PilotCam.20230905_210507143.jpg",,"/BrowCam.20230905_210507143.jpg",,"/UserSelect.20230905_210507143.jpg",,"/SciCam.20230905_210507143.jpg","meters","0.00","meters","0.71","deg","44.36","ddeg","-8.5309835","meters","9770065.83","meters","-6051801.95","ddeg","-4.0926308","deg","-0.9","deg","-0.2","degC","19.72","degC","-999.99","degC","-999.99","degC","-999.99"
"64f798196ce66f001a254d7d","2023-09-05T21:05:29.609Z","VEHICLE","guest","",,,,,"Jason off deck",,,,,,,,,,,,,,,,,,,"PilotCam",,"BrowCam",,"UserSelect",,"SciCam",,"/PilotCam.20230905_210529609.jpg",,"/BrowCam.20230905_210529609.jpg",,"/UserSelect.20230905_210529609.jpg",,"/SciCam.20230905_210529609.jpg","meters","0.00","meters","0.73","deg","44.45","ddeg","-8.5309835","meters","9770065.83","meters","-6051801.95","ddeg","-4.0926308","deg","-0.4","deg","-0.7","degC","19.78","degC","-999.99","degC","-999.99","degC","-999.99"
"64f798216ce66f001a254d81","2023-09-05T21:05:37.198Z","ASNAP","admin","",,,,,,,,,,,,,,,,,,,,,,,,"PilotCam",,"BrowCam",,"UserSelect",,"SciCam",,"/PilotCam.20230905_210537198.jpg",,"/BrowCam.20230905_210537198.jpg",,"/UserSelect.20230905_210537198.jpg",,"/SciCam.20230905_210537198.jpg","meters","0.00","meters","0.70","deg","44.15","ddeg","-8.5309835","meters","9770065.83","meters","-6051801.95","ddeg","-4.0926308","deg","-0.1","deg","-2.2","degC","19.76","degC","-999.99","degC","-999.99","degC","-999.99"
"64f7983f6ce66f001a254d85","2023-09-05T21:06:07.238Z","ASNAP","admin","",,,,,,,,,,,,,,,,,,,,,,,,"PilotCam",,"BrowCam",,"UserSelect",,"SciCam",,"/PilotCam.20230905_210607238.jpg",,"/BrowCam.20230905_210607238.jpg",,"/UserSelect.20230905_210607238.jpg",,"/SciCam.20230905_210607238.jpg","meters","0.00","meters","0.70","deg","114.13","ddeg","-8.5309835","meters","9770065.83","meters","-6051801.95","ddeg","-4.0926308","deg","0.2","deg","-1.3","degC","19.80","degC","-999.99","degC","-999.99","degC","-999.99"
"64f7985d6ce66f001a254d89","2023-09-05T21:06:37.311Z","ASNAP","admin","",,,,,,,,,,,,,,,,,,,,,,,,"PilotCam",,"BrowCam",,"UserSelect",,"SciCam",,"/PilotCam.20230905_210637311.jpg",,"/BrowCam.20230905_210637311.jpg",,"/UserSelect.20230905_210637311.jpg",,"/SciCam.20230905_210637311.jpg","meters","0.00","meters","0.69","deg","120.81","ddeg","-8.5309835","meters","9770065.83","meters","-6051801.95","ddeg","-4.0926308","deg","0.7","deg","-1.5","degC","19.72","degC","-999.99","degC","-999.99","degC","-999.99"
"64f7987b6ce66f001a254d8d","2023-09-05T21:07:07.373Z","ASNAP","admin","",,,,,,,,,,,,,,,,,,,,,,,,"PilotCam",,"BrowCam",,"UserSelect",,"SciCam",,"/PilotCam.20230905_210707373.jpg",,"/BrowCam.20230905_210707373.jpg",,"/UserSelect.20230905_210707373.jpg",,"/SciCam.20230905_210707373.jpg","meters","0.00","meters","0.70","deg","121.42","ddeg","-8.5309835","meters","9770065.83","meters","-6051801.95","ddeg","-4.0926308","deg","1.2","deg","-1.2","degC","19.58","degC","-999.99","degC","-999.99","degC","-999.99"
"64f798996ce66f001a254d91","2023-09-05T21:07:37.413Z","ASNAP","admin","",,,,,,,,,,,,,,,,,,,,,,,,"PilotCam",,"BrowCam",,"UserSelect",,"SciCam",,"/PilotCam.20230905_210737413.jpg",,"/BrowCam.20230905_210737413.jpg",,"/UserSelect.20230905_210737413.jpg",,"/SciCam.20230905_210737413.jpg","meters","0.00","meters","0.72","deg","121.00","ddeg","-8.5309835","meters","9770065.83","meters","-6051801.95","ddeg","-4.0926308","deg","-0.7","deg","-1.5","degC","19.54","degC","-999.99","degC","-999.99","degC","-999.99"
"64f798b76ce66f001a254d95","2023-09-05T21:08:07.434Z","ASNAP","admin","",,,,,,,,,,,,,,,,,,,,,,,,"PilotCam",,"BrowCam",,"UserSelect",,"SciCam",,"/PilotCam.20230905_210807434.jpg",,"/BrowCam.20230905_210807434.jpg",,"/UserSelect.20230905_210807434.jpg",,"/SciCam.20230905_210807434.jpg","meters","0.00","meters","0.72","deg","120.80","ddeg","-8.5309835","meters","9770065.83","meters","-6051801.95","ddeg","-4.0926308","deg","0.5","deg","-1.9","degC","19.59","degC","-999.99","degC","-999.99","degC","-999.99"
"64f798d56ce66f001a254d99","2023-09-05T21:08:37.480Z","ASNAP","admin","",,,,,,,,,,,,,,,,,,,,,,,,"PilotCam",,"BrowCam",,"UserSelect",,"SciCam",,"/PilotCam.20230905_210837480.jpg",,"/BrowCam.20230905_210837480.jpg",,"/UserSelect.20230905_210837480.jpg",,"/SciCam.20230905_210837480.jpg","meters","0.00","meters","0.74","deg","87.90","ddeg","-8.5309835","meters","9770065.83","meters","-6051801.95","ddeg","-4.0926308","deg","0.1","deg","-1.4","degC","19.55","degC","-999.99","degC","-999.99","degC","-999.99"
"64f798f36ce66f001a254d9d","2023-09-05T21:09:07.524Z","ASNAP","admin","",,,,,,,,,,,,,,,,,,,,,,,,"PilotCam",,"BrowCam",,"UserSelect",,"SciCam",,"/PilotCam.20230905_210907524.jpg",,"/BrowCam.20230905_210907524.jpg",,"/UserSelect.20230905_210907524.jpg",,"/SciCam.20230905_210907524.jpg","meters","0.00","meters","0.71","deg","65.68","ddeg","-8.5309835","meters","9770065.83","meters","-6051801.95","ddeg","-4.0926308","deg","0.6","deg","-2.4","degC","19.62","degC","-999.99","degC","-999.99","degC","-999.99"
"64f799116ce66f001a254da1","2023-09-05T21:09:37.570Z","ASNAP","admin","",,,,,,,,,,,,,,,,,,,,,,,,"PilotCam",,"BrowCam",,"UserSelect",,"SciCam",,"/PilotCam.20230905_210937570.jpg",,"/BrowCam.20230905_210937570.jpg",,"/UserSelect.20230905_210937570.jpg",,"/SciCam.20230905_210937570.jpg","meters","0.00","meters","0.73","deg","40.50","ddeg","-8.5309835","meters","9770065.83","meters","-6051801.95","ddeg","-4.0926308","deg","-0.6","deg","-1.4","degC","19.88","degC","-999.99","degC","-999.99","degC","-999.99"
"64f7992f6ce66f001a254da5","2023-09-05T21:10:07.590Z","ASNAP","admin","",,,,,,,,,,,,,,,,,,,,,,,,"PilotCam",,"BrowCam",,"UserSelect",,"SciCam",,"/PilotCam.20230905_211007590.jpg",,"/BrowCam.20230905_211007590.jpg",,"/UserSelect.20230905_211007590.jpg",,"/SciCam.20230905_211007590.jpg","meters","0.00","meters","0.71","deg","37.95","ddeg","-8.5309835","meters","9770065.83","meters","-6051801.95","ddeg","-4.0926308","deg","-0.6","deg","-0.6","degC","19.93","degC","-999.99","degC","-999.99","degC","-999.99"
"64f7994d6ce66f001a254da9","2023-09-05T21:10:37.615Z","ASNAP","admin","",,,,,,,,,,,,,,,,,,,,,,,,"PilotCam",,"BrowCam",,"UserSelect",,"SciCam",,"/PilotCam.20230905_211037615.jpg",,"/BrowCam.20230905_211037615.jpg",,"/UserSelect.20230905_211037615.jpg",,"/SciCam.20230905_211037615.jpg","meters","0.00","meters","0.69","deg","40.06","ddeg","-8.5309835","meters","9770065.83","meters","-6051801.95","ddeg","-4.0926308","deg","-0.9","deg","-0.4","degC","20.17","degC","-999.99","degC","-999.99","degC","-999.99"
"64f7996b6ce66f001a254dad","2023-09-05T21:11:07.660Z","ASNAP","admin","",,,,,,,,,,,,,,,,,,,,,,,,"PilotCam",,"BrowCam",,"UserSelect",,"SciCam",,"/PilotCam.20230905_211107660.jpg",,"/BrowCam.20230905_211107660.jpg",,"/UserSelect.20230905_211107660.jpg",,"/SciCam.20230905_211107660.jpg","meters","0.00","meters","0.68","deg","49.84","ddeg","-8.5309835","meters","9770065.83","meters","-6051801.95","ddeg","-4.0926308","deg","0.6","deg","-1.6","degC","20.22","degC","-999.99","degC","-999.99","degC","-999.99"
"64f799896ce66f001a254db1","2023-09-05T21:11:37.735Z","ASNAP","admin","",,,,,,,,,,,,,,,,,,,,,,,,"PilotCam",,"BrowCam",,"UserSelect",,"SciCam",,"/PilotCam.20230905_211137735.jpg",,"/BrowCam.20230905_211137735.jpg",,"/UserSelect.20230905_211137735.jpg",,"/SciCam.20230905_211137735.jpg","meters","0.00","meters","0.71","deg","152.77","ddeg","-8.5309835","meters","9770065.83","meters","-6051801.95","ddeg","-4.0926308","deg","0.0","deg","-0.9","degC","20.21","degC","-999.99","degC","-999.99","degC","-999.99"
"64f799a76ce66f001a254db5","2023-09-05T21:12:07.767Z","ASNAP","admin","",,,,,,,,,,,,,,,,,,,,,,,,"PilotCam",,"BrowCam",,"UserSelect",,"SciCam",,"/PilotCam.20230905_211207767.jpg",,"/BrowCam.20230905_211207767.jpg",,"/UserSelect.20230905_211207767.jpg",,"/SciCam.20230905_211207767.jpg","meters","0.00","meters","0.72","deg","153.08","ddeg","-8.5309835","meters","9770065.83","meters","-6051801.95","ddeg","-4.0926308","deg","-0.6","deg","-0.6","degC","20.20","degC","-999.99","degC","-999.99","degC","-999.99"
"64f799c56ce66f001a254db9","2023-09-05T21:12:37.839Z","ASNAP","admin","",,,,,,,,,,,,,,,,,,,,,,,,"PilotCam",,"BrowCam",,"UserSelect",,"SciCam",,"/PilotCam.20230905_211237839.jpg",,"/BrowCam.20230905_211237839.jpg",,"/UserSelect.20230905_211237839.jpg",,"/SciCam.20230905_211237839.jpg","meters","0.00","meters","0.73","deg","152.40","ddeg","-8.5309835","meters","9770065.83","meters","-6051801.95","ddeg","-4.0926308","deg","-0.3","deg","-1.2","degC","20.17","degC","-999.99","degC","-999.99","degC","-999.99"
"64f799e06ce66f001a254dbd","2023-09-05T21:13:04.926Z","VEHICLE","guest","",,,,,"Jason in water",,,,"meters","-59344175.9","meters","8.233","deg","191.166","ddeg","45.93357825","ddeg","-130.01409654",,,,,,"PilotCam",,"BrowCam",,"UserSelect",,"SciCam",,"/PilotCam.20230905_211304926.jpg",,"/BrowCam.20230905_211304926.jpg",,"/UserSelect.20230905_211304926.jpg",,"/SciCam.20230905_211304926.jpg","meters","0.00","meters","0.68","deg","193.09","ddeg","-8.5309835","meters","9770065.83","meters","-6051801.95","ddeg","-4.0926308","deg","1.8","deg","-1.1","degC","20.15","degC","-999.99","degC","-999.99","degC","-999.99"
"64f799e36ce66f001a254dc1","2023-09-05T21:13:07.863Z","ASNAP","admin","",,,,,,,,,"meters","-59213235.1","meters","8.233","deg","193.232","ddeg","45.93357825","ddeg","-130.01409654",,,,,,"PilotCam",,"BrowCam",,"UserSelect",,"SciCam",,"/PilotCam.20230905_211307863.jpg",,"/BrowCam.20230905_211307863.jpg",,"/UserSelect.20230905_211307863.jpg",,"/SciCam.20230905_211307863.jpg","meters","0.00","meters","0.68","deg","192.76","ddeg","-8.5309835","meters","9770065.83","meters","-6051801.95","ddeg","-4.0926308","deg","3.1","deg","5.6","degC","20.12","degC","-999.99","degC","-999.99","degC","-999.99"
"64f799ee6ce66f001a254dc5","2023-09-05T21:13:18.889Z","VEHICLE","guest","Starting descent",,,,,,,,,"meters","-58734767.0","meters","8.233","deg","216.242","ddeg","45.93357825","ddeg","-130.01409654",,,,,,"PilotCam",,"BrowCam",,"UserSelect",,"SciCam",,"/PilotCam.20230905_211318889.jpg",,"/BrowCam.20230905_211318889.jpg",,"/UserSelect.20230905_211318889.jpg",,"/SciCam.20230905_211318889.jpg","meters","0.00","meters","2.51","deg","217.68","ddeg","-8.5309835","meters","9770065.83","meters","-6051801.95","ddeg","-4.0926308","deg","-11.3","deg","0.0","degC","20.46","degC","-999.99","degC","-999.99","degC","-999.99"
"64f79a016ce66f001a254dc9","2023-09-05T21:13:37.934Z","ASNAP","admin","",,,,,,,,,"meters","-57914405.4","meters","8.233","deg","214.573","ddeg","45.93357825","ddeg","-130.01409654",,,,,,"PilotCam",,"BrowCam",,"UserSelect",,"SciCam",,"/PilotCam.20230905_211337934.jpg",,"/BrowCam.20230905_211337934.jpg",,"/UserSelect.20230905_211337934.jpg",,"/SciCam.20230905_211337934.jpg","meters","0.00","meters","7.94","deg","214.73","ddeg","-8.5309835","meters","9770065.83","meters","-6051801.95","ddeg","-4.0926308","deg","0.6","deg","2.5","degC","20.52","degC","-999.99","degC","-999.99","degC","-999.99"
"64f79a206ce66f001a254dcd","2023-09-05T21:14:08.007Z","ASNAP","admin","",,,,,,,,,"meters","-56592380.2","meters","17.983","deg","218.730","ddeg","45.93339326","ddeg","-130.01420183",,,,,,"PilotCam",,"BrowCam",,"UserSelect",,"SciCam",,"/PilotCam.20230905_211408007.jpg",,"/BrowCam.20230905_211408007.jpg",,"/UserSelect.20230905_211408007.jpg",,"/SciCam.20230905_211408007.jpg","meters","0.00","meters","17.87","deg","218.89","ddeg","-8.5309835","meters","9770065.83","meters","-6051801.95","ddeg","-4.0926308","deg","-1.5","deg","-1.7","degC","20.03","degC","-999.99","degC","-999.99","degC","-999.99"
"64f79a3e6ce66f001a254dd1","2023-09-05T21:14:38.032Z","ASNAP","admin","",,,,,,,,,"meters","-55332305.7","meters","23.200","deg","218.760","ddeg","45.93333177","ddeg","-130.01422305",,,,,,"PilotCam",,"BrowCam",,"UserSelect",,"SciCam",,"/PilotCam.20230905_211438032.jpg",,"/BrowCam.20230905_211438032.jpg",,"/UserSelect.20230905_211438032.jpg",,"/SciCam.20230905_211438032.jpg","meters","0.00","meters","23.26","deg","218.77","ddeg","-8.5309835","meters","9770065.83","meters","-6051801.95","ddeg","-4.0926308","deg","-0.9","deg","-1.2","degC","20.33","degC","-999.99","degC","-999.99","degC","-999.99"
"64f79a5c6ce66f001a254dd5","2023-09-05T21:15:08.103Z","ASNAP","admin","",,,,,,,,,"meters","-54091075.7","meters","22.594","deg","217.598","ddeg","45.93334388","ddeg","-130.01415860",,,,,,"PilotCam",,"BrowCam",,"UserSelect",,"SciCam",,"/PilotCam.20230905_211508103.jpg",,"/BrowCam.20230905_211508103.jpg",,"/UserSelect.20230905_211508103.jpg",,"/SciCam.20230905_211508103.jpg","meters","0.00","meters","22.77","deg","217.59","ddeg","-1.4590413","meters","9987193.13","meters","-5265762.64","ddeg","-1.2939439","deg","1.8","deg","-1.1","degC","20.16","degC","-999.99","degC","-999.99","degC","-999.99"
"64f79a7a6ce66f001a254dd9","2023-09-05T21:15:38.168Z","ASNAP","admin","",,,,,,,,,"meters","-52868548.3","meters","25.243","deg","218.519","ddeg","45.93334881","ddeg","-130.01412610",,,,,,"PilotCam",,"BrowCam",,"UserSelect",,"SciCam",,"/PilotCam.20230905_211538168.jpg",,"/BrowCam.20230905_211538168.jpg",,"/UserSelect.20230905_211538168.jpg",,"/SciCam.20230905_211538168.jpg","meters","0.00","meters","24.82","deg","218.52","ddeg","0.5370965","meters","10178570.11","meters","-5043893.91","ddeg","1.1728314","deg","-0.6","deg","-0.8","degC","20.20","degC","-999.99","degC","-999.99","degC","-999.99"
"64f79a926ce66f001a254ddd","2023-09-05T21:16:02.218Z","ROV Actions","guest","On","First Football on",,,,,,,,"meters","-51903896.9","meters","27.704","deg","218.187","ddeg","45.93335766","ddeg","-130.01412922",,,,,,"PilotCam",,"BrowCam",,"UserSelect",,"SciCam",,"/PilotCam.20230905_211602218.jpg",,"/BrowCam.20230905_211602218.jpg",,"/UserSelect.20230905_211602218.jpg",,"/SciCam.20230905_211602218.jpg","meters","0.00","meters","27.60","deg","218.18","ddeg","0.5370965","meters","10178570.11","meters","-5043893.91","ddeg","1.1728314","deg","-1.4","deg","0.0","degC","20.12","degC","-999.99","degC","-999.99","degC","-999.99"
"64f79a986ce66f001a254de1","2023-09-05T21:16:08.216Z","ASNAP","admin","",,,,,,,,,"meters","-51664581.6","meters","27.822","deg","218.169","ddeg","45.93336034","ddeg","-130.01413140",,,,,,"PilotCam",,"BrowCam",,"UserSelect",,"SciCam",,"/PilotCam.20230905_211608216.jpg",,"/BrowCam.20230905_211608216.jpg",,"/UserSelect.20230905_211608216.jpg",,"/SciCam.20230905_211608216.jpg","meters","0.00","meters","27.91","deg","218.27","ddeg","0.5370965","meters","10178570.11","meters","-5043893.91","ddeg","1.1728314","deg","-2.8","deg","-0.9","degC","20.11","degC","-999.99","degC","-999.99","degC","-999.99"
"64f79ab66ce66f001a254de5","2023-09-05T21:16:38.264Z","ASNAP","admin","",,,,,,,,,"meters","-50479033.5","meters","30.802","deg","218.784","ddeg","45.93337055","ddeg","-130.01414004",,,,,,"PilotCam",,"BrowCam",,"UserSelect",,"SciCam",,"/PilotCam.20230905_211638264.jpg",,"/BrowCam.20230905_211638264.jpg",,"/UserSelect.20230905_211638264.jpg",,"/SciCam.20230905_211638264.jpg","meters","0.00","meters","30.62","deg","218.88","ddeg","0.5370965","meters","10178570.11","meters","-5043893.91","ddeg","1.1728314","deg","-2.5","deg","-0.8","degC","19.96","degC","-999.99","degC","-999.99","degC","-999.99"
"64f79ad46ce66f001a254de9","2023-09-05T21:17:08.307Z","ASNAP","admin","",,,,,,,,,"meters","-49311762.1","meters","33.916","deg","219.299","ddeg","45.93337722","ddeg","-130.01414820",,,,,,"PilotCam",,"BrowCam",,"UserSelect",,"SciCam",,"/PilotCam.20230905_211708307.jpg",,"/BrowCam.20230905_211708307.jpg",,"/UserSelect.20230905_211708307.jpg",,"/SciCam.20230905_211708307.jpg","meters","0.00","meters","33.55","deg","219.23","ddeg","0.5370965","meters","10178570.11","meters","-5043893.91","ddeg","1.1728314","deg","-1.2","deg","-0.8","degC","19.72","degC","-999.99","degC","-999.99","degC","-999.99"
"64f79af26ce66f001a254ded","2023-09-05T21:17:38.351Z","ASNAP","admin","",,,,,,,,,"meters","-48162625.5","meters","36.323","deg","219.461","ddeg","45.93338405","ddeg","-130.01414982",,,,,,"PilotCam",,"BrowCam",,"UserSelect",,"SciCam",,"/PilotCam.20230905_211738351.jpg",,"/BrowCam.20230905_211738351.jpg",,"/UserSelect.20230905_211738351.jpg",,"/SciCam.20230905_211738351.jpg","meters","0.00","meters","36.05","deg","219.47","ddeg","0.5370965","meters","10178570.11","meters","-5043893.91","ddeg","1.1728314","deg","-2.3","deg","-0.5","degC","19.25","degC","-999.99","degC","-999.99","degC","-999.99"
"64f79b106ce66f001a254df1","2023-09-05T21:18:08.373Z","ASNAP","admin","",,,,,,,,,"meters","-47031481.5","meters","39.118","deg","219.462","ddeg","45.93338272","ddeg","-130.01414328",,,,,,"PilotCam",,"BrowCam",,"UserSelect",,"SciCam",,"/PilotCam.20230905_211808373.jpg",,"/BrowCam.20230905_211808373.jpg",,"/UserSelect.20230905_211808373.jpg",,"/SciCam.20230905_211808373.jpg","meters","0.00","meters","39.50","deg","219.46","ddeg","0.5370965","meters","10178570.11","meters","-5043893.91","ddeg","1.1728314","deg","-3.5","deg","-1.2","degC","18.78","degC","-999.99","degC","-999.99","degC","-999.99"
"64f79b2e6ce66f001a254df5","2023-09-05T21:18:38.410Z","ASNAP","admin","",,,,,,,,,"meters","-45918188.3","meters","42.021","deg","219.508","ddeg","45.93337846","ddeg","-130.01413826",,,,,,"PilotCam",,"BrowCam",,"UserSelect",,"SciCam",,"/PilotCam.20230905_211838410.jpg",,"/BrowCam.20230905_211838410.jpg",,"/UserSelect.20230905_211838410.jpg",,"/SciCam.20230905_211838410.jpg","meters","0.00","meters","41.66","deg","219.52","ddeg","0.5370965","meters","10178570.11","meters","-5043893.91","ddeg","1.1728314","deg","-2.6","deg","-1.5","degC","17.43","degC","-999.99","degC","-999.99","degC","-999.99"
"64f79b4c6ce66f001a254df9","2023-09-05T21:19:08.455Z","ASNAP","admin","",,,,,,,,,"meters","-44822603.9","meters","44.617","deg","219.241","ddeg","45.93338270","ddeg","-130.01414182",,,,,,"PilotCam",,"BrowCam",,"UserSelect",,"SciCam",,"/PilotCam.20230905_211908455.jpg",,"/BrowCam.20230905_211908455.jpg",,"/UserSelect.20230905_211908455.jpg",,"/SciCam.20230905_211908455.jpg","meters","0.00","meters","44.65","deg","219.15","ddeg","0.5370965","meters","10178570.11","meters","-5043893.91","ddeg","1.1728314","deg","-1.4","deg","-1.6","degC","16.39","degC","-999.99","degC","-999.99","degC","-999.99"
"64f79b6a6ce66f001a254dfd","2023-09-05T21:19:38.500Z","ASNAP","admin","",,,,,,,,,"meters","-43744586.3","meters","47.339","deg","219.139","ddeg","45.93338475","ddeg","-130.01415917",,,,,,"PilotCam",,"BrowCam",,"UserSelect",,"SciCam",,"/PilotCam.20230905_211938500.jpg",,"/BrowCam.20230905_211938500.jpg",,"/UserSelect.20230905_211938500.jpg",,"/SciCam.20230905_211938500.jpg","meters","0.00","meters","47.32","deg","219.15","ddeg","0.5370965","meters","10178570.11","meters","-5043893.91","ddeg","1.1728314","deg","-1.3","deg","-1.6","degC","14.01","degC","-999.99","degC","-999.99","degC","-999.99"
"64f79b846ce66f001a254e01","2023-09-05T21:20:04.923Z","ROV Actions","guest","Last on","Last Football on",,,,,,,,"meters","-42824404.2","meters","49.253","deg","220.221","ddeg","45.93338242","ddeg","-130.01417495",,,,,,"PilotCam",,"BrowCam",,"UserSelect",,"SciCam",,"/PilotCam.20230905_212004923.jpg",,"/BrowCam.20230905_212004923.jpg",,"/UserSelect.20230905_212004923.jpg",,"/SciCam.20230905_212004923.jpg","meters","0.00","meters","49.62","deg","219.92","ddeg","0.5370965","meters","10178570.11","meters","-5043893.91","ddeg","1.1728314","deg","-2.3","deg","-3.3","degC","13.16","degC","-999.99","degC","-999.99","degC","-999.99"
"64f79b886ce66f001a254e05","2023-09-05T21:20:08.529Z","ASNAP","admin","",,,,,,,,,"meters","-42683993.5","meters","49.686","deg","219.380","ddeg","45.93338189","ddeg","-130.01417827",,,,,,"PilotCam",,"BrowCam",,"UserSelect",,"SciCam",,"/PilotCam.20230905_212008529.jpg",,"/BrowCam.20230905_212008529.jpg",,"/UserSelect.20230905_212008529.jpg",,"/SciCam.20230905_212008529.jpg","meters","0.00","meters","49.70","deg","219.25","ddeg","0.5370965","meters","10178570.11","meters","-5043893.91","ddeg","1.1728314","deg","-1.5","deg","-1.8","degC","13.06","degC","-999.99","degC","-999.99","degC","-999.99"
"64f79ba66ce66f001a254e09","2023-09-05T21:20:38.565Z","ASNAP","admin","",,,,,,,,,"meters","-41640683.6","meters","57.770","deg","219.027","ddeg","45.93337330","ddeg","-130.01421305",,,,,,"PilotCam",,"BrowCam",,"UserSelect",,"SciCam",,"/PilotCam.20230905_212038565.jpg",,"/BrowCam.20230905_212038565.jpg",,"/UserSelect.20230905_212038565.jpg",,"/SciCam.20230905_212038565.jpg","meters","0.00","meters","58.17","deg","219.05","ddeg","0.5370965","meters","10178570.11","meters","-5043893.91","ddeg","1.1728314","deg","-1.7","deg","-1.3","degC","11.86","degC","-999.99","degC","-999.99","degC","-999.99"
"64f79bc46ce66f001a254e0d","2023-09-05T21:21:08.582Z","ASNAP","admin","",,,,,,,,,"meters","-40614514.5","meters","66.739","deg","220.098","ddeg","45.93335804","ddeg","-130.01424614",,,,,,"PilotCam",,"BrowCam",,"UserSelect",,"SciCam",,"/PilotCam.20230905_212108582.jpg",,"/BrowCam.20230905_212108582.jpg",,"/UserSelect.20230905_212108582.jpg",,"/SciCam.20230905_212108582.jpg","meters","0.00","meters","66.40","deg","220.07","ddeg","2.1855897","meters","10232979.20","meters","-4860665.54","ddeg","1.8741435","deg","-2.0","deg","-1.0","degC","10.51","degC","-999.99","degC","-999.99","degC","-999.99"
"64f79be26ce66f001a254e11","2023-09-05T21:21:38.610Z","ASNAP","admin","",,,,,,,,,"meters","-39605344.4","meters","76.384","deg","219.699","ddeg","45.93334143","ddeg","-130.01427225",,,,,,"PilotCam",,"BrowCam",,"UserSelect",,"SciCam",,"/PilotCam.20230905_212138610.jpg",,"/BrowCam.20230905_212138610.jpg",,"/UserSelect.20230905_212138610.jpg",,"/SciCam.20230905_212138610.jpg","meters","0.00","meters","76.02","deg","219.65","ddeg","15.9964095","meters","11084741.96","meters","-3325606.71","ddeg","12.8530360","deg","-1.8","deg","-0.4","degC","9.74","degC","-999.99","degC","-999.99","degC","-999.99"
"64f79c006ce66f001a254e15","2023-09-05T21:22:08.654Z","ASNAP","admin","",,,,,,,,,"meters","-38613031.2","meters","85.708","deg","218.289","ddeg","45.93332862","ddeg","-130.01429193",,,,,,"PilotCam",,"BrowCam",,"UserSelect",,"SciCam",,"/PilotCam.20230905_212208654.jpg",,"/BrowCam.20230905_212208654.jpg",,"/UserSelect.20230905_212208654.jpg",,"/SciCam.20230905_212208654.jpg","meters","0.00","meters","85.34","deg","218.27","ddeg","15.9964095","meters","11084741.96","meters","-3325606.71","ddeg","12.8530360","deg","1.3","deg","-2.7","degC","9.25","degC","-999.99","degC","-999.99","degC","-999.99"
"64f79c1e6ce66f001a254e19","2023-09-05T21:22:38.694Z","ASNAP","admin","",,,,,,,,,"meters","-37637432.9","meters","95.653","deg","219.309","ddeg","45.93332853","ddeg","-130.01429796",,,,,,"PilotCam",,"BrowCam",,"UserSelect",,"SciCam",,"/PilotCam.20230905_212238694.jpg",,"/BrowCam.20230905_212238694.jpg",,"/UserSelect.20230905_212238694.jpg",,"/SciCam.20230905_212238694.jpg","meters","0.00","meters","95.76","deg","219.37","ddeg","1.1984702","meters","10090767.52","meters","-4970382.88","ddeg","0.0410899","deg","-0.4","deg","-1.5","degC","9.13","degC","-999.99","degC","-999.99","degC","-999.99"
"64f79c3c6ce66f001a254e1d","2023-09-05T21:23:08.723Z","ASNAP","admin","",,,,,,,,,"meters","-36678407.6","meters","104.547","deg","219.500","ddeg","45.93333759","ddeg","-130.01428919",,,,,,"PilotCam",,"BrowCam",,"UserSelect",,"SciCam",,"/PilotCam.20230905_212308723.jpg",,"/BrowCam.20230905_212308723.jpg",,"/UserSelect.20230905_212308723.jpg",,"/SciCam.20230905_212308723.jpg","meters","0.00","meters","104.22","deg","219.50","ddeg","0.2546099","meters","10072389.96","meters","-5075292.01","ddeg","-0.1957897","deg","-2.1","deg","-0.7","degC","8.87","degC","-999.99","degC","-999.99","degC","-999.99"
"64f79c5a6ce66f001a254e21","2023-09-05T21:23:38.768Z","ASNAP","admin","",,,,,,,,,"meters","-35735813.3","meters","114.149","deg","220.498","ddeg","45.93332490","ddeg","-130.01427461",,,,,,"PilotCam",,"BrowCam",,"UserSelect",,"SciCam",,"/PilotCam.20230905_212338768.jpg",,"/BrowCam.20230905_212338768.jpg",,"/UserSelect.20230905_212338768.jpg",,"/SciCam.20230905_212338768.jpg","meters","0.00","meters","113.78","deg","220.52","ddeg","-0.0093513","meters","10105654.92","meters","-5104631.04","ddeg","0.2329828","deg","-2.6","deg","-0.5","degC","8.75","degC","-999.99","degC","-999.99","degC","-999.99"
"64f79c5c6ce66f001a254e25","2023-09-05T21:23:40.422Z","Biology Type","guest","",,,,,,,,"Jelly","meters","-35673554.4","meters","114.972","deg","220.070","ddeg","45.93332320","ddeg","-130.01427302",,,,,,"PilotCam",,"BrowCam",,"UserSelect",,"SciCam",,"/PilotCam.20230905_212340422.jpg",,"/BrowCam.20230905_212340422.jpg",,"/UserSelect.20230905_212340422.jpg",,"/SciCam.20230905_212340422.jpg","meters","0.00","meters","114.99","deg","220.17","ddeg","-0.0890015","meters","10167916.06","meters","-5113484.08","ddeg","1.0355048","deg","-1.8","deg","-0.7","degC","8.63","degC","-999.99","degC","-999.99","degC","-999.99"
"64f79c786ce66f001a254e29","2023-09-05T21:24:08.800Z","ASNAP","admin","",,,,,,,,,"meters","-34809508.0","meters","123.770","deg","219.137","ddeg","45.93330333","ddeg","-130.01424577",,,,,,"PilotCam",,"BrowCam",,"UserSelect",,"SciCam",,"/PilotCam.20230905_212408800.jpg",,"/BrowCam.20230905_212408800.jpg",,"/UserSelect.20230905_212408800.jpg",,"/SciCam.20230905_212408800.jpg","meters","0.00","meters","123.58","deg","219.13","ddeg","-0.1351148","meters","10106823.24","meters","-5118609.53","ddeg","0.2480420","deg","-1.9","deg","-0.4","degC","8.46","degC","-999.99","degC","-999.99","degC","-999.99"
"64f79c966ce66f001a254e2d","2023-09-05T21:24:38.820Z","ASNAP","admin","",,,,,,,,,"meters","-33899349.7","meters","133.143","deg","219.428","ddeg","45.93330269","ddeg","-130.01421687",,,,,,"PilotCam",,"BrowCam",,"UserSelect",,"SciCam",,"/PilotCam.20230905_212438820.jpg",,"/BrowCam.20230905_212438820.jpg",,"/UserSelect.20230905_212438820.jpg",,"/SciCam.20230905_212438820.jpg","meters","0.00","meters","133.21","deg","219.44","ddeg","-0.0851188","meters","10057348.70","meters","-5113052.52","ddeg","-0.3896657","deg","-0.9","deg","-0.5","degC","8.49","degC","-999.99","degC","-999.99","degC","-999.99"
"64f79cb46ce66f001a254e31","2023-09-05T21:25:08.847Z","ASNAP","admin","",,,,,,,,,"meters","-33005196.6","meters","134.549","deg","219.291","ddeg","45.93332025","ddeg","-130.01420751",,,,,,"PilotCam",,"BrowCam",,"UserSelect",,"SciCam",,"/PilotCam.20230905_212508847.jpg",,"/BrowCam.20230905_212508847.jpg",,"/UserSelect.20230905_212508847.jpg",,"/SciCam.20230905_212508847.jpg","meters","0.00","meters","134.63","deg","219.35","ddeg","-0.0851188","meters","10057348.70","meters","-5113052.52","ddeg","-0.3896657","deg","-2.5","deg","-1.0","degC","8.23","degC","-999.99","degC","-999.99","degC","-999.99"
"64f79cd26ce66f001a254e35","2023-09-05T21:25:38.865Z","ASNAP","admin","",,,,,,,,,"meters","-32126906.5","meters","134.661","deg","219.678","ddeg","45.93333575","ddeg","-130.01419612",,,,,,"PilotCam",,"BrowCam",,"UserSelect",,"SciCam",,"/PilotCam.20230905_212538865.jpg",,"/BrowCam.20230905_212538865.jpg",,"/UserSelect.20230905_212538865.jpg",,"/SciCam.20230905_212538865.jpg","meters","0.00","meters","134.46","deg","219.63","ddeg","-0.0851188","meters","10057348.70","meters","-5113052.52","ddeg","-0.3896657","deg","-1.4","deg","-0.8","degC","8.42","degC","-999.99","degC","-999.99","degC","-999.99"
"64f79cf06ce66f001a254e39","2023-09-05T21:26:08.908Z","ASNAP","admin","",,,,,,,,,"meters","-31264337.5","meters","134.436","deg","219.501","ddeg","45.93334282","ddeg","-130.01418881",,,,,,"PilotCam",,"BrowCam",,"UserSelect",,"SciCam",,"/PilotCam.20230905_212608908.jpg",,"/BrowCam.20230905_212608908.jpg",,"/UserSelect.20230905_212608908.jpg",,"/SciCam.20230905_212608908.jpg","meters","0.00","meters","134.70","deg","219.36","ddeg","0.8108647","meters","10111242.69","meters","-5013464.85","ddeg","0.3050070","deg","-1.6","deg","-0.9","degC","8.39","degC","-999.99","degC","-999.99","degC","-999.99"
"64f79d0e6ce66f001a254e3d","2023-09-05T21:26:38.950Z","ASNAP","admin","",,,,,,,,,"meters","-30417347.7","meters","142.363","deg","220.021","ddeg","45.93334642","ddeg","-130.01418157",,,,,,"PilotCam",,"BrowCam",,"UserSelect",,"SciCam",,"/PilotCam.20230905_212638950.jpg",,"/BrowCam.20230905_212638950.jpg",,"/UserSelect.20230905_212638950.jpg",,"/SciCam.20230905_212638950.jpg","meters","0.00","meters","142.41","deg","220.07","ddeg","1.0071982","meters","10072066.57","meters","-4991642.58","ddeg","-0.1999581","deg","-2.9","deg","-0.7","degC","8.31","degC","-999.99","degC","-999.99","degC","-999.99"
"64f79d0f6ce66f001a254e40","2023-09-05T21:26:39.496Z","Biology Type","guest","",,,,,,,,"Unidentified","meters","-30389381.3","meters","142.663","deg","220.070","ddeg","45.93334663","ddeg","-130.01418098",,,,,,"PilotCam",,"BrowCam",,"UserSelect",,"SciCam",,"/PilotCam.20230905_212639496.jpg",,"/BrowCam.20230905_212639496.jpg",,"/UserSelect.20230905_212639496.jpg",,"/SciCam.20230905_212639496.jpg","meters","0.00","meters","142.41","deg","220.07","ddeg","1.0071982","meters","10072066.57","meters","-4991642.58","ddeg","-0.1999581","deg","-2.9","deg","-0.7","degC","8.31","degC","-999.99","degC","-999.99","degC","-999.99"
"64f79d2c6ce66f001a254e45","2023-09-05T21:27:08.970Z","ASNAP","admin","",,,,,,,,,"meters","-29585795.0","meters","150.671","deg","219.978","ddeg","45.93335210","ddeg","-130.01416262",,,,,,"PilotCam",,"BrowCam",,"UserSelect",,"SciCam",,"/PilotCam.20230905_212708970.jpg",,"/BrowCam.20230905_212708970.jpg",,"/UserSelect.20230905_212708970.jpg",,"/SciCam.20230905_212708970.jpg","meters","0.00","meters","150.71","deg","219.99","ddeg","-0.1681162","meters","10032653.40","meters","-5122277.60","ddeg","-0.7079786","deg","-0.6","deg","-0.2","degC","8.28","degC","-999.99","degC","-999.99","degC","-999.99"
"64f79d4b6ce66f001a254e49","2023-09-05T21:27:39.012Z","ASNAP","admin","",,,,,,,,,"meters","-28742590.7","meters","153.956","deg","220.421","ddeg","45.93335609","ddeg","-130.01413092",,,,,,"PilotCam",,"BrowCam",,"UserSelect",,"SciCam",,"/PilotCam.20230905_212739012.jpg",,"/BrowCam.20230905_212739012.jpg",,"/UserSelect.20230905_212739012.jpg",,"/SciCam.20230905_212739012.jpg","meters","0.00","meters","153.86","deg","220.45","ddeg","-2.0395238","meters","10091009.22","meters","-5330282.68","ddeg","0.0442054","deg","-1.8","deg","-0.6","degC","8.33","degC","-999.99","degC","-999.99","degC","-999.99"
"64f79d696ce66f001a254e4d","2023-09-05T21:28:09.064Z","ASNAP","admin","",,,,,,,,,"meters","-27941989.1","meters","167.144","deg","219.958","ddeg","45.93334929","ddeg","-130.01410390",,,,,,"PilotCam",,"BrowCam",,"UserSelect",,"SciCam",,"/PilotCam.20230905_212809064.jpg",,"/BrowCam.20230905_212809064.jpg",,"/UserSelect.20230905_212809064.jpg",,"/SciCam.20230905_212809064.jpg","meters","0.00","meters","167.08","deg","219.97","ddeg","0.5727442","meters","10051577.92","meters","-5039931.70","ddeg","-0.4640489","deg","-0.4","deg","-0.2","degC","8.34","degC","-999.99","degC","-999.99","degC","-999.99"
"64f79d876ce66f001a254e51","2023-09-05T21:28:39.132Z","ASNAP","admin","",,,,,,,,,"meters","-27156394.0","meters","181.279","deg","219.503","ddeg","45.93333675","ddeg","-130.01409508",,,,,,"PilotCam",,"BrowCam",,"UserSelect",,"SciCam",,"/PilotCam.20230905_212839132.jpg",,"/BrowCam.20230905_212839132.jpg",,"/UserSelect.20230905_212839132.jpg",,"/SciCam.20230905_212839132.jpg","meters","0.00","meters","181.20","deg","219.51","ddeg","2.5789050","meters","10171563.44","meters","-4816948.94","ddeg","1.0825181","deg","-1.2","deg","-0.5","degC","8.22","degC","-999.99","degC","-999.99","degC","-999.99"
"64f79da56ce66f001a254e55","2023-09-05T21:29:09.175Z","ASNAP","admin","",,,,,,,,,"meters","-26385663.4","meters","195.310","deg","219.571","ddeg","45.93332251","ddeg","-130.01408494",,,,,,"PilotCam",,"BrowCam",,"UserSelect",,"SciCam",,"/PilotCam.20230905_212909175.jpg",,"/BrowCam.20230905_212909175.jpg",,"/UserSelect.20230905_212909175.jpg",,"/SciCam.20230905_212909175.jpg","meters","0.00","meters","195.06","deg","219.58","ddeg","1.0811471","meters","10076448.23","meters","-4983423.23","ddeg","-0.1434802","deg","-0.3","deg","-1.2","degC","8.12","degC","-999.99","degC","-999.99","degC","-999.99"
"64f79dc36ce66f001a254e59","2023-09-05T21:29:39.243Z","ASNAP","admin","",,,,,,,,,"meters","-25629655.4","meters","209.200","deg","220.047","ddeg","45.93331022","ddeg","-130.01407610",,,,,,"PilotCam",,"BrowCam",,"UserSelect",,"SciCam",,"/PilotCam.20230905_212939243.jpg",,"/BrowCam.20230905_212939243.jpg",,"/UserSelect.20230905_212939243.jpg",,"/SciCam.20230905_212939243.jpg","meters","0.00","meters","208.99","deg","219.97","ddeg","0.8409177","meters","10141195.73","meters","-5010124.49","ddeg","0.6910901","deg","-1.4","deg","-1.0","degC","8.03","degC","-999.99","degC","-999.99","degC","-999.99"
"64f79de16ce66f001a254e5d","2023-09-05T21:30:09.287Z","ASNAP","admin","",,,,,,,,,"meters","-24888227.9","meters","224.547","deg","220.501","ddeg","45.93330307","ddeg","-130.01407767",,,,,,"PilotCam",,"BrowCam",,"UserSelect",,"SciCam",,"/PilotCam.20230905_213009287.jpg",,"/BrowCam.20230905_213009287.jpg",,"/UserSelect.20230905_213009287.jpg",,"/SciCam.20230905_213009287.jpg","meters","0.00","meters","224.37","deg","220.52","ddeg","0.8409177","meters","10141195.73","meters","-5010124.49","ddeg","0.6910901","deg","-1.1","deg","-0.4","degC","7.79","degC","-999.99","degC","-999.99","degC","-999.99"
"64f79dff6ce66f001a254e61","2023-09-05T21:30:39.330Z","ASNAP","admin","",,,,,,,,,"meters","-24161239.1","meters","238.236","deg","219.812","ddeg","45.93330461","ddeg","-130.01408925",,,,,,"PilotCam",,"BrowCam",,"UserSelect",,"SciCam",,"/PilotCam.20230905_213039330.jpg",,"/BrowCam.20230905_213039330.jpg",,"/UserSelect.20230905_213039330.jpg",,"/SciCam.20230905_213039330.jpg","meters","0.00","meters","238.05","deg","219.80","ddeg","0.8409177","meters","10141195.73","meters","-5010124.49","ddeg","0.6910901","deg","-0.9","deg","-0.9","degC","7.76","degC","-999.99","degC","-999.99","degC","-999.99"
"64f79e1d6ce66f001a254e65","2023-09-05T21:31:09.408Z","ASNAP","admin","",,,,,,,,,"meters","-23448546.9","meters","252.631","deg","219.768","ddeg","45.93330782","ddeg","-130.01410355",,,,,,"PilotCam",,"BrowCam",,"UserSelect",,"SciCam",,"/PilotCam.20230905_213109408.jpg",,"/BrowCam.20230905_213109408.jpg",,"/UserSelect.20230905_213109408.jpg",,"/SciCam.20230905_213109408.jpg","meters","0.00","meters","252.39","deg","219.72","ddeg","0.8409177","meters","10141195.73","meters","-5010124.49","ddeg","0.6910901","deg","-1.4","deg","-0.7","degC","7.57","degC","-999.99","degC","-999.99","degC","-999.99"
"64f79e3b6ce66f001a254e69","2023-09-05T21:31:39.478Z","ASNAP","admin","",,,,,,,,,"meters","-22750009.3","meters","267.079","deg","219.816","ddeg","45.93331209","ddeg","-130.01412148",,,,,,"PilotCam",,"BrowCam",,"UserSelect",,"SciCam",,"/PilotCam.20230905_213139478.jpg",,"/BrowCam.20230905_213139478.jpg",,"/UserSelect.20230905_213139478.jpg",,"/SciCam.20230905_213139478.jpg","meters","0.00","meters","267.00","deg","219.79","ddeg","0.8409177","meters","10141195.73","meters","-5010124.49","ddeg","0.6910901","deg","-0.5","deg","-0.8","degC","7.36","degC","-999.99","degC","-999.99","degC","-999.99"
"64f79e596ce66f001a254e6d","2023-09-05T21:32:09.510Z","ASNAP","admin","",,,,,,,,,"meters","-22065484.4","meters","281.169","deg","220.230","ddeg","45.93333341","ddeg","-130.01413651",,,,,,"PilotCam",,"BrowCam",,"UserSelect",,"SciCam",,"/PilotCam.20230905_213209510.jpg",,"/BrowCam.20230905_213209510.jpg",,"/UserSelect.20230905_213209510.jpg",,"/SciCam.20230905_213209510.jpg","meters","0.00","meters","280.97","deg","220.23","ddeg","0.8409177","meters","10141195.73","meters","-5010124.49","ddeg","0.6910901","deg","-2.4","deg","-0.9","degC","7.30","degC","-999.99","degC","-999.99","degC","-999.99"
"64f79e776ce66f001a254e71","2023-09-05T21:32:39.553Z","ASNAP","admin","",,,,,,,,,"meters","-21394830.2","meters","295.018","deg","219.351","ddeg","45.93336124","ddeg","-130.01415134",,,,,,"PilotCam",,"BrowCam",,"UserSelect",,"SciCam",,"/PilotCam.20230905_213239553.jpg",,"/BrowCam.20230905_213239553.jpg",,"/UserSelect.20230905_213239553.jpg",,"/SciCam.20230905_213239553.jpg","meters","0.00","meters","294.80","deg","219.40","ddeg","0.8409177","meters","10141195.73","meters","-5010124.49","ddeg","0.6910901","deg","-3.3","deg","-1.5","degC","7.16","degC","-999.99","degC","-999.99","degC","-999.99"
