"id","ts","event_value","event_author","event_free_text","event_option.actions","event_option.cabled_plug","event_option.dive_#/summary","event_option.dummy_plug","event_option.filename","event_option.highlights","event_option.location","event_option.milestone","event_option.new_watchstander","event_option.sample_name","event_option.type","vehicleReNavData.altitude_uom","vehicleReNavData.altitude_value","vehicleReNavData.depth_uom","vehicleReNavData.depth_value","vehicleReNavData.heading_uom","vehicleReNavData.heading_value","vehicleReNavData.latitude_uom","vehicleReNavData.latitude_value","vehicleReNavData.longitude_uom","vehicleReNavData.longitude_value","vehicleReNavData.pitch_uom","vehicleReNavData.pitch_value","vehicleReNavData.roll_uom","vehicleReNavData.roll_value","vehicleRealtimeFramegrabberData.camera_name_2_uom","vehicleRealtimeFramegrabberData.camera_name_2_value","vehicleRealtimeFramegrabberData.camera_name_3_uom","vehicleRealtimeFramegrabberData.camera_name_3_value","vehicleRealtimeFramegrabberData.camera_name_4_uom","vehicleRealtimeFramegrabberData.camera_name_4_value","vehicleRealtimeFramegrabberData.camera_name_uom","vehicleRealtimeFramegrabberData.camera_name_value","vehicleRealtimeFramegrabberData.filename_2_uom","vehicleRealtimeFramegrabberData.filename_2_value","vehicleRealtimeFramegrabberData.filename_3_uom","vehicleRealtimeFramegrabberData.filename_3_value","vehicleRealtimeFramegrabberData.filename_4_uom","vehicleRealtimeFramegrabberData.filename_4_value","vehicleRealtimeFramegrabberData.filename_uom","vehicleRealtimeFramegrabberData.filename_value","vehicleRealtimeNavData.altitude_uom","vehicleRealtimeNavData.altitude_value","vehicleRealtimeNavData.depth_uom","vehicleRealtimeNavData.depth_value","vehicleRealtimeNavData.heading_uom","vehicleRealtimeNavData.heading_value","vehicleRealtimeNavData.latitude_uom","vehicleRealtimeNavData.latitude_value","vehicleRealtimeNavData.local_x_uom","vehicleRealtimeNavData.local_x_value","vehicleRealtimeNavData.local_y_uom","vehicleRealtimeNavData.local_y_value","vehicleRealtimeNavData.longitude_uom","vehicleRealtimeNavData.longitude_value","vehicleRealtimeNavData.pitch_uom","vehicleRealtimeNavData.pitch_value","vehicleRealtimeNavData.roll_uom","vehicleRealtimeNavData.roll_value","vehicleTemperatureProbe.probe1_temperature_uom","vehicleTemperatureProbe.probe1_temperature_value","vehicleTemperatureProbe.probe2_temperature_uom","vehicleTemperatureProbe.probe2_temperature_value","vehicleTemperatureProbe.probe3_temperature_uom","vehicleTemperatureProbe.probe3_temperature_value","vehicleTemperatureProbe.probe4_temperature_uom","vehicleTemperatureProbe.probe4_temperature_value"
"65011c0019a182001b1d19f1","2023-09-13T02:18:40.515Z","VEHICLE","guest","",,,,,,,,"Jason off deck",,,,"meters","-8915889.1","meters","15.064","deg","256.241","ddeg","45.81638770","ddeg","-129.75263687",,,,,,"PilotCam",,"BrowCam",,"UserSelect",,"SciCam",,"/PilotCam.20230913_021840515.jpg",,"/BrowCam.20230913_021840515.jpg",,"/UserSelect.20230913_021840515.jpg",,"/SciCam.20230913_021840515.jpg","meters","0.00","meters","2.81","deg","257.33","ddeg","30.5761412","meters","8955910.86","meters","-1705084.09","ddeg","-14.5867734","deg","-6.5","deg","-7.6","degC","17.89","degC","-999.99","degC","-999.99","degC","-999.99"
"65011c0719a182001b1d19f5","2023-09-13T02:18:47.762Z","VEHICLE","guest","",,,,,,,,"Jason in water",,,,"meters","-8886296.5","meters","15.064","deg","237.993","ddeg","45.81638770","ddeg","-129.75263687",,,,,,"PilotCam",,"BrowCam",,"UserSelect",,"SciCam",,"/PilotCam.20230913_021847762.jpg",,"/BrowCam.20230913_021847762.jpg",,"/UserSelect.20230913_021847762.jpg",,"/SciCam.20230913_021847762.jpg","meters","0.00","meters","2.35","deg","239.39","ddeg","30.5761412","meters","8955910.86","meters","-1705084.09","ddeg","-14.5867734","deg","-13.2","deg","-3.4","degC","17.90","degC","-999.99","degC","-999.99","degC","-999.99"
"65011d4419a182001b1d19fd","2023-09-13T02:24:04.761Z","ASNAP","admin","",,,,,,,,,,,,"meters","-7613749.9","meters","22.114","deg","241.512","ddeg","45.81636943","ddeg","-129.75288966",,,,,,"PilotCam",,"BrowCam",,"UserSelect",,"SciCam",,"/PilotCam.20230913_022404761.jpg",,"/BrowCam.20230913_022404761.jpg",,"/UserSelect.20230913_022404761.jpg",,"/SciCam.20230913_022404761.jpg","meters","0.00","meters","22.09","deg","241.58","ddeg","4.3447490","meters","9628827.96","meters","-4620677.14","ddeg","-5.9131323","deg","-3.9","deg","0.9","degC","17.44","degC","-999.99","degC","-999.99","degC","-999.99"
"65011d6219a182001b1d1a01","2023-09-13T02:24:34.779Z","ASNAP","admin","",,,,,,,,,,,,"meters","-7500038.8","meters","25.523","deg","241.632","ddeg","45.81637964","ddeg","-129.75287530",,,,,,"PilotCam",,"BrowCam",,"UserSelect",,"SciCam",,"/PilotCam.20230913_022434779.jpg",,"/BrowCam.20230913_022434779.jpg",,"/UserSelect.20230913_022434779.jpg",,"/SciCam.20230913_022434779.jpg","meters","0.00","meters","25.58","deg","241.69","ddeg","4.3447490","meters","9628827.96","meters","-4620677.14","ddeg","-5.9131323","deg","-4.6","deg","2.6","degC","17.47","degC","-999.99","degC","-999.99","degC","-999.99"
"65011d8019a182001b1d1a05","2023-09-13T02:25:04.807Z","ASNAP","admin","",,,,,,,,,,,,"meters","-7387465.6","meters","26.212","deg","242.020","ddeg","45.81637442","ddeg","-129.75285760",,,,,,"PilotCam",,"BrowCam",,"UserSelect",,"SciCam",,"/PilotCam.20230913_022504807.jpg",,"/BrowCam.20230913_022504807.jpg",,"/UserSelect.20230913_022504807.jpg",,"/SciCam.20230913_022504807.jpg","meters","0.00","meters","26.48","deg","242.00","ddeg","4.3447490","meters","9628827.96","meters","-4620677.14","ddeg","-5.9131323","deg","-4.2","deg","1.2","degC","17.39","degC","-999.99","degC","-999.99","degC","-999.99"
"65011d9e19a182001b1d1a09","2023-09-13T02:25:34.833Z","ASNAP","admin","",,,,,,,,,,,,"meters","-7276024.5","meters","27.208","deg","244.051","ddeg","45.81636612","ddeg","-129.75285060",,,,,,"PilotCam",,"BrowCam",,"UserSelect",,"SciCam",,"/PilotCam.20230913_022534833.jpg",,"/BrowCam.20230913_022534833.jpg",,"/UserSelect.20230913_022534833.jpg",,"/SciCam.20230913_022534833.jpg","meters","0.00","meters","27.21","deg","243.83","ddeg","4.3447490","meters","9628827.96","meters","-4620677.14","ddeg","-5.9131323","deg","-4.3","deg","1.7","degC","17.21","degC","-999.99","degC","-999.99","degC","-999.99"
"65011dbc19a182001b1d1a0d","2023-09-13T02:26:04.867Z","ASNAP","admin","",,,,,,,,,,,,"meters","-7165709.8","meters","30.426","deg","239.826","ddeg","45.81633989","ddeg","-129.75288721",,,,,,"PilotCam",,"BrowCam",,"UserSelect",,"SciCam",,"/PilotCam.20230913_022604867.jpg",,"/BrowCam.20230913_022604867.jpg",,"/UserSelect.20230913_022604867.jpg",,"/SciCam.20230913_022604867.jpg","meters","0.00","meters","30.49","deg","239.59","ddeg","4.3447490","meters","9628827.96","meters","-4620677.14","ddeg","-5.9131323","deg","-3.1","deg","0.5","degC","17.37","degC","-999.99","degC","-999.99","degC","-999.99"
"65011dda19a182001b1d1a11","2023-09-13T02:26:34.912Z","ASNAP","admin","",,,,,,,,,,,,"meters","-7056515.9","meters","40.989","deg","241.917","ddeg","45.81633109","ddeg","-129.75292341",,,,,,"PilotCam",,"BrowCam",,"UserSelect",,"SciCam",,"/PilotCam.20230913_022634912.jpg",,"/BrowCam.20230913_022634912.jpg",,"/UserSelect.20230913_022634912.jpg",,"/SciCam.20230913_022634912.jpg","meters","0.00","meters","41.15","deg","241.95","ddeg","4.3447490","meters","9628827.96","meters","-4620677.14","ddeg","-5.9131323","deg","-4.7","deg","1.1","degC","17.05","degC","-999.99","degC","-999.99","degC","-999.99"
"65011df819a182001b1d1a15","2023-09-13T02:27:04.959Z","ASNAP","admin","",,,,,,,,,,,,"meters","-6948436.8","meters","46.560","deg","241.762","ddeg","45.81634868","ddeg","-129.75282748",,,,,,"PilotCam",,"BrowCam",,"UserSelect",,"SciCam",,"/PilotCam.20230913_022704959.jpg",,"/BrowCam.20230913_022704959.jpg",,"/UserSelect.20230913_022704959.jpg",,"/SciCam.20230913_022704959.jpg","meters","0.00","meters","46.57","deg","241.77","ddeg","4.3447490","meters","9628827.96","meters","-4620677.14","ddeg","-5.9131323","deg","-4.7","deg","1.2","degC","15.67","degC","-999.99","degC","-999.99","degC","-999.99"
"65011e1619a182001b1d1a19","2023-09-13T02:27:34.993Z","ASNAP","admin","",,,,,,,,,,,,"meters","-6841467.1","meters","58.016","deg","240.491","ddeg","45.81632886","ddeg","-129.75280077",,,,,,"PilotCam",,"BrowCam",,"UserSelect",,"SciCam",,"/PilotCam.20230913_022734993.jpg",,"/BrowCam.20230913_022734993.jpg",,"/UserSelect.20230913_022734993.jpg",,"/SciCam.20230913_022734993.jpg","meters","0.00","meters","58.22","deg","240.44","ddeg","4.3447490","meters","9628827.96","meters","-4620677.14","ddeg","-5.9131323","deg","-3.0","deg","1.3","degC","13.27","degC","-999.99","degC","-999.99","degC","-999.99"
"65011e3519a182001b1d1a1d","2023-09-13T02:28:05.054Z","ASNAP","admin","",,,,,,,,,,,,"meters","-6732090.9","meters","68.821","deg","240.912","ddeg","45.81625829","ddeg","-129.75288056",,,,,,"PilotCam",,"BrowCam",,"UserSelect",,"SciCam",,"/PilotCam.20230913_022805054.jpg",,"/BrowCam.20230913_022805054.jpg",,"/UserSelect.20230913_022805054.jpg",,"/SciCam.20230913_022805054.jpg","meters","0.00","meters","68.58","deg","240.83","ddeg","4.3447490","meters","9628827.96","meters","-4620677.14","ddeg","-5.9131323","deg","-3.3","deg","1.0","degC","10.53","degC","-999.99","degC","-999.99","degC","-999.99"
"65011e5319a182001b1d1a21","2023-09-13T02:28:35.128Z","ASNAP","admin","",,,,,,,,,,,,"meters","-6627358.9","meters","82.776","deg","240.678","ddeg","45.81619606","ddeg","-129.75293361",,,,,,"PilotCam",,"BrowCam",,"UserSelect",,"SciCam",,"/PilotCam.20230913_022835128.jpg",,"/BrowCam.20230913_022835128.jpg",,"/UserSelect.20230913_022835128.jpg",,"/SciCam.20230913_022835128.jpg","meters","0.00","meters","82.61","deg","240.70","ddeg","4.3447490","meters","9628827.96","meters","-4620677.14","ddeg","-5.9131323","deg","-3.6","deg","1.3","degC","8.99","degC","-999.99","degC","-999.99","degC","-999.99"
"65011e7119a182001b1d1a25","2023-09-13T02:29:05.179Z","ASNAP","admin","",,,,,,,,,,,,"meters","-6523718.9","meters","91.359","deg","240.710","ddeg","45.81614816","ddeg","-129.75297319",,,,,,"PilotCam",,"BrowCam",,"UserSelect",,"SciCam",,"/PilotCam.20230913_022905179.jpg",,"/BrowCam.20230913_022905179.jpg",,"/UserSelect.20230913_022905179.jpg",,"/SciCam.20230913_022905179.jpg","meters","0.00","meters","91.21","deg","240.69","ddeg","4.3447490","meters","9628827.96","meters","-4620677.14","ddeg","-5.9131323","deg","-3.6","deg","1.2","degC","7.94","degC","-999.99","degC","-999.99","degC","-999.99"
"65011e8f19a182001b1d1a29","2023-09-13T02:29:35.242Z","ASNAP","admin","",,,,,,,,,,,,"meters","-6421165.0","meters","102.499","deg","241.310","ddeg","45.81611998","ddeg","-129.75299365",,,,,,"PilotCam",,"BrowCam",,"UserSelect",,"SciCam",,"/PilotCam.20230913_022935242.jpg",,"/BrowCam.20230913_022935242.jpg",,"/UserSelect.20230913_022935242.jpg",,"/SciCam.20230913_022935242.jpg","meters","0.00","meters","102.33","deg","241.32","ddeg","4.3447490","meters","9628827.96","meters","-4620677.14","ddeg","-5.9131323","deg","-3.7","deg","1.1","degC","7.41","degC","-999.99","degC","-999.99","degC","-999.99"
"65011e9819a182001b1d1a2d","2023-09-13T02:29:44.917Z","FREE_FORM","guest","J2-1554",,,,,,,,,,,,"meters","-6390609.8","meters","106.165","deg","241.482","ddeg","45.81611909","ddeg","-129.75298602",,,,,,"PilotCam",,"BrowCam",,"UserSelect",,"SciCam",,"/PilotCam.20230913_022944917.jpg",,"/BrowCam.20230913_022944917.jpg",,"/UserSelect.20230913_022944917.jpg",,"/SciCam.20230913_022944917.jpg","meters","0.00","meters","106.35","deg","241.53","ddeg","4.3447490","meters","9628827.96","meters","-4620677.14","ddeg","-5.9131323","deg","-3.3","deg","1.1","degC","7.44","degC","-999.99","degC","-999.99","degC","-999.99"
"65011ead19a182001b1d1a31","2023-09-13T02:30:05.316Z","ASNAP","admin","",,,,,,,,,,,,"meters","-6319691.5","meters","113.194","deg","241.400","ddeg","45.81612934","ddeg","-129.75294361",,,,,,"PilotCam",,"BrowCam",,"UserSelect",,"SciCam",,"/PilotCam.20230913_023005316.jpg",,"/BrowCam.20230913_023005316.jpg",,"/UserSelect.20230913_023005316.jpg",,"/SciCam.20230913_023005316.jpg","meters","0.00","meters","113.01","deg","241.39","ddeg","4.3447490","meters","9628827.96","meters","-4620677.14","ddeg","-5.9131323","deg","-4.7","deg","1.1","degC","7.22","degC","-999.99","degC","-999.99","degC","-999.99"
"65011ecb19a182001b1d1a35","2023-09-13T02:30:35.376Z","ASNAP","admin","",,,,,,,,,,,,"meters","-6219292.8","meters","125.868","deg","241.510","ddeg","45.81615219","ddeg","-129.75286329",,,,,,"PilotCam",,"BrowCam",,"UserSelect",,"SciCam",,"/PilotCam.20230913_023035376.jpg",,"/BrowCam.20230913_023035376.jpg",,"/UserSelect.20230913_023035376.jpg",,"/SciCam.20230913_023035376.jpg","meters","0.00","meters","125.93","deg","241.63","ddeg","4.3447490","meters","9628827.96","meters","-4620677.14","ddeg","-5.9131323","deg","-6.2","deg","0.1","degC","6.98","degC","-999.99","degC","-999.99","degC","-999.99"
"65011ee919a182001b1d1a39","2023-09-13T02:31:05.421Z","ASNAP","admin","",,,,,,,,,,,,"meters","-6119963.1","meters","125.027","deg","241.512","ddeg","45.81617613","ddeg","-129.75278513",,,,,,"PilotCam",,"BrowCam",,"UserSelect",,"SciCam",,"/PilotCam.20230913_023105421.jpg",,"/BrowCam.20230913_023105421.jpg",,"/UserSelect.20230913_023105421.jpg",,"/SciCam.20230913_023105421.jpg","meters","0.00","meters","125.01","deg","241.53","ddeg","4.3447490","meters","9628827.96","meters","-4620677.14","ddeg","-5.9131323","deg","-5.3","deg","1.2","degC","6.86","degC","-999.99","degC","-999.99","degC","-999.99"
"65011f0719a182001b1d1a3d","2023-09-13T02:31:35.472Z","ASNAP","admin","",,,,,,,,,,,,"meters","-6021696.7","meters","125.173","deg","241.632","ddeg","45.81617963","ddeg","-129.75276601",,,,,,"PilotCam",,"BrowCam",,"UserSelect",,"SciCam",,"/PilotCam.20230913_023135472.jpg",,"/BrowCam.20230913_023135472.jpg",,"/UserSelect.20230913_023135472.jpg",,"/SciCam.20230913_023135472.jpg","meters","0.00","meters","125.16","deg","241.54","ddeg","4.3447490","meters","9628827.96","meters","-4620677.14","ddeg","-5.9131323","deg","-4.9","deg","0.9","degC","6.76","degC","-999.99","degC","-999.99","degC","-999.99"
"65011f2519a182001b1d1a41","2023-09-13T02:32:05.532Z","ASNAP","admin","",,,,,,,,,,,,"meters","-5924487.8","meters","125.086","deg","241.610","ddeg","45.81612108","ddeg","-129.75289054",,,,,,"PilotCam",,"BrowCam",,"UserSelect",,"SciCam",,"/PilotCam.20230913_023205532.jpg",,"/BrowCam.20230913_023205532.jpg",,"/UserSelect.20230913_023205532.jpg",,"/SciCam.20230913_023205532.jpg","meters","0.00","meters","125.01","deg","241.68","ddeg","4.3447490","meters","9628827.96","meters","-4620677.14","ddeg","-5.9131323","deg","-5.1","deg","0.9","degC","6.70","degC","-999.99","degC","-999.99","degC","-999.99"
"65011f4319a182001b1d1a45","2023-09-13T02:32:35.569Z","ASNAP","admin","",,,,,,,,,,,,"meters","-5828330.8","meters","132.660","deg","241.241","ddeg","45.81609787","ddeg","-129.75293108",,,,,,"PilotCam",,"BrowCam",,"UserSelect",,"SciCam",,"/PilotCam.20230913_023235569.jpg",,"/BrowCam.20230913_023235569.jpg",,"/UserSelect.20230913_023235569.jpg",,"/SciCam.20230913_023235569.jpg","meters","0.00","meters","132.25","deg","241.34","ddeg","4.3447490","meters","9628827.96","meters","-4620677.14","ddeg","-5.9131323","deg","-4.2","deg","1.3","degC","6.58","degC","-999.99","degC","-999.99","degC","-999.99"
"65011f6119a182001b1d1a49","2023-09-13T02:33:05.639Z","ASNAP","admin","",,,,,,,,,,,,"meters","-5733219.8","meters","144.429","deg","241.201","ddeg","45.81607092","ddeg","-129.75290463",,,,,,"PilotCam",,"BrowCam",,"UserSelect",,"SciCam",,"/PilotCam.20230913_023305639.jpg",,"/BrowCam.20230913_023305639.jpg",,"/UserSelect.20230913_023305639.jpg",,"/SciCam.20230913_023305639.jpg","meters","0.00","meters","144.40","deg","241.15","ddeg","4.3447490","meters","9628827.96","meters","-4620677.14","ddeg","-5.9131323","deg","-5.6","deg","1.7","degC","6.61","degC","-999.99","degC","-999.99","degC","-999.99"
"65011f7f19a182001b1d1a4d","2023-09-13T02:33:35.693Z","ASNAP","admin","",,,,,,,,,,,,"meters","-5639149.3","meters","144.528","deg","241.461","ddeg","45.81606783","ddeg","-129.75283302",,,,,,"PilotCam",,"BrowCam",,"UserSelect",,"SciCam",,"/PilotCam.20230913_023335693.jpg",,"/BrowCam.20230913_023335693.jpg",,"/UserSelect.20230913_023335693.jpg",,"/SciCam.20230913_023335693.jpg","meters","0.00","meters","144.45","deg","241.38","ddeg","4.3447490","meters","9628827.96","meters","-4620677.14","ddeg","-5.9131323","deg","-6.1","deg","0.5","degC","6.41","degC","-999.99","degC","-999.99","degC","-999.99"
"65011f9d19a182001b1d1a51","2023-09-13T02:34:05.736Z","ASNAP","admin","",,,,,,,,,,,,"meters","-5546113.5","meters","144.609","deg","241.063","ddeg","45.81606145","ddeg","-129.75280500",,,,,,"PilotCam",,"BrowCam",,"UserSelect",,"SciCam",,"/PilotCam.20230913_023405736.jpg",,"/BrowCam.20230913_023405736.jpg",,"/UserSelect.20230913_023405736.jpg",,"/SciCam.20230913_023405736.jpg","meters","0.00","meters","144.59","deg","241.03","ddeg","4.3447490","meters","9628827.96","meters","-4620677.14","ddeg","-5.9131323","deg","-4.9","deg","2.3","degC","6.48","degC","-999.99","degC","-999.99","degC","-999.99"
"65011fbb19a182001b1d1a55","2023-09-13T02:34:35.782Z","ASNAP","admin","",,,,,,,,,,,,"meters","-5454106.6","meters","156.675","deg","240.859","ddeg","45.81604263","ddeg","-129.75276636",,,,,,"PilotCam",,"BrowCam",,"UserSelect",,"SciCam",,"/PilotCam.20230913_023435782.jpg",,"/BrowCam.20230913_023435782.jpg",,"/UserSelect.20230913_023435782.jpg",,"/SciCam.20230913_023435782.jpg","meters","0.00","meters","156.93","deg","240.90","ddeg","4.3447490","meters","9628827.96","meters","-4620677.14","ddeg","-5.9131323","deg","-3.5","deg","1.9","degC","6.49","degC","-999.99","degC","-999.99","degC","-999.99"
"65011fd919a182001b1d1a59","2023-09-13T02:35:05.801Z","ASNAP","admin","",,,,,,,,,,,,"meters","-5363122.9","meters","171.044","deg","241.461","ddeg","45.81602900","ddeg","-129.75272152",,,,,,"PilotCam",,"BrowCam",,"UserSelect",,"SciCam",,"/PilotCam.20230913_023505801.jpg",,"/BrowCam.20230913_023505801.jpg",,"/UserSelect.20230913_023505801.jpg",,"/SciCam.20230913_023505801.jpg","meters","0.00","meters","171.20","deg","241.24","ddeg","4.3447490","meters","9628827.96","meters","-4620677.14","ddeg","-5.9131323","deg","-5.9","deg","-3.3","degC","6.87","degC","-999.99","degC","-999.99","degC","-999.99"
"65011ff719a182001b1d1a65","2023-09-13T02:35:35.872Z","ASNAP","admin","",,,,,,,,,,,,"meters","-5273156.8","meters","186.554","deg","261.221","ddeg","45.81602909","ddeg","-129.75268103",,,,,,"PilotCam",,"BrowCam",,"UserSelect",,"SciCam",,"/PilotCam.20230913_023535872.jpg",,"/BrowCam.20230913_023535872.jpg",,"/UserSelect.20230913_023535872.jpg",,"/SciCam.20230913_023535872.jpg","meters","0.00","meters","186.90","deg","263.90","ddeg","4.3447490","meters","9628827.96","meters","-4620677.14","ddeg","-5.9131323","deg","-4.2","deg","-1.8","degC","6.49","degC","-999.99","degC","-999.99","degC","-999.99"
"6501201519a182001b1d1a69","2023-09-13T02:36:05.921Z","ASNAP","admin","",,,,,,,,,,,,"meters","-5184202.4","meters","201.889","deg","283.528","ddeg","45.81604678","ddeg","-129.75266217",,,,,,"PilotCam",,"BrowCam",,"UserSelect",,"SciCam",,"/PilotCam.20230913_023605921.jpg",,"/BrowCam.20230913_023605921.jpg",,"/UserSelect.20230913_023605921.jpg",,"/SciCam.20230913_023605921.jpg","meters","0.00","meters","202.09","deg","283.53","ddeg","4.3447490","meters","9628827.96","meters","-4620677.14","ddeg","-5.9131323","deg","-3.5","deg","-1.7","degC","6.36","degC","-999.99","degC","-999.99","degC","-999.99"
"6501203319a182001b1d1a71","2023-09-13T02:36:35.940Z","ASNAP","admin","",,,,,,,,,,,,"meters","-5096254.1","meters","216.322","deg","283.272","ddeg","45.81606699","ddeg","-129.75266925",,,,,,"PilotCam",,"BrowCam",,"UserSelect",,"SciCam",,"/PilotCam.20230913_023635940.jpg",,"/BrowCam.20230913_023635940.jpg",,"/UserSelect.20230913_023635940.jpg",,"/SciCam.20230913_023635940.jpg","meters","0.00","meters","216.57","deg","283.26","ddeg","4.3447490","meters","9628827.96","meters","-4620677.14","ddeg","-5.9131323","deg","-3.2","deg","-1.7","degC","6.40","degC","-999.99","degC","-999.99","degC","-999.99"
"6501205119a182001b1d1a81","2023-09-13T02:37:05.959Z","ASNAP","admin","",,,,,,,,,,,,"meters","-5009306.1","meters","231.481","deg","283.079","ddeg","45.81608138","ddeg","-129.75266545",,,,,,"PilotCam",,"BrowCam",,"UserSelect",,"SciCam",,"/PilotCam.20230913_023705959.jpg",,"/BrowCam.20230913_023705959.jpg",,"/UserSelect.20230913_023705959.jpg",,"/SciCam.20230913_023705959.jpg","meters","0.00","meters","231.79","deg","283.16","ddeg","4.3447490","meters","9628827.96","meters","-4620677.14","ddeg","-5.9131323","deg","-3.4","deg","-0.9","degC","6.25","degC","-999.99","degC","-999.99","degC","-999.99"
"6501206f19a182001b1d1a85","2023-09-13T02:37:35.997Z","ASNAP","admin","",,,,,,,,,,,,"meters","-4923352.8","meters","245.347","deg","282.681","ddeg","45.81609098","ddeg","-129.75267678",,,,,,"PilotCam",,"BrowCam",,"UserSelect",,"SciCam",,"/PilotCam.20230913_023735997.jpg",,"/BrowCam.20230913_023735997.jpg",,"/UserSelect.20230913_023735997.jpg",,"/SciCam.20230913_023735997.jpg","meters","0.00","meters","245.56","deg","282.64","ddeg","4.3447490","meters","9628827.96","meters","-4620677.14","ddeg","-5.9131323","deg","-2.8","deg","-1.9","degC","6.14","degC","-999.99","degC","-999.99","degC","-999.99"
"6501208e19a182001b1d1a89","2023-09-13T02:38:06.068Z","ASNAP","admin","",,,,,,,,,,,,"meters","-4835573.1","meters","260.663","deg","283.822","ddeg","45.81610383","ddeg","-129.75272579",,,,,,"PilotCam",,"BrowCam",,"UserSelect",,"SciCam",,"/PilotCam.20230913_023806068.jpg",,"/BrowCam.20230913_023806068.jpg",,"/UserSelect.20230913_023806068.jpg",,"/SciCam.20230913_023806068.jpg","meters","0.00","meters","260.35","deg","283.75","ddeg","4.3447490","meters","9628827.96","meters","-4620677.14","ddeg","-5.9131323","deg","-4.0","deg","-1.4","degC","5.88","degC","-999.99","degC","-999.99","degC","-999.99"
"650120a419a182001b1d1a91","2023-09-13T02:38:28.151Z","Site Interactions","guest","CTDPFB301, DOSTAD301, OPTAAC303",,,"J2-1554/swap out CTD, DO, and OPTAA instruments at LJ03A site",,,,"Axial Base",,,,,"meters","-4773915.1","meters","270.653","deg","283.588","ddeg","45.81611271","ddeg","-129.75277307",,,,,,"PilotCam",,"BrowCam",,"UserSelect",,"SciCam",,"/PilotCam.20230913_023828151.jpg",,"/BrowCam.20230913_023828151.jpg",,"/UserSelect.20230913_023828151.jpg",,"/SciCam.20230913_023828151.jpg","meters","0.00","meters","270.43","deg","283.48","ddeg","4.3447490","meters","9628827.96","meters","-4620677.14","ddeg","-5.9131323","deg","-2.3","deg","0.1","degC","5.73","degC","-999.99","degC","-999.99","degC","-999.99"
"650120ac19a182001b1d1a95","2023-09-13T02:38:36.146Z","ASNAP","admin","",,,,,,,,,,,,"meters","-4751624.6","meters","274.473","deg","283.501","ddeg","45.81611603","ddeg","-129.75279554",,,,,,"PilotCam",,"BrowCam",,"UserSelect",,"SciCam",,"/PilotCam.20230913_023836146.jpg",,"/BrowCam.20230913_023836146.jpg",,"/UserSelect.20230913_023836146.jpg",,"/SciCam.20230913_023836146.jpg","meters","0.00","meters","274.24","deg","283.55","ddeg","4.3447490","meters","9628827.96","meters","-4620677.14","ddeg","-5.9131323","deg","-2.7","deg","-1.3","degC","5.60","degC","-999.99","degC","-999.99","degC","-999.99"
"650120ca19a182001b1d1a99","2023-09-13T02:39:06.219Z","ASNAP","admin","",,,,,,,,,,,,"meters","-4668653.2","meters","287.310","deg","282.621","ddeg","45.81612490","ddeg","-129.75286756",,,,,,"PilotCam",,"BrowCam",,"UserSelect",,"SciCam",,"/PilotCam.20230913_023906219.jpg",,"/BrowCam.20230913_023906219.jpg",,"/UserSelect.20230913_023906219.jpg",,"/SciCam.20230913_023906219.jpg","meters","0.00","meters","287.11","deg","282.68","ddeg","4.3447490","meters","9628827.96","meters","-4620677.14","ddeg","-5.9131323","deg","-2.9","deg","-1.8","degC","5.58","degC","-999.99","degC","-999.99","degC","-999.99"
"650120e819a182001b1d1a9d","2023-09-13T02:39:36.269Z","ASNAP","admin","",,,,,,,,,,,,"meters","-4586653.5","meters","301.343","deg","283.868","ddeg","45.81613057","ddeg","-129.75290430",,,,,,"PilotCam",,"BrowCam",,"UserSelect",,"SciCam",,"/PilotCam.20230913_023936269.jpg",,"/BrowCam.20230913_023936269.jpg",,"/UserSelect.20230913_023936269.jpg",,"/SciCam.20230913_023936269.jpg","meters","0.00","meters","301.14","deg","283.82","ddeg","4.3447490","meters","9628827.96","meters","-4620677.14","ddeg","-5.9131323","deg","-5.3","deg","-1.3","degC","5.46","degC","-999.99","degC","-999.99","degC","-999.99"
"6501210619a182001b1d1aa1","2023-09-13T02:40:06.333Z","ASNAP","admin","",,,,,,,,,,,,"meters","-4505619.5","meters","314.399","deg","284.109","ddeg","45.81613800","ddeg","-129.75290737",,,,,,"PilotCam",,"BrowCam",,"UserSelect",,"SciCam",,"/PilotCam.20230913_024006333.jpg",,"/BrowCam.20230913_024006333.jpg",,"/UserSelect.20230913_024006333.jpg",,"/SciCam.20230913_024006333.jpg","meters","0.00","meters","314.16","deg","284.03","ddeg","4.3447490","meters","9628827.96","meters","-4620677.14","ddeg","-5.9131323","deg","-3.8","deg","-1.4","degC","5.21","degC","-999.99","degC","-999.99","degC","-999.99"
"6501212419a182001b1d1aa5","2023-09-13T02:40:36.378Z","ASNAP","admin","",,,,,,,,,,,,"meters","-4425545.6","meters","327.318","deg","284.050","ddeg","45.81615467","ddeg","-129.75293871",,,,,,"PilotCam",,"BrowCam",,"UserSelect",,"SciCam",,"/PilotCam.20230913_024036378.jpg",,"/BrowCam.20230913_024036378.jpg",,"/UserSelect.20230913_024036378.jpg",,"/SciCam.20230913_024036378.jpg","meters","0.00","meters","327.10","deg","284.07","ddeg","4.3447490","meters","9628827.96","meters","-4620677.14","ddeg","-5.9131323","deg","-3.9","deg","-1.5","degC","5.09","degC","-999.99","degC","-999.99","degC","-999.99"
"6501214219a182001b1d1aa9","2023-09-13T02:41:06.448Z","ASNAP","admin","",,,,,,,,,,,,"meters","-4346426.2","meters","340.092","deg","283.703","ddeg","45.81618094","ddeg","-129.75300866",,,,,,"PilotCam",,"BrowCam",,"UserSelect",,"SciCam",,"/PilotCam.20230913_024106448.jpg",,"/BrowCam.20230913_024106448.jpg",,"/UserSelect.20230913_024106448.jpg",,"/SciCam.20230913_024106448.jpg","meters","0.00","meters","339.93","deg","283.73","ddeg","4.3447490","meters","9628827.96","meters","-4620677.14","ddeg","-5.9131323","deg","-3.5","deg","-1.9","degC","4.92","degC","-999.99","degC","-999.99","degC","-999.99"
"6501216019a182001b1d1aad","2023-09-13T02:41:36.496Z","ASNAP","admin","",,,,,,,,,,,,"meters","-4268255.4","meters","354.091","deg","284.601","ddeg","45.81620478","ddeg","-129.75303943",,,,,,"PilotCam",,"BrowCam",,"UserSelect",,"SciCam",,"/PilotCam.20230913_024136496.jpg",,"/BrowCam.20230913_024136496.jpg",,"/UserSelect.20230913_024136496.jpg",,"/SciCam.20230913_024136496.jpg","meters","0.00","meters","353.94","deg","284.62","ddeg","4.3447490","meters","9628827.96","meters","-4620677.14","ddeg","-5.9131323","deg","-4.7","deg","-1.6","degC","4.90","degC","-999.99","degC","-999.99","degC","-999.99"
"6501217e19a182001b1d1ab1","2023-09-13T02:42:06.542Z","ASNAP","admin","",,,,,,,,,,,,"meters","-4191027.5","meters","368.462","deg","284.471","ddeg","45.81622261","ddeg","-129.75302637",,,,,,"PilotCam",,"BrowCam",,"UserSelect",,"SciCam",,"/PilotCam.20230913_024206542.jpg",,"/BrowCam.20230913_024206542.jpg",,"/UserSelect.20230913_024206542.jpg",,"/SciCam.20230913_024206542.jpg","meters","0.00","meters","368.25","deg","284.47","ddeg","4.3447490","meters","9628827.96","meters","-4620677.14","ddeg","-5.9131323","deg","-4.6","deg","-1.7","degC","4.69","degC","-999.99","degC","-999.99","degC","-999.99"
"6501219c19a182001b1d1ab5","2023-09-13T02:42:36.587Z","ASNAP","admin","",,,,,,,,,,,,"meters","-4114736.8","meters","383.151","deg","284.257","ddeg","45.81624521","ddeg","-129.75302269",,,,,,"PilotCam",,"BrowCam",,"UserSelect",,"SciCam",,"/PilotCam.20230913_024236587.jpg",,"/BrowCam.20230913_024236587.jpg",,"/UserSelect.20230913_024236587.jpg",,"/SciCam.20230913_024236587.jpg","meters","0.00","meters","382.94","deg","284.23","ddeg","4.3447490","meters","9628827.96","meters","-4620677.14","ddeg","-5.9131323","deg","-4.3","deg","-1.3","degC","4.64","degC","-999.99","degC","-999.99","degC","-999.99"
"650121ba19a182001b1d1ab9","2023-09-13T02:43:06.634Z","ASNAP","admin","",,,,,,,,,,,,"meters","-4039377.6","meters","397.246","deg","283.978","ddeg","45.81625634","ddeg","-129.75307387",,,,,,"PilotCam",,"BrowCam",,"UserSelect",,"SciCam",,"/PilotCam.20230913_024306634.jpg",,"/BrowCam.20230913_024306634.jpg",,"/UserSelect.20230913_024306634.jpg",,"/SciCam.20230913_024306634.jpg","meters","0.00","meters","397.07","deg","283.99","ddeg","4.3447490","meters","9628827.96","meters","-4620677.14","ddeg","-5.9131323","deg","-3.7","deg","-1.5","degC","4.56","degC","-999.99","degC","-999.99","degC","-999.99"
"650121d819a182001b1d1abd","2023-09-13T02:43:36.662Z","ASNAP","admin","",,,,,,,,,,,,"meters","-3964944.2","meters","410.833","deg","283.871","ddeg","45.81626425","ddeg","-129.75314051",,,,,,"PilotCam",,"BrowCam",,"UserSelect",,"SciCam",,"/PilotCam.20230913_024336662.jpg",,"/BrowCam.20230913_024336662.jpg",,"/UserSelect.20230913_024336662.jpg",,"/SciCam.20230913_024336662.jpg","meters","0.00","meters","410.67","deg","283.90","ddeg","4.3447490","meters","9628827.96","meters","-4620677.14","ddeg","-5.9131323","deg","-3.7","deg","-1.4","degC","4.52","degC","-999.99","degC","-999.99","degC","-999.99"
"650121f619a182001b1d1ac1","2023-09-13T02:44:06.681Z","ASNAP","admin","",,,,,,,,,,,,"meters","-3891430.9","meters","424.109","deg","283.769","ddeg","45.81627792","ddeg","-129.75319487",,,,,,"PilotCam",,"BrowCam",,"UserSelect",,"SciCam",,"/PilotCam.20230913_024406681.jpg",,"/BrowCam.20230913_024406681.jpg",,"/UserSelect.20230913_024406681.jpg",,"/SciCam.20230913_024406681.jpg","meters","0.00","meters","423.91","deg","283.75","ddeg","4.3447490","meters","9628827.96","meters","-4620677.14","ddeg","-5.9131323","deg","-3.4","deg","-1.5","degC","4.46","degC","-999.99","degC","-999.99","degC","-999.99"
"6501221419a182001b1d1ac5","2023-09-13T02:44:36.722Z","ASNAP","admin","",,,,,,,,,,,,"meters","-3818831.9","meters","438.161","deg","283.911","ddeg","45.81629286","ddeg","-129.75323203",,,,,,"PilotCam",,"BrowCam",,"UserSelect",,"SciCam",,"/PilotCam.20230913_024436722.jpg",,"/BrowCam.20230913_024436722.jpg",,"/UserSelect.20230913_024436722.jpg",,"/SciCam.20230913_024436722.jpg","meters","0.00","meters","438.43","deg","283.96","ddeg","4.3447490","meters","9628827.96","meters","-4620677.14","ddeg","-5.9131323","deg","-4.1","deg","-1.6","degC","4.38","degC","-999.99","degC","-999.99","degC","-999.99"
"6501223219a182001b1d1ac9","2023-09-13T02:45:06.763Z","ASNAP","admin","",,,,,,,,,,,,"meters","-3747141.4","meters","451.986","deg","284.051","ddeg","45.81630038","ddeg","-129.75327024",,,,,,"PilotCam",,"BrowCam",,"UserSelect",,"SciCam",,"/PilotCam.20230913_024506763.jpg",,"/BrowCam.20230913_024506763.jpg",,"/UserSelect.20230913_024506763.jpg",,"/SciCam.20230913_024506763.jpg","meters","0.00","meters","452.26","deg","284.04","ddeg","4.3447490","meters","9628827.96","meters","-4620677.14","ddeg","-5.9131323","deg","-4.2","deg","-1.5","degC","4.31","degC","-999.99","degC","-999.99","degC","-999.99"
"6501225019a182001b1d1acd","2023-09-13T02:45:36.784Z","ASNAP","admin","",,,,,,,,,,,,"meters","-3676353.9","meters","466.494","deg","283.937","ddeg","45.81629980","ddeg","-129.75330535",,,,,,"PilotCam",,"BrowCam",,"UserSelect",,"SciCam",,"/PilotCam.20230913_024536784.jpg",,"/BrowCam.20230913_024536784.jpg",,"/UserSelect.20230913_024536784.jpg",,"/SciCam.20230913_024536784.jpg","meters","0.00","meters","466.86","deg","283.87","ddeg","4.3447490","meters","9628827.96","meters","-4620677.14","ddeg","-5.9131323","deg","-3.6","deg","-1.5","degC","4.45","degC","-999.99","degC","-999.99","degC","-999.99"
"6501226e19a182001b1d1ad1","2023-09-13T02:46:06.801Z","ASNAP","admin","",,,,,,,,,,,,"meters","-3606463.5","meters","482.695","deg","283.688","ddeg","45.81630181","ddeg","-129.75334286",,,,,,"PilotCam",,"BrowCam",,"UserSelect",,"SciCam",,"/PilotCam.20230913_024606801.jpg",,"/BrowCam.20230913_024606801.jpg",,"/UserSelect.20230913_024606801.jpg",,"/SciCam.20230913_024606801.jpg","meters","0.00","meters","482.99","deg","283.78","ddeg","4.3447490","meters","9628827.96","meters","-4620677.14","ddeg","-5.9131323","deg","-3.1","deg","-1.1","degC","4.48","degC","-999.99","degC","-999.99","degC","-999.99"
"6501228c19a182001b1d1ad5","2023-09-13T02:46:36.847Z","ASNAP","admin","",,,,,,,,,,,,"meters","-3537464.6","meters","497.951","deg","283.938","ddeg","45.81631235","ddeg","-129.75335940",,,,,,"PilotCam",,"BrowCam",,"UserSelect",,"SciCam",,"/PilotCam.20230913_024636847.jpg",,"/BrowCam.20230913_024636847.jpg",,"/UserSelect.20230913_024636847.jpg",,"/SciCam.20230913_024636847.jpg","meters","0.00","meters","498.15","deg","284.14","ddeg","4.3447490","meters","9628827.96","meters","-4620677.14","ddeg","-5.9131323","deg","-3.3","deg","-1.4","degC","4.17","degC","-999.99","degC","-999.99","degC","-999.99"
"650122aa19a182001b1d1ad9","2023-09-13T02:47:06.865Z","ASNAP","admin","",,,,,,,,,,,,"meters","-3469351.4","meters","511.415","deg","283.589","ddeg","45.81632295","ddeg","-129.75335536",,,,,,"PilotCam",,"BrowCam",,"UserSelect",,"SciCam",,"/PilotCam.20230913_024706865.jpg",,"/BrowCam.20230913_024706865.jpg",,"/UserSelect.20230913_024706865.jpg",,"/SciCam.20230913_024706865.jpg","meters","0.00","meters","511.75","deg","283.63","ddeg","4.3447490","meters","9628827.96","meters","-4620677.14","ddeg","-5.9131323","deg","-3.7","deg","-1.5","degC","4.05","degC","-999.99","degC","-999.99","degC","-999.99"
"650122c819a182001b1d1add","2023-09-13T02:47:36.909Z","ASNAP","admin","",,,,,,,,,,,,"meters","-3402118.2","meters","526.772","deg","284.124","ddeg","45.81633230","ddeg","-129.75335165",,,,,,"PilotCam",,"BrowCam",,"UserSelect",,"SciCam",,"/PilotCam.20230913_024736909.jpg",,"/BrowCam.20230913_024736909.jpg",,"/UserSelect.20230913_024736909.jpg",,"/SciCam.20230913_024736909.jpg","meters","0.00","meters","527.05","deg","284.00","ddeg","4.3447490","meters","9628827.96","meters","-4620677.14","ddeg","-5.9131323","deg","-4.6","deg","-2.4","degC","4.20","degC","-999.99","degC","-999.99","degC","-999.99"
"650122e619a182001b1d1ae1","2023-09-13T02:48:06.985Z","ASNAP","admin","",,,,,,,,,,,,"meters","-3335759.2","meters","541.419","deg","283.628","ddeg","45.81633876","ddeg","-129.75335035",,,,,,"PilotCam",,"BrowCam",,"UserSelect",,"SciCam",,"/PilotCam.20230913_024806985.jpg",,"/BrowCam.20230913_024806985.jpg",,"/UserSelect.20230913_024806985.jpg",,"/SciCam.20230913_024806985.jpg","meters","0.00","meters","541.75","deg","283.61","ddeg","4.3447490","meters","9628827.96","meters","-4620677.14","ddeg","-5.9131323","deg","-3.0","deg","-1.3","degC","4.12","degC","-999.99","degC","-999.99","degC","-999.99"
"6501230519a182001b1d1ae5","2023-09-13T02:48:37.065Z","ASNAP","admin","",,,,,,,,,,,,"meters","-3268100.7","meters","556.764","deg","283.821","ddeg","45.81635063","ddeg","-129.75334749",,,,,,"PilotCam",,"BrowCam",,"UserSelect",,"SciCam",,"/PilotCam.20230913_024837065.jpg",,"/BrowCam.20230913_024837065.jpg",,"/UserSelect.20230913_024837065.jpg",,"/SciCam.20230913_024837065.jpg","meters","0.00","meters","556.56","deg","283.89","ddeg","4.3447490","meters","9628827.96","meters","-4620677.14","ddeg","-5.9131323","deg","-4.1","deg","-1.9","degC","4.14","degC","-999.99","degC","-999.99","degC","-999.99"
"6501232319a182001b1d1ae9","2023-09-13T02:49:07.135Z","ASNAP","admin","",,,,,,,,,,,,"meters","-3203501.8","meters","570.754","deg","283.935","ddeg","45.81636132","ddeg","-129.75334473",,,,,,"PilotCam",,"BrowCam",,"UserSelect",,"SciCam",,"/PilotCam.20230913_024907135.jpg",,"/BrowCam.20230913_024907135.jpg",,"/UserSelect.20230913_024907135.jpg",,"/SciCam.20230913_024907135.jpg","meters","0.00","meters","570.73","deg","283.86","ddeg","4.3447490","meters","9628827.96","meters","-4620677.14","ddeg","-5.9131323","deg","-1.6","deg","0.5","degC","3.92","degC","-999.99","degC","-999.99","degC","-999.99"
"6501234119a182001b1d1aed","2023-09-13T02:49:37.180Z","ASNAP","admin","",,,,,,,,,,,,"meters","-3139759.9","meters","584.875","deg","283.777","ddeg","45.81636688","ddeg","-129.75333847",,,,,,"PilotCam",,"BrowCam",,"UserSelect",,"SciCam",,"/PilotCam.20230913_024937180.jpg",,"/BrowCam.20230913_024937180.jpg",,"/UserSelect.20230913_024937180.jpg",,"/SciCam.20230913_024937180.jpg","meters","0.00","meters","584.73","deg","283.76","ddeg","4.3447490","meters","9628827.96","meters","-4620677.14","ddeg","-5.9131323","deg","-3.5","deg","-1.2","degC","3.99","degC","-999.99","degC","-999.99","degC","-999.99"
"6501235f19a182001b1d1af1","2023-09-13T02:50:07.237Z","ASNAP","admin","",,,,,,,,,,,,"meters","-3076869.1","meters","599.487","deg","283.671","ddeg","45.81637329","ddeg","-129.75334217",,,,,,"PilotCam",,"BrowCam",,"UserSelect",,"SciCam",,"/PilotCam.20230913_025007237.jpg",,"/BrowCam.20230913_025007237.jpg",,"/UserSelect.20230913_025007237.jpg",,"/SciCam.20230913_025007237.jpg","meters","0.00","meters","599.20","deg","283.72","ddeg","4.3447490","meters","9628827.96","meters","-4620677.14","ddeg","-5.9131323","deg","-4.1","deg","-1.7","degC","3.90","degC","-999.99","degC","-999.99","degC","-999.99"
"6501237d19a182001b1d1af5","2023-09-13T02:50:37.290Z","ASNAP","admin","",,,,,,,,,,,,"meters","-3014823.8","meters","613.230","deg","283.601","ddeg","45.81638211","ddeg","-129.75334113",,,,,,"PilotCam",,"BrowCam",,"UserSelect",,"SciCam",,"/PilotCam.20230913_025037290.jpg",,"/BrowCam.20230913_025037290.jpg",,"/UserSelect.20230913_025037290.jpg",,"/SciCam.20230913_025037290.jpg","meters","0.00","meters","613.01","deg","283.61","ddeg","4.3447490","meters","9628827.96","meters","-4620677.14","ddeg","-5.9131323","deg","-3.7","deg","-1.3","degC","4.02","degC","-999.99","degC","-999.99","degC","-999.99"
"6501239b19a182001b1d1afd","2023-09-13T02:51:07.319Z","ASNAP","admin","",,,,,,,,,,,,"meters","-2953618.3","meters","625.969","deg","284.088","ddeg","45.81639358","ddeg","-129.75332332",,,,,,"PilotCam",,"BrowCam",,"UserSelect",,"SciCam",,"/PilotCam.20230913_025107319.jpg",,"/BrowCam.20230913_025107319.jpg",,"/UserSelect.20230913_025107319.jpg",,"/SciCam.20230913_025107319.jpg","meters","0.00","meters","625.77","deg","284.05","ddeg","4.3447490","meters","9628827.96","meters","-4620677.14","ddeg","-5.9131323","deg","-4.3","deg","-1.4","degC","3.99","degC","-999.99","degC","-999.99","degC","-999.99"
"650123b919a182001b1d1b01","2023-09-13T02:51:37.376Z","ASNAP","admin","",,,,,,,,,,,,"meters","-2893246.8","meters","640.738","deg","284.047","ddeg","45.81641278","ddeg","-129.75334489",,,,,,"PilotCam",,"BrowCam",,"UserSelect",,"SciCam",,"/PilotCam.20230913_025137376.jpg",,"/BrowCam.20230913_025137376.jpg",,"/UserSelect.20230913_025137376.jpg",,"/SciCam.20230913_025137376.jpg","meters","0.00","meters","640.58","deg","284.04","ddeg","4.3447490","meters","9628827.96","meters","-4620677.14","ddeg","-5.9131323","deg","-3.1","deg","-1.3","degC","3.89","degC","-999.99","degC","-999.99","degC","-999.99"
"650123ce19a182001b1d1b05","2023-09-13T02:51:58.200Z","Biology Type","guest","",,,,,,,,,,,"Jelly","meters","-2851479.9","meters","650.248","deg","283.758","ddeg","45.81642336","ddeg","-129.75337016",,,,,,"PilotCam",,"BrowCam",,"UserSelect",,"SciCam",,"/PilotCam.20230913_025158200.jpg",,"/BrowCam.20230913_025158200.jpg",,"/UserSelect.20230913_025158200.jpg",,"/SciCam.20230913_025158200.jpg","meters","0.00","meters","650.15","deg","283.68","ddeg","4.3447490","meters","9628827.96","meters","-4620677.14","ddeg","-5.9131323","deg","-2.2","deg","-0.7","degC","3.78","degC","-999.99","degC","-999.99","degC","-999.99"
"650123d719a182001b1d1b09","2023-09-13T02:52:07.421Z","ASNAP","admin","",,,,,,,,,,,,"meters","-2833703.6","meters","654.045","deg","283.883","ddeg","45.81642787","ddeg","-129.75338393",,,,,,"PilotCam",,"BrowCam",,"UserSelect",,"SciCam",,"/PilotCam.20230913_025207421.jpg",,"/BrowCam.20230913_025207421.jpg",,"/UserSelect.20230913_025207421.jpg",,"/SciCam.20230913_025207421.jpg","meters","0.00","meters","653.85","deg","283.91","ddeg","4.3447490","meters","9628827.96","meters","-4620677.14","ddeg","-5.9131323","deg","-3.6","deg","-1.3","degC","3.86","degC","-999.99","degC","-999.99","degC","-999.99"
"650123f519a182001b1d1b0d","2023-09-13T02:52:37.466Z","ASNAP","admin","",,,,,,,,,,,,"meters","-2774983.0","meters","668.486","deg","283.779","ddeg","45.81643453","ddeg","-129.75343749",,,,,,"PilotCam",,"BrowCam",,"UserSelect",,"SciCam",,"/PilotCam.20230913_025237466.jpg",,"/BrowCam.20230913_025237466.jpg",,"/UserSelect.20230913_025237466.jpg",,"/SciCam.20230913_025237466.jpg","meters","0.00","meters","668.30","deg","283.82","ddeg","4.3447490","meters","9628827.96","meters","-4620677.14","ddeg","-5.9131323","deg","-4.6","deg","-1.8","degC","3.87","degC","-999.99","degC","-999.99","degC","-999.99"
"6501241319a182001b1d1b11","2023-09-13T02:53:07.511Z","ASNAP","admin","",,,,,,,,,,,,"meters","-2717079.3","meters","681.816","deg","337.166","ddeg","45.81642110","ddeg","-129.75345118",,,,,,"PilotCam",,"BrowCam",,"UserSelect",,"SciCam",,"/PilotCam.20230913_025307511.jpg",,"/BrowCam.20230913_025307511.jpg",,"/UserSelect.20230913_025307511.jpg",,"/SciCam.20230913_025307511.jpg","meters","0.00","meters","681.54","deg","337.16","ddeg","4.3447490","meters","9628827.96","meters","-4620677.14","ddeg","-5.9131323","deg","-4.4","deg","0.2","degC","3.90","degC","-999.99","degC","-999.99","degC","-999.99"
"6501243119a182001b1d1b15","2023-09-13T02:53:37.556Z","ASNAP","admin","",,,,,,,,,,,,"meters","-2659986.7","meters","696.892","deg","158.408","ddeg","45.81641381","ddeg","-129.75344485",,,,,,"PilotCam",,"BrowCam",,"UserSelect",,"SciCam",,"/PilotCam.20230913_025337556.jpg",,"/BrowCam.20230913_025337556.jpg",,"/UserSelect.20230913_025337556.jpg",,"/SciCam.20230913_025337556.jpg","meters","0.00","meters","696.72","deg","155.88","ddeg","4.3447490","meters","9628827.96","meters","-4620677.14","ddeg","-5.9131323","deg","-5.6","deg","-1.8","degC","3.71","degC","-999.99","degC","-999.99","degC","-999.99"
"6501244b19a182001b1d1b19","2023-09-13T02:54:03.804Z","Biology Type","guest","",,,,,,,,,,,"Jelly","meters","-2611158.2","meters","709.523","deg","40.194","ddeg","45.81643773","ddeg","-129.75344131",,,,,,"PilotCam",,"BrowCam",,"UserSelect",,"SciCam",,"/PilotCam.20230913_025403804.jpg",,"/BrowCam.20230913_025403804.jpg",,"/UserSelect.20230913_025403804.jpg",,"/SciCam.20230913_025403804.jpg","meters","0.00","meters","709.82","deg","46.13","ddeg","4.3447490","meters","9628827.96","meters","-4620677.14","ddeg","-5.9131323","deg","-5.1","deg","-1.7","degC","3.72","degC","-999.99","degC","-999.99","degC","-999.99"
"6501244f19a182001b1d1b1d","2023-09-13T02:54:07.603Z","ASNAP","admin","",,,,,,,,,,,,"meters","-2603699.5","meters","711.623","deg","79.141","ddeg","45.81644059","ddeg","-129.75344044",,,,,,"PilotCam",,"BrowCam",,"UserSelect",,"SciCam",,"/PilotCam.20230913_025407603.jpg",,"/BrowCam.20230913_025407603.jpg",,"/UserSelect.20230913_025407603.jpg",,"/SciCam.20230913_025407603.jpg","meters","0.00","meters","711.41","deg","75.32","ddeg","4.3447490","meters","9628827.96","meters","-4620677.14","ddeg","-5.9131323","deg","-5.3","deg","-2.2","degC","3.67","degC","-999.99","degC","-999.99","degC","-999.99"
"6501246d19a182001b1d1b21","2023-09-13T02:54:37.632Z","ASNAP","admin","",,,,,,,,,,,,"meters","-2548212.1","meters","726.589","deg","308.487","ddeg","45.81646498","ddeg","-129.75342872",,,,,,"PilotCam",,"BrowCam",,"UserSelect",,"SciCam",,"/PilotCam.20230913_025437632.jpg",,"/BrowCam.20230913_025437632.jpg",,"/UserSelect.20230913_025437632.jpg",,"/SciCam.20230913_025437632.jpg","meters","0.00","meters","726.53","deg","308.88","ddeg","4.3447490","meters","9628827.96","meters","-4620677.14","ddeg","-5.9131323","deg","-4.8","deg","-1.1","degC","3.40","degC","-999.99","degC","-999.99","degC","-999.99"
"6501248b19a182001b1d1b25","2023-09-13T02:55:07.677Z","ASNAP","admin","",,,,,,,,,,,,"meters","-2493518.6","meters","740.723","deg","310.350","ddeg","45.81649287","ddeg","-129.75342608",,,,,,"PilotCam",,"BrowCam",,"UserSelect",,"SciCam",,"/PilotCam.20230913_025507677.jpg",,"/BrowCam.20230913_025507677.jpg",,"/UserSelect.20230913_025507677.jpg",,"/SciCam.20230913_025507677.jpg","meters","0.00","meters","740.55","deg","310.34","ddeg","4.3447490","meters","9628827.96","meters","-4620677.14","ddeg","-5.9131323","deg","-4.0","deg","-1.5","degC","3.62","degC","-999.99","degC","-999.99","degC","-999.99"
"650124a919a182001b1d1b29","2023-09-13T02:55:37.705Z","ASNAP","admin","",,,,,,,,,,,,"meters","-2439613.4","meters","753.844","deg","310.291","ddeg","45.81652112","ddeg","-129.75346292",,,,,,"PilotCam",,"BrowCam",,"UserSelect",,"SciCam",,"/PilotCam.20230913_025537705.jpg",,"/BrowCam.20230913_025537705.jpg",,"/UserSelect.20230913_025537705.jpg",,"/SciCam.20230913_025537705.jpg","meters","0.00","meters","753.65","deg","310.29","ddeg","4.3447490","meters","9628827.96","meters","-4620677.14","ddeg","-5.9131323","deg","-3.8","deg","-1.4","degC","3.58","degC","-999.99","degC","-999.99","degC","-999.99"
"650124c719a182001b1d1b2d","2023-09-13T02:56:07.722Z","ASNAP","admin","",,,,,,,,,,,,"meters","-2386490.7","meters","766.991","deg","293.961","ddeg","45.81653429","ddeg","-129.75350670",,,,,,"PilotCam",,"BrowCam",,"UserSelect",,"SciCam",,"/PilotCam.20230913_025607722.jpg",,"/BrowCam.20230913_025607722.jpg",,"/UserSelect.20230913_025607722.jpg",,"/SciCam.20230913_025607722.jpg","meters","0.00","meters","766.79","deg","293.95","ddeg","4.3447490","meters","9628827.96","meters","-4620677.14","ddeg","-5.9131323","deg","-4.0","deg","-1.5","degC","3.55","degC","-999.99","degC","-999.99","degC","-999.99"
"650124e519a182001b1d1b31","2023-09-13T02:56:37.748Z","ASNAP","admin","",,,,,,,,,,,,"meters","-2334144.9","meters","781.125","deg","293.610","ddeg","45.81653974","ddeg","-129.75355198",,,,,,"PilotCam",,"BrowCam",,"UserSelect",,"SciCam",,"/PilotCam.20230913_025637748.jpg",,"/BrowCam.20230913_025637748.jpg",,"/UserSelect.20230913_025637748.jpg",,"/SciCam.20230913_025637748.jpg","meters","0.00","meters","780.94","deg","293.63","ddeg","4.3447490","meters","9628827.96","meters","-4620677.14","ddeg","-5.9131323","deg","-3.9","deg","-1.6","degC","3.52","degC","-999.99","degC","-999.99","degC","-999.99"
"6501250319a182001b1d1b35","2023-09-13T02:57:07.820Z","ASNAP","admin","",,,,,,,,,,,,"meters","-2282570.1","meters","794.989","deg","293.693","ddeg","45.81655532","ddeg","-129.75361136",,,,,,"PilotCam",,"BrowCam",,"UserSelect",,"SciCam",,"/PilotCam.20230913_025707820.jpg",,"/BrowCam.20230913_025707820.jpg",,"/UserSelect.20230913_025707820.jpg",,"/SciCam.20230913_025707820.jpg","meters","0.00","meters","795.28","deg","293.65","ddeg","4.3447490","meters","9628827.96","meters","-4620677.14","ddeg","-5.9131323","deg","-3.5","deg","-1.5","degC","3.51","degC","-999.99","degC","-999.99","degC","-999.99"
"6501252119a182001b1d1b39","2023-09-13T02:57:37.875Z","ASNAP","admin","",,,,,,,,,,,,"meters","-2231760.7","meters","808.999","deg","293.730","ddeg","45.81657499","ddeg","-129.75366334",,,,,,"PilotCam",,"BrowCam",,"UserSelect",,"SciCam",,"/PilotCam.20230913_025737875.jpg",,"/BrowCam.20230913_025737875.jpg",,"/UserSelect.20230913_025737875.jpg",,"/SciCam.20230913_025737875.jpg","meters","0.00","meters","809.24","deg","293.72","ddeg","4.3447490","meters","9628827.96","meters","-4620677.14","ddeg","-5.9131323","deg","-3.4","deg","-1.4","degC","3.51","degC","-999.99","degC","-999.99","degC","-999.99"
"6501253f19a182001b1d1b3d","2023-09-13T02:58:07.956Z","ASNAP","admin","",,,,,,,,,,,,"meters","-2181711.0","meters","822.657","deg","293.700","ddeg","45.81660082","ddeg","-129.75371177",,,,,,"PilotCam",,"BrowCam",,"UserSelect",,"SciCam",,"/PilotCam.20230913_025807956.jpg",,"/BrowCam.20230913_025807956.jpg",,"/UserSelect.20230913_025807956.jpg",,"/SciCam.20230913_025807956.jpg","meters","0.00","meters","822.93","deg","293.70","ddeg","4.3447490","meters","9628827.96","meters","-4620677.14","ddeg","-5.9131323","deg","-3.6","deg","-1.5","degC","3.38","degC","-999.99","degC","-999.99","degC","-999.99"
"6501255e19a182001b1d1b41","2023-09-13T02:58:38.008Z","ASNAP","admin","",,,,,,,,,,,,"meters","-2130784.9","meters","837.156","deg","293.830","ddeg","45.81662658","ddeg","-129.75376868",,,,,,"PilotCam",,"BrowCam",,"UserSelect",,"SciCam",,"/PilotCam.20230913_025838008.jpg",,"/BrowCam.20230913_025838008.jpg",,"/UserSelect.20230913_025838008.jpg",,"/SciCam.20230913_025838008.jpg","meters","0.00","meters","836.98","deg","293.81","ddeg","4.3447490","meters","9628827.96","meters","-4620677.14","ddeg","-5.9131323","deg","-3.6","deg","-1.5","degC","3.37","degC","-999.99","degC","-999.99","degC","-999.99"
"6501257119a182001b1d1b45","2023-09-13T02:58:57.179Z","Biology Type","guest","",,,,,,,,,,,"Jelly","meters","-2099967.3","meters","845.582","deg","294.198","ddeg","45.81663746","ddeg","-129.75380814",,,,,,"PilotCam",,"BrowCam",,"UserSelect",,"SciCam",,"/PilotCam.20230913_025857179.jpg",,"/BrowCam.20230913_025857179.jpg",,"/UserSelect.20230913_025857179.jpg",,"/SciCam.20230913_025857179.jpg","meters","0.00","meters","845.44","deg","294.11","ddeg","4.3447490","meters","9628827.96","meters","-4620677.14","ddeg","-5.9131323","deg","-3.0","deg","-0.8","degC","3.34","degC","-999.99","degC","-999.99","degC","-999.99"
"6501257c19a182001b1d1b49","2023-09-13T02:59:08.078Z","ASNAP","admin","",,,,,,,,,,,,"meters","-2082262.2","meters","850.570","deg","293.651","ddeg","45.81664182","ddeg","-129.75382824",,,,,,"PilotCam",,"BrowCam",,"UserSelect",,"SciCam",,"/PilotCam.20230913_025908078.jpg",,"/BrowCam.20230913_025908078.jpg",,"/UserSelect.20230913_025908078.jpg",,"/SciCam.20230913_025908078.jpg","meters","0.00","meters","850.39","deg","293.64","ddeg","4.3447490","meters","9628827.96","meters","-4620677.14","ddeg","-5.9131323","deg","-3.8","deg","-1.5","degC","3.31","degC","-999.99","degC","-999.99","degC","-999.99"
"6501259a19a182001b1d1b4d","2023-09-13T02:59:38.163Z","ASNAP","admin","",,,,,,,,,,,,"meters","-2034481.7","meters","864.606","deg","294.011","ddeg","45.81665515","ddeg","-129.75387877",,,,,,"PilotCam",,"BrowCam",,"UserSelect",,"SciCam",,"/PilotCam.20230913_025938163.jpg",,"/BrowCam.20230913_025938163.jpg",,"/UserSelect.20230913_025938163.jpg",,"/SciCam.20230913_025938163.jpg","meters","0.00","meters","864.40","deg","294.00","ddeg","4.3447490","meters","9628827.96","meters","-4620677.14","ddeg","-5.9131323","deg","-4.0","deg","-1.6","degC","3.28","degC","-999.99","degC","-999.99","degC","-999.99"
"650125b819a182001b1d1b51","2023-09-13T03:00:08.198Z","ASNAP","admin","",,,,,,,,,,,,"meters","-1987437.8","meters","878.868","deg","293.780","ddeg","45.81667747","ddeg","-129.75392140",,,,,,"PilotCam",,"BrowCam",,"UserSelect",,"SciCam",,"/PilotCam.20230913_030008198.jpg",,"/BrowCam.20230913_030008198.jpg",,"/UserSelect.20230913_030008198.jpg",,"/SciCam.20230913_030008198.jpg","meters","0.00","meters","878.68","deg","293.79","ddeg","4.3447490","meters","9628827.96","meters","-4620677.14","ddeg","-5.9131323","deg","-3.8","deg","-1.5","degC","3.25","degC","-999.99","degC","-999.99","degC","-999.99"
"650125d619a182001b1d1b55","2023-09-13T03:00:38.247Z","ASNAP","admin","",,,,,,,,,,,,"meters","-1941124.8","meters","893.214","deg","293.870","ddeg","45.81669465","ddeg","-129.75396046",,,,,,"PilotCam",,"BrowCam",,"UserSelect",,"SciCam",,"/PilotCam.20230913_030038247.jpg",,"/BrowCam.20230913_030038247.jpg",,"/UserSelect.20230913_030038247.jpg",,"/SciCam.20230913_030038247.jpg","meters","0.00","meters","893.03","deg","293.87","ddeg","4.3447490","meters","9628827.96","meters","-4620677.14","ddeg","-5.9131323","deg","-3.8","deg","-1.5","degC","3.19","degC","-999.99","degC","-999.99","degC","-999.99"
"650125f419a182001b1d1b59","2023-09-13T03:01:08.263Z","ASNAP","admin","",,,,,,,,,,,,"meters","-1895536.9","meters","907.534","deg","293.933","ddeg","45.81670680","ddeg","-129.75400474",,,,,,"PilotCam",,"BrowCam",,"UserSelect",,"SciCam",,"/PilotCam.20230913_030108263.jpg",,"/BrowCam.20230913_030108263.jpg",,"/UserSelect.20230913_030108263.jpg",,"/SciCam.20230913_030108263.jpg","meters","0.00","meters","907.30","deg","293.95","ddeg","4.3447490","meters","9628827.96","meters","-4620677.14","ddeg","-5.9131323","deg","-4.1","deg","-1.7","degC","3.14","degC","-999.99","degC","-999.99","degC","-999.99"
"6501261219a182001b1d1b5d","2023-09-13T03:01:38.306Z","ASNAP","admin","",,,,,,,,,,,,"meters","-1850668.4","meters","921.697","deg","293.869","ddeg","45.81671840","ddeg","-129.75405976",,,,,,"PilotCam",,"BrowCam",,"UserSelect",,"SciCam",,"/PilotCam.20230913_030138306.jpg",,"/BrowCam.20230913_030138306.jpg",,"/UserSelect.20230913_030138306.jpg",,"/SciCam.20230913_030138306.jpg","meters","0.00","meters","921.49","deg","293.87","ddeg","4.3447490","meters","9628827.96","meters","-4620677.14","ddeg","-5.9131323","deg","-3.9","deg","-1.4","degC","3.14","degC","-999.99","degC","-999.99","degC","-999.99"
"6501263019a182001b1d1b61","2023-09-13T03:02:08.331Z","ASNAP","admin","",,,,,,,,,,,,"meters","-1806513.6","meters","934.948","deg","294.030","ddeg","45.81672851","ddeg","-129.75409717",,,,,,"PilotCam",,"BrowCam",,"UserSelect",,"SciCam",,"/PilotCam.20230913_030208331.jpg",,"/BrowCam.20230913_030208331.jpg",,"/UserSelect.20230913_030208331.jpg",,"/SciCam.20230913_030208331.jpg","meters","0.00","meters","934.74","deg","294.02","ddeg","4.3447490","meters","9628827.96","meters","-4620677.14","ddeg","-5.9131323","deg","-4.1","deg","-1.6","degC","3.17","degC","-999.99","degC","-999.99","degC","-999.99"
"6501264e19a182001b1d1b65","2023-09-13T03:02:38.376Z","ASNAP","admin","",,,,,,,,,,,,"meters","-1763066.8","meters","950.196","deg","294.213","ddeg","45.81673167","ddeg","-129.75411878",,,,,,"PilotCam",,"BrowCam",,"UserSelect",,"SciCam",,"/PilotCam.20230913_030238376.jpg",,"/BrowCam.20230913_030238376.jpg",,"/UserSelect.20230913_030238376.jpg",,"/SciCam.20230913_030238376.jpg","meters","0.00","meters","950.00","deg","294.23","ddeg","4.3447490","meters","9628827.96","meters","-4620677.14","ddeg","-5.9131323","deg","-4.6","deg","-1.6","degC","3.16","degC","-999.99","degC","-999.99","degC","-999.99"
"6501266c19a182001b1d1b69","2023-09-13T03:03:08.420Z","ASNAP","admin","",,,,,,,,,,,,"meters","-1720322.2","meters","965.191","deg","294.449","ddeg","45.81673184","ddeg","-129.75412664",,,,,,"PilotCam",,"BrowCam",,"UserSelect",,"SciCam",,"/PilotCam.20230913_030308420.jpg",,"/BrowCam.20230913_030308420.jpg",,"/UserSelect.20230913_030308420.jpg",,"/SciCam.20230913_030308420.jpg","meters","0.00","meters","964.99","deg","294.47","ddeg","4.3447490","meters","9628827.96","meters","-4620677.14","ddeg","-5.9131323","deg","-4.5","deg","-1.6","degC","3.06","degC","-999.99","degC","-999.99","degC","-999.99"
"6501268a19a182001b1d1b6d","2023-09-13T03:03:38.468Z","ASNAP","admin","",,,,,,,,,,,,"meters","-1678274.1","meters","978.697","deg","294.003","ddeg","45.81673607","ddeg","-129.75413822",,,,,,"PilotCam",,"BrowCam",,"UserSelect",,"SciCam",,"/PilotCam.20230913_030338468.jpg",,"/BrowCam.20230913_030338468.jpg",,"/UserSelect.20230913_030338468.jpg",,"/SciCam.20230913_030338468.jpg","meters","0.00","meters","978.52","deg","294.04","ddeg","4.3447490","meters","9628827.96","meters","-4620677.14","ddeg","-5.9131323","deg","-5.0","deg","-1.9","degC","3.08","degC","-999.99","degC","-999.99","degC","-999.99"
"650126a819a182001b1d1b71","2023-09-13T03:04:08.513Z","ASNAP","admin","",,,,,,,,,,,,"meters","-1636916.9","meters","990.116","deg","294.629","ddeg","45.81673841","ddeg","-129.75414999",,,,,,"PilotCam",,"BrowCam",,"UserSelect",,"SciCam",,"/PilotCam.20230913_030408513.jpg",,"/BrowCam.20230913_030408513.jpg",,"/UserSelect.20230913_030408513.jpg",,"/SciCam.20230913_030408513.jpg","meters","0.00","meters","989.97","deg","294.63","ddeg","4.3447490","meters","9628827.96","meters","-4620677.14","ddeg","-5.9131323","deg","-4.9","deg","-1.5","degC","3.01","degC","-999.99","degC","-999.99","degC","-999.99"
"650126c619a182001b1d1b75","2023-09-13T03:04:38.559Z","ASNAP","admin","",,,,,,,,,,,,"meters","-1596244.7","meters","1001.218","deg","293.683","ddeg","45.81674603","ddeg","-129.75421163",,,,,,"PilotCam",,"BrowCam",,"UserSelect",,"SciCam",,"/PilotCam.20230913_030438559.jpg",,"/BrowCam.20230913_030438559.jpg",,"/UserSelect.20230913_030438559.jpg",,"/SciCam.20230913_030438559.jpg","meters","0.00","meters","1001.10","deg","293.70","ddeg","4.3447490","meters","9628827.96","meters","-4620677.14","ddeg","-5.9131323","deg","-4.0","deg","-1.3","degC","2.98","degC","-999.99","degC","-999.99","degC","-999.99"
"650126e419a182001b1d1b79","2023-09-13T03:05:08.602Z","ASNAP","admin","",,,,,,,,,,,,"meters","-1556251.8","meters","1010.753","deg","294.647","ddeg","45.81675534","ddeg","-129.75428879",,,,,,"PilotCam",,"BrowCam",,"UserSelect",,"SciCam",,"/PilotCam.20230913_030508602.jpg",,"/BrowCam.20230913_030508602.jpg",,"/UserSelect.20230913_030508602.jpg",,"/SciCam.20230913_030508602.jpg","meters","0.00","meters","1010.59","deg","294.64","ddeg","4.3447490","meters","9628827.96","meters","-4620677.14","ddeg","-5.9131323","deg","-5.1","deg","-1.5","degC","2.95","degC","-999.99","degC","-999.99","degC","-999.99"
"6501270219a182001b1d1b7d","2023-09-13T03:05:38.621Z","ASNAP","admin","",,,,,,,,,,,,"meters","-1516932.7","meters","1021.919","deg","294.501","ddeg","45.81675067","ddeg","-129.75427912",,,,,,"PilotCam",,"BrowCam",,"UserSelect",,"SciCam",,"/PilotCam.20230913_030538621.jpg",,"/BrowCam.20230913_030538621.jpg",,"/UserSelect.20230913_030538621.jpg",,"/SciCam.20230913_030538621.jpg","meters","0.00","meters","1021.77","deg","294.48","ddeg","4.3447490","meters","9628827.96","meters","-4620677.14","ddeg","-5.9131323","deg","-5.1","deg","-1.5","degC","3.04","degC","-999.99","degC","-999.99","degC","-999.99"
"6501272019a182001b1d1b81","2023-09-13T03:06:08.665Z","ASNAP","admin","",,,,,,,,,,,,"meters","-1478281.4","meters","1033.450","deg","294.491","ddeg","45.81673349","ddeg","-129.75426338",,,,,,"PilotCam",,"BrowCam",,"UserSelect",,"SciCam",,"/PilotCam.20230913_030608665.jpg",,"/BrowCam.20230913_030608665.jpg",,"/UserSelect.20230913_030608665.jpg",,"/SciCam.20230913_030608665.jpg","meters","0.00","meters","1033.34","deg","294.49","ddeg","4.3447490","meters","9628827.96","meters","-4620677.14","ddeg","-5.9131323","deg","-5.1","deg","-1.4","degC","3.03","degC","-999.99","degC","-999.99","degC","-999.99"
"6501273e19a182001b1d1b85","2023-09-13T03:06:38.712Z","ASNAP","admin","",,,,,,,,,,,,"meters","-1440292.3","meters","1047.093","deg","294.120","ddeg","45.81672508","ddeg","-129.75425913",,,,,,"PilotCam",,"BrowCam",,"UserSelect",,"SciCam",,"/PilotCam.20230913_030638712.jpg",,"/BrowCam.20230913_030638712.jpg",,"/UserSelect.20230913_030638712.jpg",,"/SciCam.20230913_030638712.jpg","meters","0.00","meters","1046.97","deg","294.13","ddeg","4.3447490","meters","9628827.96","meters","-4620677.14","ddeg","-5.9131323","deg","-4.8","deg","-1.7","degC","2.86","degC","-999.99","degC","-999.99","degC","-999.99"
"6501275c19a182001b1d1b89","2023-09-13T03:07:08.757Z","ASNAP","admin","",,,,,,,,,,,,"meters","-1402959.7","meters","1062.031","deg","294.210","ddeg","45.81673674","ddeg","-129.75424791",,,,,,"PilotCam",,"BrowCam",,"UserSelect",,"SciCam",,"/PilotCam.20230913_030708757.jpg",,"/BrowCam.20230913_030708757.jpg",,"/UserSelect.20230913_030708757.jpg",,"/SciCam.20230913_030708757.jpg","meters","0.00","meters","1061.86","deg","294.20","ddeg","4.3447490","meters","9628827.96","meters","-4620677.14","ddeg","-5.9131323","deg","-4.4","deg","-1.4","degC","2.86","degC","-999.99","degC","-999.99","degC","-999.99"
