"id","ts","event_value","event_author","event_free_text","event_option.actions","event_option.cabled_plug","event_option.event_comment","event_option.filename","event_option.location","event_option.milestone","event_option.new_watchstander","event_option.type","vehicleReNavData.altitude_uom","vehicleReNavData.altitude_value","vehicleReNavData.depth_uom","vehicleReNavData.depth_value","vehicleReNavData.heading_uom","vehicleReNavData.heading_value","vehicleReNavData.latitude_uom","vehicleReNavData.latitude_value","vehicleReNavData.longitude_uom","vehicleReNavData.longitude_value","vehicleReNavData.pitch_uom","vehicleReNavData.pitch_value","vehicleReNavData.roll_uom","vehicleReNavData.roll_value","vehicleRealtimeFramegrabberData.camera_name_2_uom","vehicleRealtimeFramegrabberData.camera_name_2_value","vehicleRealtimeFramegrabberData.camera_name_3_uom","vehicleRealtimeFramegrabberData.camera_name_3_value","vehicleRealtimeFramegrabberData.camera_name_4_uom","vehicleRealtimeFramegrabberData.camera_name_4_value","vehicleRealtimeFramegrabberData.camera_name_uom","vehicleRealtimeFramegrabberData.camera_name_value","vehicleRealtimeFramegrabberData.filename_2_uom","vehicleRealtimeFramegrabberData.filename_2_value","vehicleRealtimeFramegrabberData.filename_3_uom","vehicleRealtimeFramegrabberData.filename_3_value","vehicleRealtimeFramegrabberData.filename_4_uom","vehicleRealtimeFramegrabberData.filename_4_value","vehicleRealtimeFramegrabberData.filename_uom","vehicleRealtimeFramegrabberData.filename_value","vehicleRealtimeNavData.altitude_uom","vehicleRealtimeNavData.altitude_value","vehicleRealtimeNavData.depth_uom","vehicleRealtimeNavData.depth_value","vehicleRealtimeNavData.heading_uom","vehicleRealtimeNavData.heading_value","vehicleRealtimeNavData.latitude_uom","vehicleRealtimeNavData.latitude_value","vehicleRealtimeNavData.local_x_uom","vehicleRealtimeNavData.local_x_value","vehicleRealtimeNavData.local_y_uom","vehicleRealtimeNavData.local_y_value","vehicleRealtimeNavData.longitude_uom","vehicleRealtimeNavData.longitude_value","vehicleRealtimeNavData.pitch_uom","vehicleRealtimeNavData.pitch_value","vehicleRealtimeNavData.roll_uom","vehicleRealtimeNavData.roll_value","vehicleTemperatureProbe.probe1_temperature_uom","vehicleTemperatureProbe.probe1_temperature_value","vehicleTemperatureProbe.probe2_temperature_uom","vehicleTemperatureProbe.probe2_temperature_value","vehicleTemperatureProbe.probe3_temperature_uom","vehicleTemperatureProbe.probe3_temperature_value","vehicleTemperatureProbe.probe4_temperature_uom","vehicleTemperatureProbe.probe4_temperature_value"
"64de9f7895482d0019b18196","2023-08-17T22:30:16.004Z","ASNAP","admin","",,,,,,,,,,,,,,,,,,,,,,,,"PilotCam",,"BrowCam",,"UserSelect",,"SciCam",,"/PilotCam.20230817_223016004.jpg",,"/BrowCam.20230817_223016004.jpg",,"/UserSelect.20230817_223016004.jpg",,"/SciCam.20230817_223016004.jpg","meters","0.00","meters","0.64","deg","44.69","ddeg","44.5018108","meters","-1.08","meters","2.51","ddeg","-125.4085934","deg","-0.8","deg","0.2",,,,,,,,
"64de9f9695482d0019b18199","2023-08-17T22:30:46.022Z","ASNAP","admin","",,,,,,,,,,,,,,,,,,,,,,,,"PilotCam",,"BrowCam",,"UserSelect",,"SciCam",,"/PilotCam.20230817_223046022.jpg",,"/BrowCam.20230817_223046022.jpg",,"/UserSelect.20230817_223046022.jpg",,"/SciCam.20230817_223046022.jpg","meters","0.00","meters","0.64","deg","44.69","ddeg","44.5018108","meters","-1.08","meters","2.51","ddeg","-125.4085934","deg","-0.8","deg","0.2",,,,,,,,
"64de9fb495482d0019b1819c","2023-08-17T22:31:16.074Z","ASNAP","admin","",,,,,,,,,,,,,,,,,,,,,,,,"PilotCam",,"BrowCam",,"UserSelect",,"SciCam",,"/PilotCam.20230817_223116074.jpg",,"/BrowCam.20230817_223116074.jpg",,"/UserSelect.20230817_223116074.jpg",,"/SciCam.20230817_223116074.jpg","meters","0.00","meters","0.64","deg","44.69","ddeg","44.5018108","meters","-1.08","meters","2.51","ddeg","-125.4085934","deg","-0.8","deg","0.2",,,,,,,,
"64de9fd295482d0019b1819f","2023-08-17T22:31:46.144Z","ASNAP","admin","",,,,,,,,,,,,,,,,,,,,,,,,"PilotCam",,"BrowCam",,"UserSelect",,"SciCam",,"/PilotCam.20230817_223146144.jpg",,"/BrowCam.20230817_223146144.jpg",,"/UserSelect.20230817_223146144.jpg",,"/SciCam.20230817_223146144.jpg","meters","0.00","meters","0.64","deg","44.69","ddeg","44.5018108","meters","-1.08","meters","2.51","ddeg","-125.4085934","deg","-0.8","deg","0.2",,,,,,,,
"64de9ff095482d0019b181a2","2023-08-17T22:32:16.187Z","ASNAP","admin","",,,,,,,,,,,,,,,,,,,,,,,,"PilotCam",,"BrowCam",,"UserSelect",,"SciCam",,"/PilotCam.20230817_223216187.jpg",,"/BrowCam.20230817_223216187.jpg",,"/UserSelect.20230817_223216187.jpg",,"/SciCam.20230817_223216187.jpg","meters","0.00","meters","0.64","deg","44.69","ddeg","44.5018108","meters","-1.08","meters","2.51","ddeg","-125.4085934","deg","-0.8","deg","0.2",,,,,,,,
"64dea00e95482d0019b181a5","2023-08-17T22:32:46.255Z","ASNAP","admin","",,,,,,,,,,,,,,,,,,,,,,,,"PilotCam",,"BrowCam",,"UserSelect",,"SciCam",,"/PilotCam.20230817_223246255.jpg",,"/BrowCam.20230817_223246255.jpg",,"/UserSelect.20230817_223246255.jpg",,"/SciCam.20230817_223246255.jpg","meters","0.00","meters","0.64","deg","44.69","ddeg","44.5018108","meters","-1.08","meters","2.51","ddeg","-125.4085934","deg","-0.8","deg","0.2",,,,,,,,
"64dea02c95482d0019b181a8","2023-08-17T22:33:16.300Z","ASNAP","admin","",,,,,,,,,,,,,,,,,,,,,,,,"PilotCam",,"BrowCam",,"UserSelect",,"SciCam",,"/PilotCam.20230817_223316300.jpg",,"/BrowCam.20230817_223316300.jpg",,"/UserSelect.20230817_223316300.jpg",,"/SciCam.20230817_223316300.jpg","meters","0.00","meters","0.64","deg","44.69","ddeg","44.5018108","meters","-1.08","meters","2.51","ddeg","-125.4085934","deg","-0.8","deg","0.2",,,,,,,,
"64dea04a95482d0019b181ab","2023-08-17T22:33:46.341Z","ASNAP","admin","",,,,,,,,,,,,,,,,,,,,,,,,"PilotCam",,"BrowCam",,"UserSelect",,"SciCam",,"/PilotCam.20230817_223346341.jpg",,"/BrowCam.20230817_223346341.jpg",,"/UserSelect.20230817_223346341.jpg",,"/SciCam.20230817_223346341.jpg","meters","0.00","meters","0.64","deg","44.69","ddeg","44.5018108","meters","-1.08","meters","2.51","ddeg","-125.4085934","deg","-0.8","deg","0.2",,,,,,,,
"64dea06895482d0019b181ae","2023-08-17T22:34:16.359Z","ASNAP","admin","",,,,,,,,,,,,,,,,,,,,,,,,"PilotCam",,"BrowCam",,"UserSelect",,"SciCam",,"/PilotCam.20230817_223416359.jpg",,"/BrowCam.20230817_223416359.jpg",,"/UserSelect.20230817_223416359.jpg",,"/SciCam.20230817_223416359.jpg","meters","0.00","meters","0.64","deg","44.69","ddeg","44.5018108","meters","-1.08","meters","2.51","ddeg","-125.4085934","deg","-0.8","deg","0.2",,,,,,,,
"64dea08695482d0019b181b1","2023-08-17T22:34:46.404Z","ASNAP","admin","",,,,,,,,,,,,,,,,,,,,,,,,"PilotCam",,"BrowCam",,"UserSelect",,"SciCam",,"/PilotCam.20230817_223446404.jpg",,"/BrowCam.20230817_223446404.jpg",,"/UserSelect.20230817_223446404.jpg",,"/SciCam.20230817_223446404.jpg","meters","0.00","meters","0.64","deg","44.69","ddeg","44.5018108","meters","-1.08","meters","2.51","ddeg","-125.4085934","deg","-0.8","deg","0.2",,,,,,,,
"64dea0a495482d0019b181b4","2023-08-17T22:35:16.419Z","ASNAP","admin","",,,,,,,,,,,,,,,,,,,,,,,,"PilotCam",,"BrowCam",,"UserSelect",,"SciCam",,"/PilotCam.20230817_223516419.jpg",,"/BrowCam.20230817_223516419.jpg",,"/UserSelect.20230817_223516419.jpg",,"/SciCam.20230817_223516419.jpg","meters","0.00","meters","0.64","deg","44.69","ddeg","44.5018108","meters","-1.08","meters","2.51","ddeg","-125.4085934","deg","-0.8","deg","0.2",,,,,,,,
"64dea0c295482d0019b181b7","2023-08-17T22:35:46.466Z","ASNAP","admin","",,,,,,,,,,,,,,,,,,,,,,,,"PilotCam",,"BrowCam",,"UserSelect",,"SciCam",,"/PilotCam.20230817_223546466.jpg",,"/BrowCam.20230817_223546466.jpg",,"/UserSelect.20230817_223546466.jpg",,"/SciCam.20230817_223546466.jpg","meters","0.00","meters","0.64","deg","44.69","ddeg","44.5018108","meters","-1.08","meters","2.51","ddeg","-125.4085934","deg","-0.8","deg","0.2",,,,,,,,
"64dea0e095482d0019b181ba","2023-08-17T22:36:16.514Z","ASNAP","admin","",,,,,,,,,,,,,,,,,,,,,,,,"PilotCam",,"BrowCam",,"UserSelect",,"SciCam",,"/PilotCam.20230817_223616514.jpg",,"/BrowCam.20230817_223616514.jpg",,"/UserSelect.20230817_223616514.jpg",,"/SciCam.20230817_223616514.jpg","meters","0.00","meters","0.64","deg","44.69","ddeg","44.5018108","meters","-1.08","meters","2.51","ddeg","-125.4085934","deg","-0.8","deg","0.2",,,,,,,,
"64dea0fe95482d0019b181bd","2023-08-17T22:36:46.557Z","ASNAP","admin","",,,,,,,,,,,,,,,,,,,,,,,,"PilotCam",,"BrowCam",,"UserSelect",,"SciCam",,"/PilotCam.20230817_223646557.jpg",,"/BrowCam.20230817_223646557.jpg",,"/UserSelect.20230817_223646557.jpg",,"/SciCam.20230817_223646557.jpg","meters","0.00","meters","0.64","deg","44.69","ddeg","44.5018108","meters","-1.08","meters","2.51","ddeg","-125.4085934","deg","-0.8","deg","0.2",,,,,,,,
"64dea11c95482d0019b181c0","2023-08-17T22:37:16.612Z","ASNAP","admin","",,,,,,,,,,,,,,,,,,,,,,,,"PilotCam",,"BrowCam",,"UserSelect",,"SciCam",,"/PilotCam.20230817_223716612.jpg",,"/BrowCam.20230817_223716612.jpg",,"/UserSelect.20230817_223716612.jpg",,"/SciCam.20230817_223716612.jpg","meters","0.00","meters","0.64","deg","44.69","ddeg","44.5018108","meters","-1.08","meters","2.51","ddeg","-125.4085934","deg","-0.8","deg","0.2",,,,,,,,
"64dea13a95482d0019b181c3","2023-08-17T22:37:46.657Z","ASNAP","admin","",,,,,,,,,,,,,,,,,,,,,,,,"PilotCam",,"BrowCam",,"UserSelect",,"SciCam",,"/PilotCam.20230817_223746657.jpg",,"/BrowCam.20230817_223746657.jpg",,"/UserSelect.20230817_223746657.jpg",,"/SciCam.20230817_223746657.jpg","meters","0.00","meters","0.64","deg","44.69","ddeg","44.5018108","meters","-1.08","meters","2.51","ddeg","-125.4085934","deg","-0.8","deg","0.2",,,,,,,,
"64dea15895482d0019b181c6","2023-08-17T22:38:16.700Z","ASNAP","admin","",,,,,,,,,,,,,,,,,,,,,,,,"PilotCam",,"BrowCam",,"UserSelect",,"SciCam",,"/PilotCam.20230817_223816700.jpg",,"/BrowCam.20230817_223816700.jpg",,"/UserSelect.20230817_223816700.jpg",,"/SciCam.20230817_223816700.jpg","meters","0.00","meters","0.64","deg","44.69","ddeg","44.5018108","meters","-1.08","meters","2.51","ddeg","-125.4085934","deg","-0.8","deg","0.2",,,,,,,,
"64dea17695482d0019b181c9","2023-08-17T22:38:46.737Z","ASNAP","admin","",,,,,,,,,,,,,,,,,,,,,,,,"PilotCam",,"BrowCam",,"UserSelect",,"SciCam",,"/PilotCam.20230817_223846737.jpg",,"/BrowCam.20230817_223846737.jpg",,"/UserSelect.20230817_223846737.jpg",,"/SciCam.20230817_223846737.jpg","meters","0.00","meters","0.64","deg","44.69","ddeg","44.5018108","meters","-1.08","meters","2.51","ddeg","-125.4085934","deg","-0.8","deg","0.2",,,,,,,,
"64dea19495482d0019b181cc","2023-08-17T22:39:16.783Z","ASNAP","admin","",,,,,,,,,,,,,,,,,,,,,,,,"PilotCam",,"BrowCam",,"UserSelect",,"SciCam",,"/PilotCam.20230817_223916783.jpg",,"/BrowCam.20230817_223916783.jpg",,"/UserSelect.20230817_223916783.jpg",,"/SciCam.20230817_223916783.jpg","meters","0.00","meters","0.64","deg","44.69","ddeg","44.5018108","meters","-1.08","meters","2.51","ddeg","-125.4085934","deg","-0.8","deg","0.2",,,,,,,,
"64dea1b295482d0019b181cf","2023-08-17T22:39:46.829Z","ASNAP","admin","",,,,,,,,,,,,,,,,,,,,,,,,"PilotCam",,"BrowCam",,"UserSelect",,"SciCam",,"/PilotCam.20230817_223946829.jpg",,"/BrowCam.20230817_223946829.jpg",,"/UserSelect.20230817_223946829.jpg",,"/SciCam.20230817_223946829.jpg","meters","0.00","meters","0.64","deg","44.69","ddeg","44.5018108","meters","-1.08","meters","2.51","ddeg","-125.4085934","deg","-0.8","deg","0.2",,,,,,,,
"64dea1d095482d0019b181d2","2023-08-17T22:40:16.848Z","ASNAP","admin","",,,,,,,,,,,,,,,,,,,,,,,,"PilotCam",,"BrowCam",,"UserSelect",,"SciCam",,"/PilotCam.20230817_224016848.jpg",,"/BrowCam.20230817_224016848.jpg",,"/UserSelect.20230817_224016848.jpg",,"/SciCam.20230817_224016848.jpg","meters","0.00","meters","0.64","deg","44.69","ddeg","44.5018108","meters","-1.08","meters","2.51","ddeg","-125.4085934","deg","-0.8","deg","0.2",,,,,,,,
"64dea1ee95482d0019b181d5","2023-08-17T22:40:46.893Z","ASNAP","admin","",,,,,,,,,,,,,,,,,,,,,,,,"PilotCam",,"BrowCam",,"UserSelect",,"SciCam",,"/PilotCam.20230817_224046893.jpg",,"/BrowCam.20230817_224046893.jpg",,"/UserSelect.20230817_224046893.jpg",,"/SciCam.20230817_224046893.jpg","meters","0.00","meters","0.64","deg","44.69","ddeg","44.5018108","meters","-1.08","meters","2.51","ddeg","-125.4085934","deg","-0.8","deg","0.2",,,,,,,,
"64dea20c95482d0019b181d8","2023-08-17T22:41:16.934Z","ASNAP","admin","",,,,,,,,,,,,,,,,,,,,,,,,"PilotCam",,"BrowCam",,"UserSelect",,"SciCam",,"/PilotCam.20230817_224116934.jpg",,"/BrowCam.20230817_224116934.jpg",,"/UserSelect.20230817_224116934.jpg",,"/SciCam.20230817_224116934.jpg","meters","0.00","meters","0.64","deg","44.69","ddeg","44.5018108","meters","-1.08","meters","2.51","ddeg","-125.4085934","deg","-0.8","deg","0.2",,,,,,,,
"64dea22a95482d0019b181db","2023-08-17T22:41:46.951Z","ASNAP","admin","",,,,,,,,,,,,,,,,,,,,,,,,"PilotCam",,"BrowCam",,"UserSelect",,"SciCam",,"/PilotCam.20230817_224146951.jpg",,"/BrowCam.20230817_224146951.jpg",,"/UserSelect.20230817_224146951.jpg",,"/SciCam.20230817_224146951.jpg","meters","0.00","meters","0.64","deg","44.69","ddeg","44.5018108","meters","-1.08","meters","2.51","ddeg","-125.4085934","deg","-0.8","deg","0.2",,,,,,,,
"64dea24895482d0019b181de","2023-08-17T22:42:16.970Z","ASNAP","admin","",,,,,,,,,,,,,,,,,,,,,,,,"PilotCam",,"BrowCam",,"UserSelect",,"SciCam",,"/PilotCam.20230817_224216970.jpg",,"/BrowCam.20230817_224216970.jpg",,"/UserSelect.20230817_224216970.jpg",,"/SciCam.20230817_224216970.jpg","meters","0.00","meters","0.64","deg","44.69","ddeg","44.5018108","meters","-1.08","meters","2.51","ddeg","-125.4085934","deg","-0.8","deg","0.2",,,,,,,,
"64dea26795482d0019b181e1","2023-08-17T22:42:47.013Z","ASNAP","admin","",,,,,,,,,,,,,,,,,,,,,,,,"PilotCam",,"BrowCam",,"UserSelect",,"SciCam",,"/PilotCam.20230817_224247013.jpg",,"/BrowCam.20230817_224247013.jpg",,"/UserSelect.20230817_224247013.jpg",,"/SciCam.20230817_224247013.jpg","meters","0.00","meters","0.64","deg","44.69","ddeg","44.5018108","meters","-1.08","meters","2.51","ddeg","-125.4085934","deg","-0.8","deg","0.2",,,,,,,,
"64dea28595482d0019b181e4","2023-08-17T22:43:17.069Z","ASNAP","admin","",,,,,,,,,,,,,,,,,,,,,,,,"PilotCam",,"BrowCam",,"UserSelect",,"SciCam",,"/PilotCam.20230817_224317069.jpg",,"/BrowCam.20230817_224317069.jpg",,"/UserSelect.20230817_224317069.jpg",,"/SciCam.20230817_224317069.jpg","meters","0.00","meters","0.64","deg","44.69","ddeg","44.5018108","meters","-1.08","meters","2.51","ddeg","-125.4085934","deg","-0.8","deg","0.2",,,,,,,,
"64dea2a395482d0019b181e7","2023-08-17T22:43:47.117Z","ASNAP","admin","",,,,,,,,,,,,,,,,,,,,,,,,"PilotCam",,"BrowCam",,"UserSelect",,"SciCam",,"/PilotCam.20230817_224347117.jpg",,"/BrowCam.20230817_224347117.jpg",,"/UserSelect.20230817_224347117.jpg",,"/SciCam.20230817_224347117.jpg","meters","0.00","meters","0.64","deg","44.69","ddeg","44.5018108","meters","-1.08","meters","2.51","ddeg","-125.4085934","deg","-0.8","deg","0.2",,,,,,,,
"64dea2be95482d0019b181ea","2023-08-17T22:44:14.816Z","WATCH_CHANGE","guest","",,,,,,,"Dax  ",,,,,,,,,,,,,,,,,"PilotCam",,"BrowCam",,"UserSelect",,"SciCam",,"/PilotCam.20230817_224414816.jpg",,"/BrowCam.20230817_224414816.jpg",,"/UserSelect.20230817_224414816.jpg",,"/SciCam.20230817_224414816.jpg","meters","0.00","meters","0.64","deg","44.69","ddeg","44.5018108","meters","-1.08","meters","2.51","ddeg","-125.4085934","deg","-0.8","deg","0.2",,,,,,,,
"64dea2c195482d0019b181ed","2023-08-17T22:44:17.160Z","ASNAP","admin","",,,,,,,,,,,,,,,,,,,,,,,,"PilotCam",,"BrowCam",,"UserSelect",,"SciCam",,"/PilotCam.20230817_224417160.jpg",,"/BrowCam.20230817_224417160.jpg",,"/UserSelect.20230817_224417160.jpg",,"/SciCam.20230817_224417160.jpg","meters","0.00","meters","0.64","deg","44.69","ddeg","44.5018108","meters","-1.08","meters","2.51","ddeg","-125.4085934","deg","-0.8","deg","0.2",,,,,,,,
"64dea2df95482d0019b181f0","2023-08-17T22:44:47.230Z","ASNAP","admin","",,,,,,,,,,,,,,,,,,,,,,,,"PilotCam",,"BrowCam",,"UserSelect",,"SciCam",,"/PilotCam.20230817_224447230.jpg",,"/BrowCam.20230817_224447230.jpg",,"/UserSelect.20230817_224447230.jpg",,"/SciCam.20230817_224447230.jpg","meters","0.00","meters","0.64","deg","44.69","ddeg","44.5018108","meters","-1.08","meters","2.51","ddeg","-125.4085934","deg","-0.8","deg","0.2",,,,,,,,
"64dea2f695482d0019b181f3","2023-08-17T22:45:10.495Z","FREE_FORM","guest","Start log Dive 1523",,,,,,,,,,,,,,,,,,,,,,,,"PilotCam",,"BrowCam",,"UserSelect",,"SciCam",,"/PilotCam.20230817_224510495.jpg",,"/BrowCam.20230817_224510495.jpg",,"/UserSelect.20230817_224510495.jpg",,"/SciCam.20230817_224510495.jpg","meters","0.00","meters","0.64","deg","44.69","ddeg","44.5018108","meters","-1.08","meters","2.51","ddeg","-125.4085934","deg","-0.8","deg","0.2",,,,,,,,
"64dea2fd95482d0019b181f6","2023-08-17T22:45:17.279Z","ASNAP","admin","",,,,,,,,,,,,,,,,,,,,,,,,"PilotCam",,"BrowCam",,"UserSelect",,"SciCam",,"/PilotCam.20230817_224517279.jpg",,"/BrowCam.20230817_224517279.jpg",,"/UserSelect.20230817_224517279.jpg",,"/SciCam.20230817_224517279.jpg","meters","0.00","meters","0.64","deg","44.69","ddeg","44.5018108","meters","-1.08","meters","2.51","ddeg","-125.4085934","deg","-0.8","deg","0.2",,,,,,,,
"64dea30095482d0019b181f9","2023-08-17T22:45:20.985Z","FREE_FORM","guest","Clear to Power Up",,,,,,,,,,,,,,,,,,,,,,,,"PilotCam",,"BrowCam",,"UserSelect",,"SciCam",,"/PilotCam.20230817_224520985.jpg",,"/BrowCam.20230817_224520985.jpg",,"/UserSelect.20230817_224520985.jpg",,"/SciCam.20230817_224520985.jpg","meters","0.00","meters","0.64","deg","44.69","ddeg","44.5018108","meters","-1.08","meters","2.51","ddeg","-125.4085934","deg","-0.8","deg","0.2",,,,,,,,
"64dea31b95482d0019b181fc","2023-08-17T22:45:47.324Z","ASNAP","admin","",,,,,,,,,,,,,,,,,,,,,,,,"PilotCam",,"BrowCam",,"UserSelect",,"SciCam",,"/PilotCam.20230817_224547324.jpg",,"/BrowCam.20230817_224547324.jpg",,"/UserSelect.20230817_224547324.jpg",,"/SciCam.20230817_224547324.jpg","meters","0.00","meters","0.64","deg","44.69","ddeg","44.5018108","meters","-1.08","meters","2.51","ddeg","-125.4085934","deg","-0.8","deg","0.2",,,,,,,,
"64dea33995482d0019b181ff","2023-08-17T22:46:17.394Z","ASNAP","admin","",,,,,,,,,,,,,,,,,,,,,,,,"PilotCam",,"BrowCam",,"UserSelect",,"SciCam",,"/PilotCam.20230817_224617394.jpg",,"/BrowCam.20230817_224617394.jpg",,"/UserSelect.20230817_224617394.jpg",,"/SciCam.20230817_224617394.jpg","meters","0.00","meters","0.64","deg","44.69","ddeg","44.5018108","meters","-1.08","meters","2.51","ddeg","-125.4085934","deg","-0.8","deg","0.2",,,,,,,,
"64dea35795482d0019b18202","2023-08-17T22:46:47.445Z","ASNAP","admin","",,,,,,,,,,,,,,,,,,,,,,,,"PilotCam",,"BrowCam",,"UserSelect",,"SciCam",,"/PilotCam.20230817_224647445.jpg",,"/BrowCam.20230817_224647445.jpg",,"/UserSelect.20230817_224647445.jpg",,"/SciCam.20230817_224647445.jpg","meters","0.00","meters","0.64","deg","44.69","ddeg","44.5018108","meters","-1.08","meters","2.51","ddeg","-125.4085934","deg","-0.8","deg","0.2",,,,,,,,
"64dea37595482d0019b18205","2023-08-17T22:47:17.476Z","ASNAP","admin","",,,,,,,,,,,,,,,,,,,,,,,,"PilotCam",,"BrowCam",,"UserSelect",,"SciCam",,"/PilotCam.20230817_224717476.jpg",,"/BrowCam.20230817_224717476.jpg",,"/UserSelect.20230817_224717476.jpg",,"/SciCam.20230817_224717476.jpg","meters","0.00","meters","0.64","deg","44.69","ddeg","44.5018108","meters","-1.08","meters","2.51","ddeg","-125.4085934","deg","-0.8","deg","0.2",,,,,,,,
"64dea39395482d0019b18208","2023-08-17T22:47:47.496Z","ASNAP","admin","",,,,,,,,,,,,,,,,,,,,,,,,"PilotCam",,"BrowCam",,"UserSelect",,"SciCam",,"/PilotCam.20230817_224747496.jpg",,"/BrowCam.20230817_224747496.jpg",,"/UserSelect.20230817_224747496.jpg",,"/SciCam.20230817_224747496.jpg","meters","0.00","meters","0.64","deg","44.69","ddeg","44.5018108","meters","-1.08","meters","2.51","ddeg","-125.4085934","deg","-0.8","deg","0.2",,,,,,,,
"64dea3b195482d0019b1820b","2023-08-17T22:48:17.516Z","ASNAP","admin","",,,,,,,,,,,,,,,,,,,,,,,,"PilotCam",,"BrowCam",,"UserSelect",,"SciCam",,"/PilotCam.20230817_224817516.jpg",,"/BrowCam.20230817_224817516.jpg",,"/UserSelect.20230817_224817516.jpg",,"/SciCam.20230817_224817516.jpg","meters","0.00","meters","0.45","deg","44.69","ddeg","44.5018108","meters","-1.08","meters","2.51","ddeg","-125.4085934","deg","-0.8","deg","0.2","degC","18.48","degC","-999.99","degC","-999.99","degC","-999.99"
"64dea3cf95482d0019b1820f","2023-08-17T22:48:47.561Z","ASNAP","admin","",,,,,,,,,,,,,,,,,,,,,,,,"PilotCam",,"BrowCam",,"UserSelect",,"SciCam",,"/PilotCam.20230817_224847561.jpg",,"/BrowCam.20230817_224847561.jpg",,"/UserSelect.20230817_224847561.jpg",,"/SciCam.20230817_224847561.jpg","meters","0.00","meters","0.41","deg","44.69","ddeg","44.5018108","meters","-1.08","meters","2.51","ddeg","-125.4085934","deg","-0.8","deg","0.2","degC","18.49","degC","-999.99","degC","-999.99","degC","-999.99"
"64dea3ed95482d0019b18213","2023-08-17T22:49:17.606Z","ASNAP","admin","",,,,,,,,,,,,,,,,,,,,,,,,"PilotCam",,"BrowCam",,"UserSelect",,"SciCam",,"/PilotCam.20230817_224917606.jpg",,"/BrowCam.20230817_224917606.jpg",,"/UserSelect.20230817_224917606.jpg",,"/SciCam.20230817_224917606.jpg","meters","0.00","meters","0.32","deg","44.69","ddeg","44.5018108","meters","-1.08","meters","2.51","ddeg","-125.4085934","deg","-0.8","deg","0.2","degC","18.50","degC","-999.99","degC","-999.99","degC","-999.99"
"64dea40b95482d0019b18217","2023-08-17T22:49:47.623Z","ASNAP","admin","",,,,,,,,,,,,,,,,,,,,,,,,"PilotCam",,"BrowCam",,"UserSelect",,"SciCam",,"/PilotCam.20230817_224947623.jpg",,"/BrowCam.20230817_224947623.jpg",,"/UserSelect.20230817_224947623.jpg",,"/SciCam.20230817_224947623.jpg","meters","0.00","meters","0.35","deg","44.69","ddeg","44.5018108","meters","-1.08","meters","2.51","ddeg","-125.4085934","deg","-0.7","deg","0.0","degC","18.48","degC","-999.99","degC","-999.99","degC","-999.99"
"64dea42995482d0019b1821b","2023-08-17T22:50:17.667Z","ASNAP","admin","",,,,,,,,,,,,,,,,,,,,,,,,"PilotCam",,"BrowCam",,"UserSelect",,"SciCam",,"/PilotCam.20230817_225017667.jpg",,"/BrowCam.20230817_225017667.jpg",,"/UserSelect.20230817_225017667.jpg",,"/SciCam.20230817_225017667.jpg","meters","0.00","meters","0.40","deg","44.69","ddeg","44.5018108","meters","-1.08","meters","2.51","ddeg","-125.4085934","deg","-1.0","deg","-1.6","degC","18.54","degC","-999.99","degC","-999.99","degC","-999.99"
"64dea44795482d0019b1821f","2023-08-17T22:50:47.685Z","ASNAP","admin","",,,,,,,,,,,,,,,,,,,,,,,,"PilotCam",,"BrowCam",,"UserSelect",,"SciCam",,"/PilotCam.20230817_225047685.jpg",,"/BrowCam.20230817_225047685.jpg",,"/UserSelect.20230817_225047685.jpg",,"/SciCam.20230817_225047685.jpg","meters","0.00","meters","0.38","deg","44.69","ddeg","44.5018108","meters","-1.08","meters","2.51","ddeg","-125.4085934","deg","0.4","deg","-1.5","degC","18.48","degC","-999.99","degC","-999.99","degC","-999.99"
"64dea46595482d0019b18223","2023-08-17T22:51:17.738Z","ASNAP","admin","",,,,,,,,,,,,,,,,,,,,,,,,"PilotCam",,"BrowCam",,"UserSelect",,"SciCam",,"/PilotCam.20230817_225117738.jpg",,"/BrowCam.20230817_225117738.jpg",,"/UserSelect.20230817_225117738.jpg",,"/SciCam.20230817_225117738.jpg","meters","0.00","meters","0.44","deg","44.69","ddeg","44.5018108","meters","-1.08","meters","2.51","ddeg","-125.4085934","deg","-0.7","deg","-0.1","degC","18.48","degC","-999.99","degC","-999.99","degC","-999.99"
"64dea47e95482d0019b18227","2023-08-17T22:51:42.439Z","FREE_FORM","guest","launch checklist",,,,,,,,,,,,,,,,,,,,,,,,"PilotCam",,"BrowCam",,"UserSelect",,"SciCam",,"/PilotCam.20230817_225142439.jpg",,"/BrowCam.20230817_225142439.jpg",,"/UserSelect.20230817_225142439.jpg",,"/SciCam.20230817_225142439.jpg","meters","0.00","meters","0.46","deg","44.69","ddeg","44.5018108","meters","-1.08","meters","2.51","ddeg","-125.4085934","deg","0.1","deg","0.1","degC","18.49","degC","-999.99","degC","-999.99","degC","-999.99"
"64dea48395482d0019b1822b","2023-08-17T22:51:47.783Z","ASNAP","admin","",,,,,,,,,,,,,,,,,,,,,,,,"PilotCam",,"BrowCam",,"UserSelect",,"SciCam",,"/PilotCam.20230817_225147783.jpg",,"/BrowCam.20230817_225147783.jpg",,"/UserSelect.20230817_225147783.jpg",,"/SciCam.20230817_225147783.jpg","meters","0.00","meters","0.47","deg","44.69","ddeg","44.5018108","meters","-1.08","meters","2.51","ddeg","-125.4085934","deg","-0.8","deg","1.1","degC","18.50","degC","-999.99","degC","-999.99","degC","-999.99"
"64dea4a195482d0019b1822f","2023-08-17T22:52:17.829Z","ASNAP","admin","",,,,,,,,,,,,,,,,,,,,,,,,"PilotCam",,"BrowCam",,"UserSelect",,"SciCam",,"/PilotCam.20230817_225217829.jpg",,"/BrowCam.20230817_225217829.jpg",,"/UserSelect.20230817_225217829.jpg",,"/SciCam.20230817_225217829.jpg","meters","0.00","meters","0.49","deg","44.69","ddeg","44.5018108","meters","-1.08","meters","2.51","ddeg","-125.4085934","deg","-0.5","deg","-0.3","degC","18.50","degC","-999.99","degC","-999.99","degC","-999.99"
"64dea4bf95482d0019b18233","2023-08-17T22:52:47.872Z","ASNAP","admin","",,,,,,,,,,,,,,,,,,,,,,,,"PilotCam",,"BrowCam",,"UserSelect",,"SciCam",,"/PilotCam.20230817_225247872.jpg",,"/BrowCam.20230817_225247872.jpg",,"/UserSelect.20230817_225247872.jpg",,"/SciCam.20230817_225247872.jpg","meters","0.00","meters","0.56","deg","44.69","ddeg","44.5018108","meters","-1.08","meters","2.51","ddeg","-125.4085934","deg","-0.0","deg","-1.4","degC","18.50","degC","-999.99","degC","-999.99","degC","-999.99"
"64dea4dd95482d0019b18237","2023-08-17T22:53:17.943Z","ASNAP","admin","",,,,,,,,,,,,,,,,,,,,,,,,"PilotCam",,"BrowCam",,"UserSelect",,"SciCam",,"/PilotCam.20230817_225317943.jpg",,"/BrowCam.20230817_225317943.jpg",,"/UserSelect.20230817_225317943.jpg",,"/SciCam.20230817_225317943.jpg","meters","0.00","meters","0.54","deg","44.69","ddeg","44.5018108","meters","-1.08","meters","2.51","ddeg","-125.4085934","deg","-0.1","deg","0.9","degC","18.51","degC","-999.99","degC","-999.99","degC","-999.99"
"64dea4fb95482d0019b1823b","2023-08-17T22:53:47.984Z","ASNAP","admin","",,,,,,,,,,,,,,,,,,,,,,,,"PilotCam",,"BrowCam",,"UserSelect",,"SciCam",,"/PilotCam.20230817_225347984.jpg",,"/BrowCam.20230817_225347984.jpg",,"/UserSelect.20230817_225347984.jpg",,"/SciCam.20230817_225347984.jpg","meters","0.00","meters","0.55","deg","44.69","ddeg","44.5018108","meters","-1.08","meters","2.51","ddeg","-125.4085934","deg","-0.4","deg","2.3","degC","18.49","degC","-999.99","degC","-999.99","degC","-999.99"
"64dea51a95482d0019b1823f","2023-08-17T22:54:18.021Z","ASNAP","admin","",,,,,,,,,,,,,,,,,,,,,,,,"PilotCam",,"BrowCam",,"UserSelect",,"SciCam",,"/PilotCam.20230817_225418021.jpg",,"/BrowCam.20230817_225418021.jpg",,"/UserSelect.20230817_225418021.jpg",,"/SciCam.20230817_225418021.jpg","meters","0.00","meters","0.58","deg","44.69","ddeg","44.5018108","meters","-1.08","meters","2.51","ddeg","-125.4085934","deg","-0.2","deg","-0.8","degC","18.50","degC","-999.99","degC","-999.99","degC","-999.99"
"64dea53895482d0019b18243","2023-08-17T22:54:48.084Z","ASNAP","admin","",,,,,,,,,,,,,,,,,,,,,,,,"PilotCam",,"BrowCam",,"UserSelect",,"SciCam",,"/PilotCam.20230817_225448084.jpg",,"/BrowCam.20230817_225448084.jpg",,"/UserSelect.20230817_225448084.jpg",,"/SciCam.20230817_225448084.jpg","meters","0.00","meters","0.63","deg","74.01","ddeg","44.5018108","meters","-1.08","meters","2.51","ddeg","-125.4085934","deg","-0.9","deg","-2.0","degC","18.49","degC","-999.99","degC","-999.99","degC","-999.99"
"64dea55695482d0019b18247","2023-08-17T22:55:18.139Z","ASNAP","admin","",,,,,,,,,,,,,,,,,,,,,,,,"PilotCam",,"BrowCam",,"UserSelect",,"SciCam",,"/PilotCam.20230817_225518139.jpg",,"/BrowCam.20230817_225518139.jpg",,"/UserSelect.20230817_225518139.jpg",,"/SciCam.20230817_225518139.jpg","meters","0.00","meters","0.61","deg","76.26","ddeg","44.5018108","meters","-1.08","meters","2.51","ddeg","-125.4085934","deg","-0.9","deg","0.6","degC","18.53","degC","-999.99","degC","-999.99","degC","-999.99"
"64dea57495482d0019b1824b","2023-08-17T22:55:48.165Z","ASNAP","admin","",,,,,,,,,,,,,,,,,,,,,,,,"PilotCam",,"BrowCam",,"UserSelect",,"SciCam",,"/PilotCam.20230817_225548165.jpg",,"/BrowCam.20230817_225548165.jpg",,"/UserSelect.20230817_225548165.jpg",,"/SciCam.20230817_225548165.jpg","meters","0.00","meters","0.63","deg","75.82","ddeg","44.5018108","meters","-1.08","meters","2.51","ddeg","-125.4085934","deg","-0.1","deg","-0.1","degC","18.52","degC","-999.99","degC","-999.99","degC","-999.99"
"64dea57595482d0019b1824f","2023-08-17T22:55:49.820Z","WATCH_CHANGE","guest","",,,,,,,"Alex started logging",,,,,,,,,,,,,,,,,"PilotCam",,"BrowCam",,"UserSelect",,"SciCam",,"/PilotCam.20230817_225549820.jpg",,"/BrowCam.20230817_225549820.jpg",,"/UserSelect.20230817_225549820.jpg",,"/SciCam.20230817_225549820.jpg","meters","0.00","meters","0.63","deg","75.65","ddeg","44.5018108","meters","-1.08","meters","2.51","ddeg","-125.4085934","deg","0.2","deg","-0.8","degC","18.52","degC","-999.99","degC","-999.99","degC","-999.99"
"64dea59295482d0019b18253","2023-08-17T22:56:18.184Z","ASNAP","admin","",,,,,,,,,,,,,,,,,,,,,,,,"PilotCam",,"BrowCam",,"UserSelect",,"SciCam",,"/PilotCam.20230817_225618184.jpg",,"/BrowCam.20230817_225618184.jpg",,"/UserSelect.20230817_225618184.jpg",,"/SciCam.20230817_225618184.jpg","meters","0.00","meters","0.65","deg","75.53","ddeg","44.5018108","meters","-1.08","meters","2.51","ddeg","-125.4085934","deg","-1.0","deg","1.0","degC","18.52","degC","-999.99","degC","-999.99","degC","-999.99"
"64dea5aa95482d0019b18257","2023-08-17T22:56:42.531Z","VEHICLE","guest","",,,,,,"Jason off deck",,,,,,,,,,,,,,,,,,"PilotCam",,"BrowCam",,"UserSelect",,"SciCam",,"/PilotCam.20230817_225642531.jpg",,"/BrowCam.20230817_225642531.jpg",,"/UserSelect.20230817_225642531.jpg",,"/SciCam.20230817_225642531.jpg","meters","0.00","meters","0.59","deg","81.80","ddeg","44.5018108","meters","-1.08","meters","2.51","ddeg","-125.4085934","deg","0.7","deg","-2.4","degC","18.53","degC","-999.99","degC","-999.99","degC","-999.99"
"64dea5b095482d0019b1825b","2023-08-17T22:56:48.237Z","ASNAP","admin","",,,,,,,,,,,,,,,,,,,,,,,,"PilotCam",,"BrowCam",,"UserSelect",,"SciCam",,"/PilotCam.20230817_225648237.jpg",,"/BrowCam.20230817_225648237.jpg",,"/UserSelect.20230817_225648237.jpg",,"/SciCam.20230817_225648237.jpg","meters","0.00","meters","0.64","deg","82.63","ddeg","44.5018108","meters","-1.08","meters","2.51","ddeg","-125.4085934","deg","0.9","deg","-1.6","degC","18.53","degC","-999.99","degC","-999.99","degC","-999.99"
"64dea5ce95482d0019b1825f","2023-08-17T22:57:18.306Z","ASNAP","admin","",,,,,,,,,,,,,,,,,,,,,,,,"PilotCam",,"BrowCam",,"UserSelect",,"SciCam",,"/PilotCam.20230817_225718306.jpg",,"/BrowCam.20230817_225718306.jpg",,"/UserSelect.20230817_225718306.jpg",,"/SciCam.20230817_225718306.jpg","meters","0.00","meters","0.65","deg","79.71","ddeg","44.5018108","meters","-1.08","meters","2.51","ddeg","-125.4085934","deg","1.2","deg","-1.4","degC","18.50","degC","-999.99","degC","-999.99","degC","-999.99"
"64dea5ec95482d0019b18263","2023-08-17T22:57:48.345Z","ASNAP","admin","",,,,,,,,,,,,,,,,,,,,,,,,"PilotCam",,"BrowCam",,"UserSelect",,"SciCam",,"/PilotCam.20230817_225748345.jpg",,"/BrowCam.20230817_225748345.jpg",,"/UserSelect.20230817_225748345.jpg",,"/SciCam.20230817_225748345.jpg","meters","0.00","meters","0.64","deg","164.84","ddeg","44.5018108","meters","-1.08","meters","2.51","ddeg","-125.4085934","deg","1.3","deg","-0.7","degC","18.53","degC","-999.99","degC","-999.99","degC","-999.99"
"64dea60a95482d0019b18267","2023-08-17T22:58:18.405Z","ASNAP","admin","",,,,,,,,,,,,,,,,,,,,,,,,"PilotCam",,"BrowCam",,"UserSelect",,"SciCam",,"/PilotCam.20230817_225818405.jpg",,"/BrowCam.20230817_225818405.jpg",,"/UserSelect.20230817_225818405.jpg",,"/SciCam.20230817_225818405.jpg","meters","0.00","meters","0.65","deg","164.31","ddeg","44.5018108","meters","-1.08","meters","2.51","ddeg","-125.4085934","deg","1.6","deg","-2.1","degC","18.52","degC","-999.99","degC","-999.99","degC","-999.99"
"64dea62895482d0019b1826b","2023-08-17T22:58:48.449Z","ASNAP","admin","",,,,,,,,,,,,,,,,,,,,,,,,"PilotCam",,"BrowCam",,"UserSelect",,"SciCam",,"/PilotCam.20230817_225848449.jpg",,"/BrowCam.20230817_225848449.jpg",,"/UserSelect.20230817_225848449.jpg",,"/SciCam.20230817_225848449.jpg","meters","0.00","meters","0.62","deg","164.42","ddeg","44.5018108","meters","-1.08","meters","2.51","ddeg","-125.4085934","deg","1.6","deg","-1.1","degC","18.47","degC","-999.99","degC","-999.99","degC","-999.99"
"64dea64695482d0019b1826f","2023-08-17T22:59:18.494Z","ASNAP","admin","",,,,,,,,,,,,,,,,,,,,,,,,"PilotCam",,"BrowCam",,"UserSelect",,"SciCam",,"/PilotCam.20230817_225918494.jpg",,"/BrowCam.20230817_225918494.jpg",,"/UserSelect.20230817_225918494.jpg",,"/SciCam.20230817_225918494.jpg","meters","0.00","meters","0.63","deg","164.36","ddeg","44.5018108","meters","-1.08","meters","2.51","ddeg","-125.4085934","deg","1.5","deg","-0.9","degC","18.46","degC","-999.99","degC","-999.99","degC","-999.99"
"64dea66495482d0019b18273","2023-08-17T22:59:48.538Z","ASNAP","admin","",,,,,,,,,,,,,,,,,,,,,,,,"PilotCam",,"BrowCam",,"UserSelect",,"SciCam",,"/PilotCam.20230817_225948538.jpg",,"/BrowCam.20230817_225948538.jpg",,"/UserSelect.20230817_225948538.jpg",,"/SciCam.20230817_225948538.jpg","meters","0.00","meters","0.65","deg","163.87","ddeg","44.5018108","meters","-1.08","meters","2.51","ddeg","-125.4085934","deg","0.1","deg","-1.5","degC","18.43","degC","-999.99","degC","-999.99","degC","-999.99"
"64dea68295482d0019b18277","2023-08-17T23:00:18.557Z","ASNAP","admin","",,,,,,,,,,,,,,,,,,,,,,,,"PilotCam",,"BrowCam",,"UserSelect",,"SciCam",,"/PilotCam.20230817_230018557.jpg",,"/BrowCam.20230817_230018557.jpg",,"/UserSelect.20230817_230018557.jpg",,"/SciCam.20230817_230018557.jpg","meters","0.00","meters","0.66","deg","163.61","ddeg","44.5018108","meters","-1.08","meters","2.51","ddeg","-125.4085934","deg","0.2","deg","-1.5","degC","18.43","degC","-999.99","degC","-999.99","degC","-999.99"
"64dea6a095482d0019b1827b","2023-08-17T23:00:48.599Z","ASNAP","admin","",,,,,,,,,,,,,,,,,,,,,,,,"PilotCam",,"BrowCam",,"UserSelect",,"SciCam",,"/PilotCam.20230817_230048599.jpg",,"/BrowCam.20230817_230048599.jpg",,"/UserSelect.20230817_230048599.jpg",,"/SciCam.20230817_230048599.jpg","meters","0.00","meters","0.65","deg","161.52","ddeg","44.5018108","meters","-1.08","meters","2.51","ddeg","-125.4085934","deg","0.2","deg","-0.9","degC","18.40","degC","-999.99","degC","-999.99","degC","-999.99"
"64dea6be95482d0019b1827f","2023-08-17T23:01:18.644Z","ASNAP","admin","",,,,,,,,,,,,,,,,,,,,,,,,"PilotCam",,"BrowCam",,"UserSelect",,"SciCam",,"/PilotCam.20230817_230118644.jpg",,"/BrowCam.20230817_230118644.jpg",,"/UserSelect.20230817_230118644.jpg",,"/SciCam.20230817_230118644.jpg","meters","0.00","meters","0.67","deg","161.89","ddeg","44.5018108","meters","-1.08","meters","2.51","ddeg","-125.4085934","deg","0.5","deg","-1.0","degC","18.36","degC","-999.99","degC","-999.99","degC","-999.99"
"64dea6dc95482d0019b18283","2023-08-17T23:01:48.688Z","ASNAP","admin","",,,,,,,,,,,,,,,,,,,,,,,,"PilotCam",,"BrowCam",,"UserSelect",,"SciCam",,"/PilotCam.20230817_230148688.jpg",,"/BrowCam.20230817_230148688.jpg",,"/UserSelect.20230817_230148688.jpg",,"/SciCam.20230817_230148688.jpg","meters","0.00","meters","0.69","deg","161.63","ddeg","44.5018108","meters","-1.08","meters","2.51","ddeg","-125.4085934","deg","1.2","deg","-1.7","degC","18.36","degC","-999.99","degC","-999.99","degC","-999.99"
"64dea6fa95482d0019b18287","2023-08-17T23:02:18.733Z","ASNAP","admin","",,,,,,,,,,,,,,,,,,,,,,,,"PilotCam",,"BrowCam",,"UserSelect",,"SciCam",,"/PilotCam.20230817_230218733.jpg",,"/BrowCam.20230817_230218733.jpg",,"/UserSelect.20230817_230218733.jpg",,"/SciCam.20230817_230218733.jpg","meters","0.00","meters","0.67","deg","160.90","ddeg","44.5018108","meters","-1.08","meters","2.51","ddeg","-125.4085934","deg","2.5","deg","-0.6","degC","18.35","degC","-999.99","degC","-999.99","degC","-999.99"
"64dea71895482d0019b1828b","2023-08-17T23:02:48.778Z","ASNAP","admin","",,,,,,,,,,,,,,,,,,,,,,,,"PilotCam",,"BrowCam",,"UserSelect",,"SciCam",,"/PilotCam.20230817_230248778.jpg",,"/BrowCam.20230817_230248778.jpg",,"/UserSelect.20230817_230248778.jpg",,"/SciCam.20230817_230248778.jpg","meters","0.00","meters","0.68","deg","159.69","ddeg","44.5018108","meters","-1.08","meters","2.51","ddeg","-125.4085934","deg","1.4","deg","-0.4","degC","18.32","degC","-999.99","degC","-999.99","degC","-999.99"
"64dea73695482d0019b1828f","2023-08-17T23:03:18.804Z","ASNAP","admin","",,,,,,,,,,,,,,,,,,,,,,,,"PilotCam",,"BrowCam",,"UserSelect",,"SciCam",,"/PilotCam.20230817_230318804.jpg",,"/BrowCam.20230817_230318804.jpg",,"/UserSelect.20230817_230318804.jpg",,"/SciCam.20230817_230318804.jpg","meters","0.00","meters","0.65","deg","159.52","ddeg","44.5018108","meters","-1.08","meters","2.51","ddeg","-125.4085934","deg","0.3","deg","-1.7","degC","18.31","degC","-999.99","degC","-999.99","degC","-999.99"
"64dea75495482d0019b18293","2023-08-17T23:03:48.849Z","ASNAP","admin","",,,,,,,,,,,,,,,,,,,,,,,,"PilotCam",,"BrowCam",,"UserSelect",,"SciCam",,"/PilotCam.20230817_230348849.jpg",,"/BrowCam.20230817_230348849.jpg",,"/UserSelect.20230817_230348849.jpg",,"/SciCam.20230817_230348849.jpg","meters","0.00","meters","0.68","deg","158.51","ddeg","44.5018108","meters","-1.08","meters","2.51","ddeg","-125.4085934","deg","1.7","deg","-1.2","degC","18.34","degC","-999.99","degC","-999.99","degC","-999.99"
"64dea77295482d0019b18297","2023-08-17T23:04:18.868Z","ASNAP","admin","",,,,,,,,,,,,,,,,,,,,,,,,"PilotCam",,"BrowCam",,"UserSelect",,"SciCam",,"/PilotCam.20230817_230418868.jpg",,"/BrowCam.20230817_230418868.jpg",,"/UserSelect.20230817_230418868.jpg",,"/SciCam.20230817_230418868.jpg","meters","0.00","meters","0.66","deg","158.35","ddeg","44.5018108","meters","-1.08","meters","2.51","ddeg","-125.4085934","deg","1.8","deg","-0.6","degC","18.32","degC","-999.99","degC","-999.99","degC","-999.99"
"64dea79095482d0019b1829b","2023-08-17T23:04:48.895Z","ASNAP","admin","",,,,,,,,,,,,,,,,,,,,,,,,"PilotCam",,"BrowCam",,"UserSelect",,"SciCam",,"/PilotCam.20230817_230448895.jpg",,"/BrowCam.20230817_230448895.jpg",,"/UserSelect.20230817_230448895.jpg",,"/SciCam.20230817_230448895.jpg","meters","0.00","meters","0.67","deg","158.34","ddeg","44.5018108","meters","-1.08","meters","2.51","ddeg","-125.4085934","deg","-0.1","deg","-1.1","degC","18.28","degC","-999.99","degC","-999.99","degC","-999.99"
"64dea7ae95482d0019b1829f","2023-08-17T23:05:18.960Z","ASNAP","admin","",,,,,,,,,,,,,,,,,,,,,,,,"PilotCam",,"BrowCam",,"UserSelect",,"SciCam",,"/PilotCam.20230817_230518960.jpg",,"/BrowCam.20230817_230518960.jpg",,"/UserSelect.20230817_230518960.jpg",,"/SciCam.20230817_230518960.jpg","meters","0.00","meters","0.67","deg","79.78","ddeg","44.5018108","meters","-1.08","meters","2.51","ddeg","-125.4085934","deg","1.0","deg","-0.4","degC","18.29","degC","-999.99","degC","-999.99","degC","-999.99"
"64dea7cd95482d0019b182a3","2023-08-17T23:05:49.013Z","ASNAP","admin","",,,,,,,,,,,,,,,,,,,,,,,,"PilotCam",,"BrowCam",,"UserSelect",,"SciCam",,"/PilotCam.20230817_230549013.jpg",,"/BrowCam.20230817_230549013.jpg",,"/UserSelect.20230817_230549013.jpg",,"/SciCam.20230817_230549013.jpg","meters","0.00","meters","0.67","deg","71.29","ddeg","44.5018108","meters","-1.08","meters","2.51","ddeg","-125.4085934","deg","1.4","deg","-2.9","degC","18.29","degC","-999.99","degC","-999.99","degC","-999.99"
"64dea7eb95482d0019b182a7","2023-08-17T23:06:19.058Z","ASNAP","admin","",,,,,,,,,,,,,,,,,,,,,,,,"PilotCam",,"BrowCam",,"UserSelect",,"SciCam",,"/PilotCam.20230817_230619058.jpg",,"/BrowCam.20230817_230619058.jpg",,"/UserSelect.20230817_230619058.jpg",,"/SciCam.20230817_230619058.jpg","meters","0.00","meters","0.65","deg","71.31","ddeg","44.5018108","meters","-1.08","meters","2.51","ddeg","-125.4085934","deg","1.7","deg","0.8","degC","18.29","degC","-999.99","degC","-999.99","degC","-999.99"
"64dea80995482d0019b182ab","2023-08-17T23:06:49.125Z","ASNAP","admin","",,,,,,,,,,,,,,,,,,,,,,,,"PilotCam",,"BrowCam",,"UserSelect",,"SciCam",,"/PilotCam.20230817_230649125.jpg",,"/BrowCam.20230817_230649125.jpg",,"/UserSelect.20230817_230649125.jpg",,"/SciCam.20230817_230649125.jpg","meters","0.00","meters","0.70","deg","71.11","ddeg","44.5018108","meters","-1.08","meters","2.51","ddeg","-125.4085934","deg","0.8","deg","-0.9","degC","18.31","degC","-999.99","degC","-999.99","degC","-999.99"
"64dea82795482d0019b182af","2023-08-17T23:07:19.204Z","ASNAP","admin","",,,,,,,,,,,,,,,,,,,,,,,,"PilotCam",,"BrowCam",,"UserSelect",,"SciCam",,"/PilotCam.20230817_230719204.jpg",,"/BrowCam.20230817_230719204.jpg",,"/UserSelect.20230817_230719204.jpg",,"/SciCam.20230817_230719204.jpg","meters","0.00","meters","0.66","deg","75.21","ddeg","44.5018108","meters","-1.08","meters","2.51","ddeg","-125.4085934","deg","1.5","deg","-0.5","degC","18.36","degC","-999.99","degC","-999.99","degC","-999.99"
"64dea84595482d0019b182b3","2023-08-17T23:07:49.277Z","ASNAP","admin","",,,,,,,,,,,,,,,,,,,,,,,,"PilotCam",,"BrowCam",,"UserSelect",,"SciCam",,"/PilotCam.20230817_230749277.jpg",,"/BrowCam.20230817_230749277.jpg",,"/UserSelect.20230817_230749277.jpg",,"/SciCam.20230817_230749277.jpg","meters","0.00","meters","0.69","deg","74.96","ddeg","44.5018108","meters","-1.08","meters","2.51","ddeg","-125.4085934","deg","-0.1","deg","-1.1","degC","18.36","degC","-999.99","degC","-999.99","degC","-999.99"
"64dea86395482d0019b182b7","2023-08-17T23:08:19.324Z","ASNAP","admin","",,,,,,,,,,,,,,,,,,,,,,,,"PilotCam",,"BrowCam",,"UserSelect",,"SciCam",,"/PilotCam.20230817_230819324.jpg",,"/BrowCam.20230817_230819324.jpg",,"/UserSelect.20230817_230819324.jpg",,"/SciCam.20230817_230819324.jpg","meters","0.00","meters","0.66","deg","77.64","ddeg","44.5018108","meters","-1.08","meters","2.51","ddeg","-125.4085934","deg","0.2","deg","0.5","degC","18.38","degC","-999.99","degC","-999.99","degC","-999.99"
"64dea88195482d0019b182bb","2023-08-17T23:08:49.395Z","ASNAP","admin","",,,,,,,,,,,,,,,,,,,,,,,,"PilotCam",,"BrowCam",,"UserSelect",,"SciCam",,"/PilotCam.20230817_230849395.jpg",,"/BrowCam.20230817_230849395.jpg",,"/UserSelect.20230817_230849395.jpg",,"/SciCam.20230817_230849395.jpg","meters","0.00","meters","0.66","deg","122.05","ddeg","44.5018108","meters","-1.08","meters","2.51","ddeg","-125.4085934","deg","2.3","deg","-0.9","degC","18.40","degC","-999.99","degC","-999.99","degC","-999.99"
"64dea89f95482d0019b182bf","2023-08-17T23:09:19.448Z","ASNAP","admin","",,,,,,,,,,,,,,,,,,,,,,,,"PilotCam",,"BrowCam",,"UserSelect",,"SciCam",,"/PilotCam.20230817_230919448.jpg",,"/BrowCam.20230817_230919448.jpg",,"/UserSelect.20230817_230919448.jpg",,"/SciCam.20230817_230919448.jpg","meters","0.00","meters","0.66","deg","197.76","ddeg","44.5018108","meters","-1.08","meters","2.51","ddeg","-125.4085934","deg","2.7","deg","-1.3","degC","18.37","degC","-999.99","degC","-999.99","degC","-999.99"
"64dea8a095482d0019b182c2","2023-08-17T23:09:20.049Z","ROV Actions","guest","LJ01A","Latching to",,,,,,,,,,,,,,,,,,,,,,,"PilotCam",,"BrowCam",,"UserSelect",,"SciCam",,"/PilotCam.20230817_230920049.jpg",,"/BrowCam.20230817_230920049.jpg",,"/UserSelect.20230817_230920049.jpg",,"/SciCam.20230817_230920049.jpg","meters","0.00","meters","0.64","deg","197.65","ddeg","44.5018108","meters","-1.08","meters","2.51","ddeg","-125.4085934","deg","3.1","deg","-2.3","degC","18.37","degC","-999.99","degC","-999.99","degC","-999.99"
"64dea8bd95482d0019b182cb","2023-08-17T23:09:49.466Z","ASNAP","admin","",,,,,,,,,,,,,,,,,,,,,,,,"PilotCam",,"BrowCam",,"UserSelect",,"SciCam",,"/PilotCam.20230817_230949466.jpg",,"/BrowCam.20230817_230949466.jpg",,"/UserSelect.20230817_230949466.jpg",,"/SciCam.20230817_230949466.jpg","meters","0.00","meters","0.68","deg","197.49","ddeg","44.5018108","meters","-1.08","meters","2.51","ddeg","-125.4085934","deg","0.9","deg","2.6","degC","18.37","degC","-999.99","degC","-999.99","degC","-999.99"
"64dea8db95482d0019b182cf","2023-08-17T23:10:19.494Z","ASNAP","admin","",,,,,,,,,,,,,,,,,,,,,,,,"PilotCam",,"BrowCam",,"UserSelect",,"SciCam",,"/PilotCam.20230817_231019494.jpg",,"/BrowCam.20230817_231019494.jpg",,"/UserSelect.20230817_231019494.jpg",,"/SciCam.20230817_231019494.jpg","meters","0.00","meters","0.66","deg","198.51","ddeg","44.5018108","meters","-1.08","meters","2.51","ddeg","-125.4085934","deg","1.6","deg","0.4","degC","18.37","degC","-999.99","degC","-999.99","degC","-999.99"
"64dea8f995482d0019b182d3","2023-08-17T23:10:49.513Z","ASNAP","admin","",,,,,,,,,,,,,,,,,,,,,,,,"PilotCam",,"BrowCam",,"UserSelect",,"SciCam",,"/PilotCam.20230817_231049513.jpg",,"/BrowCam.20230817_231049513.jpg",,"/UserSelect.20230817_231049513.jpg",,"/SciCam.20230817_231049513.jpg","meters","0.00","meters","0.67","deg","199.10","ddeg","44.5018108","meters","-1.08","meters","2.51","ddeg","-125.4085934","deg","0.4","deg","-2.0","degC","18.32","degC","-999.99","degC","-999.99","degC","-999.99"
"64dea90c95482d0019b182d7","2023-08-17T23:11:08.373Z","VEHICLE","guest","",,,,,,"Jason in water",,,"meters","-324798.6","meters","16.845","deg","198.949","ddeg","44.51326342","ddeg","-125.38962867",,,,,,"PilotCam",,"BrowCam",,"UserSelect",,"SciCam",,"/PilotCam.20230817_231108373.jpg",,"/BrowCam.20230817_231108373.jpg",,"/UserSelect.20230817_231108373.jpg",,"/SciCam.20230817_231108373.jpg","meters","0.00","meters","0.69","deg","198.76","ddeg","44.5018108","meters","-1.08","meters","2.51","ddeg","-125.4085934","deg","-1.6","deg","2.5","degC","18.36","degC","-999.99","degC","-999.99","degC","-999.99"
"64dea91795482d0019b182db","2023-08-17T23:11:19.533Z","ASNAP","admin","",,,,,,,,,"meters","-323513.9","meters","16.845","deg","269.495","ddeg","44.51326342","ddeg","-125.38962867",,,,,,"PilotCam",,"BrowCam",,"UserSelect",,"SciCam",,"/PilotCam.20230817_231119533.jpg",,"/BrowCam.20230817_231119533.jpg",,"/UserSelect.20230817_231119533.jpg",,"/SciCam.20230817_231119533.jpg","meters","0.00","meters","2.68","deg","267.75","ddeg","44.5018108","meters","-1.08","meters","2.51","ddeg","-125.4085934","deg","-4.4","deg","0.7","degC","17.97","degC","-999.99","degC","-999.99","degC","-999.99"
"64dea93595482d0019b182df","2023-08-17T23:11:49.553Z","ASNAP","admin","",,,,,,,,,"meters","-320027.3","meters","16.845","deg","257.887","ddeg","44.51326342","ddeg","-125.38962867",,,,,,"PilotCam",,"BrowCam",,"UserSelect",,"SciCam",,"/PilotCam.20230817_231149553.jpg",,"/BrowCam.20230817_231149553.jpg",,"/UserSelect.20230817_231149553.jpg",,"/SciCam.20230817_231149553.jpg","meters","0.00","meters","9.01","deg","257.90","ddeg","44.5018108","meters","-1.08","meters","2.51","ddeg","-125.4085934","deg","1.8","deg","-4.1","degC","17.82","degC","-999.99","degC","-999.99","degC","-999.99"
"64dea95395482d0019b182e3","2023-08-17T23:12:19.599Z","ASNAP","admin","",,,,,,,,,"meters","-316565.9","meters","16.845","deg","258.925","ddeg","44.51326342","ddeg","-125.38962867",,,,,,"PilotCam",,"BrowCam",,"UserSelect",,"SciCam",,"/PilotCam.20230817_231219599.jpg",,"/BrowCam.20230817_231219599.jpg",,"/UserSelect.20230817_231219599.jpg",,"/SciCam.20230817_231219599.jpg","meters","0.00","meters","16.13","deg","258.90","ddeg","44.5018108","meters","-1.08","meters","2.51","ddeg","-125.4085934","deg","0.1","deg","-1.9","degC","16.59","degC","-999.99","degC","-999.99","degC","-999.99"
"64dea95e95482d0019b182e7","2023-08-17T23:12:30.324Z","FREE_FORM","guest","turning on CTD",,,,,,,,,"meters","-315303.0","meters","18.357","deg","257.993","ddeg","44.51326947","ddeg","-125.38962820",,,,,,"PilotCam",,"BrowCam",,"UserSelect",,"SciCam",,"/PilotCam.20230817_231230324.jpg",,"/BrowCam.20230817_231230324.jpg",,"/UserSelect.20230817_231230324.jpg",,"/SciCam.20230817_231230324.jpg","meters","0.00","meters","19.13","deg","257.99","ddeg","44.5018108","meters","-1.08","meters","2.51","ddeg","-125.4085934","deg","1.1","deg","-2.9","degC","16.05","degC","-999.99","degC","-999.99","degC","-999.99"
"64dea97195482d0019b182eb","2023-08-17T23:12:49.645Z","ASNAP","admin","",,,,,,,,,"meters","-313129.6","meters","21.103","deg","260.066","ddeg","44.51327704","ddeg","-125.38962049",,,,,,"PilotCam",,"BrowCam",,"UserSelect",,"SciCam",,"/PilotCam.20230817_231249645.jpg",,"/BrowCam.20230817_231249645.jpg",,"/UserSelect.20230817_231249645.jpg",,"/SciCam.20230817_231249645.jpg","meters","0.00","meters","20.44","deg","260.15","ddeg","44.5018108","meters","-1.08","meters","2.51","ddeg","-125.4085934","deg","-0.7","deg","-2.1","degC","14.90","degC","-999.99","degC","-999.99","degC","-999.99"
"64dea98f95482d0019b182ef","2023-08-17T23:13:19.662Z","ASNAP","admin","",,,,,,,,,"meters","-309718.2","meters","21.237","deg","258.846","ddeg","44.51326840","ddeg","-125.38960190",,,,,,"PilotCam",,"BrowCam",,"UserSelect",,"SciCam",,"/PilotCam.20230817_231319662.jpg",,"/BrowCam.20230817_231319662.jpg",,"/UserSelect.20230817_231319662.jpg",,"/SciCam.20230817_231319662.jpg","meters","0.00","meters","21.55","deg","258.88","ddeg","44.5018108","meters","-1.08","meters","2.51","ddeg","-125.4085934","deg","0.1","deg","-5.1","degC","13.81","degC","-999.99","degC","-999.99","degC","-999.99"
"64dea9ad95482d0019b182f3","2023-08-17T23:13:49.706Z","ASNAP","admin","",,,,,,,,,"meters","-306331.6","meters","21.773","deg","256.524","ddeg","44.51324325","ddeg","-125.38957718",,,,,,"PilotCam",,"BrowCam",,"UserSelect",,"SciCam",,"/PilotCam.20230817_231349706.jpg",,"/BrowCam.20230817_231349706.jpg",,"/UserSelect.20230817_231349706.jpg",,"/SciCam.20230817_231349706.jpg","meters","0.00","meters","21.75","deg","256.57","ddeg","44.5018108","meters","-1.08","meters","2.51","ddeg","-125.4085934","deg","0.5","deg","-4.0","degC","13.24","degC","-999.99","degC","-999.99","degC","-999.99"
"64dea9b395482d0019b182f7","2023-08-17T23:13:55.325Z","ROV Actions","guest","first football on
","First Football on",,,,,,,,"meters","-305657.3","meters","22.110","deg","256.932","ddeg","44.51323697","ddeg","-125.38956855",,,,,,"PilotCam",,"BrowCam",,"UserSelect",,"SciCam",,"/PilotCam.20230817_231355325.jpg",,"/BrowCam.20230817_231355325.jpg",,"/UserSelect.20230817_231355325.jpg",,"/SciCam.20230817_231355325.jpg","meters","0.00","meters","21.76","deg","256.91","ddeg","44.5018108","meters","-1.08","meters","2.51","ddeg","-125.4085934","deg","-0.4","deg","-2.1","degC","13.43","degC","-999.99","degC","-999.99","degC","-999.99"
"64dea9cb95482d0019b182fb","2023-08-17T23:14:19.751Z","ASNAP","admin","",,,,,,,,,"meters","-302969.9","meters","24.098","deg","257.812","ddeg","44.51322052","ddeg","-125.38955191",,,,,,"PilotCam",,"BrowCam",,"UserSelect",,"SciCam",,"/PilotCam.20230817_231419751.jpg",,"/BrowCam.20230817_231419751.jpg",,"/UserSelect.20230817_231419751.jpg",,"/SciCam.20230817_231419751.jpg","meters","0.00","meters","24.22","deg","257.81","ddeg","44.5018108","meters","-1.08","meters","2.51","ddeg","-125.4085934","deg","-1.1","deg","-2.9","degC","13.21","degC","-999.99","degC","-999.99","degC","-999.99"
"64dea9e995482d0019b182ff","2023-08-17T23:14:49.768Z","ASNAP","admin","",,,,,,,,,"meters","-299632.8","meters","25.491","deg","256.032","ddeg","44.51322394","ddeg","-125.38958670",,,,,,"PilotCam",,"BrowCam",,"UserSelect",,"SciCam",,"/PilotCam.20230817_231449768.jpg",,"/BrowCam.20230817_231449768.jpg",,"/UserSelect.20230817_231449768.jpg",,"/SciCam.20230817_231449768.jpg","meters","0.00","meters","25.11","deg","256.02","ddeg","44.5018108","meters","-1.08","meters","2.51","ddeg","-125.4085934","deg","-3.2","deg","-0.0","degC","12.70","degC","-999.99","degC","-999.99","degC","-999.99"
"64deaa0795482d0019b18303","2023-08-17T23:15:19.813Z","ASNAP","admin","",,,,,,,,,"meters","-296320.3","meters","25.996","deg","258.880","ddeg","44.51324371","ddeg","-125.38959148",,,,,,"PilotCam",,"BrowCam",,"UserSelect",,"SciCam",,"/PilotCam.20230817_231519813.jpg",,"/BrowCam.20230817_231519813.jpg",,"/UserSelect.20230817_231519813.jpg",,"/SciCam.20230817_231519813.jpg","meters","0.00","meters","25.42","deg","258.78","ddeg","44.5018108","meters","-1.08","meters","2.51","ddeg","-125.4085934","deg","-0.9","deg","0.1","degC","12.00","degC","-999.99","degC","-999.99","degC","-999.99"
"64deaa2595482d0019b18307","2023-08-17T23:15:49.856Z","ASNAP","admin","",,,,,,,,,"meters","-293032.4","meters","28.125","deg","262.108","ddeg","44.51325919","ddeg","-125.38958598",,,,,,"PilotCam",,"BrowCam",,"UserSelect",,"SciCam",,"/PilotCam.20230817_231549856.jpg",,"/BrowCam.20230817_231549856.jpg",,"/UserSelect.20230817_231549856.jpg",,"/SciCam.20230817_231549856.jpg","meters","0.00","meters","27.85","deg","262.12","ddeg","44.5018108","meters","-1.08","meters","2.51","ddeg","-125.4085934","deg","-2.4","deg","-0.6","degC","11.50","degC","-999.99","degC","-999.99","degC","-999.99"
"64deaa4395482d0019b1830b","2023-08-17T23:16:19.881Z","ASNAP","admin","",,,,,,,,,"meters","-289768.8","meters","29.926","deg","262.176","ddeg","44.51325897","ddeg","-125.38959427",,,,,,"PilotCam",,"BrowCam",,"UserSelect",,"SciCam",,"/PilotCam.20230817_231619881.jpg",,"/BrowCam.20230817_231619881.jpg",,"/UserSelect.20230817_231619881.jpg",,"/SciCam.20230817_231619881.jpg","meters","0.00","meters","29.81","deg","262.19","ddeg","44.5018108","meters","-1.08","meters","2.51","ddeg","-125.4085934","deg","3.3","deg","-8.5","degC","11.28","degC","-999.99","degC","-999.99","degC","-999.99"
"64deaa6195482d0019b1830f","2023-08-17T23:16:49.925Z","ASNAP","admin","",,,,,,,,,"meters","-286529.6","meters","30.271","deg","263.680","ddeg","44.51324708","ddeg","-125.38959191",,,,,,"PilotCam",,"BrowCam",,"UserSelect",,"SciCam",,"/PilotCam.20230817_231649925.jpg",,"/BrowCam.20230817_231649925.jpg",,"/UserSelect.20230817_231649925.jpg",,"/SciCam.20230817_231649925.jpg","meters","0.00","meters","29.94","deg","263.78","ddeg","44.5018108","meters","-1.08","meters","2.51","ddeg","-125.4085934","deg","-0.4","deg","-1.8","degC","11.38","degC","-999.99","degC","-999.99","degC","-999.99"
"64deaa7f95482d0019b18313","2023-08-17T23:17:19.968Z","ASNAP","admin","",,,,,,,,,"meters","-283314.6","meters","31.985","deg","258.991","ddeg","44.51322838","ddeg","-125.38960411",,,,,,"PilotCam",,"BrowCam",,"UserSelect",,"SciCam",,"/PilotCam.20230817_231719968.jpg",,"/BrowCam.20230817_231719968.jpg",,"/UserSelect.20230817_231719968.jpg",,"/SciCam.20230817_231719968.jpg","meters","0.00","meters","31.85","deg","259.67","ddeg","44.5018108","meters","-1.08","meters","2.51","ddeg","-125.4085934","deg","-0.7","deg","-0.4","degC","10.95","degC","-999.99","degC","-999.99","degC","-999.99"
"64deaa9e95482d0019b18317","2023-08-17T23:17:50.013Z","ASNAP","admin","",,,,,,,,,"meters","-280017.8","meters","32.686","deg","259.853","ddeg","44.51322656","ddeg","-125.38962093",,,,,,"PilotCam",,"BrowCam",,"UserSelect",,"SciCam",,"/PilotCam.20230817_231750013.jpg",,"/BrowCam.20230817_231750013.jpg",,"/UserSelect.20230817_231750013.jpg",,"/SciCam.20230817_231750013.jpg","meters","0.00","meters","32.67","deg","259.76","ddeg","44.5018108","meters","-1.08","meters","2.51","ddeg","-125.4085934","deg","-1.0","deg","0.5","degC","10.82","degC","-999.99","degC","-999.99","degC","-999.99"
"64deaabc95482d0019b1831b","2023-08-17T23:18:20.083Z","ASNAP","admin","",,,,,,,,,"meters","-276851.7","meters","35.504","deg","256.416","ddeg","44.51324362","ddeg","-125.38962400",,,,,,"PilotCam",,"BrowCam",,"UserSelect",,"SciCam",,"/PilotCam.20230817_231820083.jpg",,"/BrowCam.20230817_231820083.jpg",,"/UserSelect.20230817_231820083.jpg",,"/SciCam.20230817_231820083.jpg","meters","0.00","meters","35.93","deg","256.43","ddeg","44.5018108","meters","-1.08","meters","2.51","ddeg","-125.4085934","deg","-0.2","deg","-1.7","degC","10.38","degC","-999.99","degC","-999.99","degC","-999.99"
"64deaada95482d0019b1831f","2023-08-17T23:18:50.117Z","ASNAP","admin","",,,,,,,,,"meters","-273709.7","meters","37.398","deg","257.290","ddeg","44.51324204","ddeg","-125.38960635",,,,,,"PilotCam",,"BrowCam",,"UserSelect",,"SciCam",,"/PilotCam.20230817_231850117.jpg",,"/BrowCam.20230817_231850117.jpg",,"/UserSelect.20230817_231850117.jpg",,"/SciCam.20230817_231850117.jpg","meters","0.00","meters","37.45","deg","257.33","ddeg","44.5018108","meters","-1.08","meters","2.51","ddeg","-125.4085934","deg","4.0","deg","-2.0","degC","10.15","degC","-999.99","degC","-999.99","degC","-999.99"
"64deaaf895482d0019b18323","2023-08-17T23:19:20.172Z","ASNAP","admin","",,,,,,,,,"meters","-270591.5","meters","39.485","deg","258.145","ddeg","44.51322915","ddeg","-125.38960605",,,,,,"PilotCam",,"BrowCam",,"UserSelect",,"SciCam",,"/PilotCam.20230817_231920172.jpg",,"/BrowCam.20230817_231920172.jpg",,"/UserSelect.20230817_231920172.jpg",,"/SciCam.20230817_231920172.jpg","meters","0.00","meters","39.69","deg","258.22","ddeg","44.5018108","meters","-1.08","meters","2.51","ddeg","-125.4085934","deg","5.2","deg","-2.2","degC","9.95","degC","-999.99","degC","-999.99","degC","-999.99"
"64deab1695482d0019b18327","2023-08-17T23:19:50.225Z","ASNAP","admin","",,,,,,,,,"meters","-267497.0","meters","41.144","deg","256.002","ddeg","44.51322392","ddeg","-125.38962009",,,,,,"PilotCam",,"BrowCam",,"UserSelect",,"SciCam",,"/PilotCam.20230817_231950225.jpg",,"/BrowCam.20230817_231950225.jpg",,"/UserSelect.20230817_231950225.jpg",,"/SciCam.20230817_231950225.jpg","meters","0.00","meters","41.28","deg","256.06","ddeg","44.5018108","meters","-1.08","meters","2.51","ddeg","-125.4085934","deg","6.2","deg","-2.4","degC","9.99","degC","-999.99","degC","-999.99","degC","-999.99"
"64deab3495482d0019b1832b","2023-08-17T23:20:20.295Z","ASNAP","admin","",,,,,,,,,"meters","-264426.3","meters","42.814","deg","258.082","ddeg","44.51322256","ddeg","-125.38961103",,,,,,"PilotCam",,"BrowCam",,"UserSelect",,"SciCam",,"/PilotCam.20230817_232020295.jpg",,"/BrowCam.20230817_232020295.jpg",,"/UserSelect.20230817_232020295.jpg",,"/SciCam.20230817_232020295.jpg","meters","0.00","meters","42.57","deg","258.07","ddeg","44.5018108","meters","-1.08","meters","2.51","ddeg","-125.4085934","deg","2.7","deg","-1.6","degC","9.75","degC","-999.99","degC","-999.99","degC","-999.99"
"64deab5295482d0019b1832f","2023-08-17T23:20:50.352Z","ASNAP","admin","",,,,,,,,,"meters","-261379.1","meters","44.398","deg","257.794","ddeg","44.51322496","ddeg","-125.38961546",,,,,,"PilotCam",,"BrowCam",,"UserSelect",,"SciCam",,"/PilotCam.20230817_232050352.jpg",,"/BrowCam.20230817_232050352.jpg",,"/UserSelect.20230817_232050352.jpg",,"/SciCam.20230817_232050352.jpg","meters","0.00","meters","44.34","deg","257.77","ddeg","44.5018108","meters","-1.08","meters","2.51","ddeg","-125.4085934","deg","1.5","deg","-1.1","degC","9.52","degC","-999.99","degC","-999.99","degC","-999.99"
"64deab7095482d0019b18333","2023-08-17T23:21:20.397Z","ASNAP","admin","",,,,,,,,,"meters","-258355.5","meters","45.379","deg","259.016","ddeg","44.51323846","ddeg","-125.38962980",,,,,,"PilotCam",,"BrowCam",,"UserSelect",,"SciCam",,"/PilotCam.20230817_232120397.jpg",,"/BrowCam.20230817_232120397.jpg",,"/UserSelect.20230817_232120397.jpg",,"/SciCam.20230817_232120397.jpg","meters","0.00","meters","44.83","deg","258.97","ddeg","44.5018108","meters","-1.08","meters","2.51","ddeg","-125.4085934","deg","0.7","deg","-0.8","degC","9.50","degC","-999.99","degC","-999.99","degC","-999.99"
"64deab8e95482d0019b18337","2023-08-17T23:21:50.443Z","ASNAP","admin","",,,,,,,,,"meters","-255355.2","meters","45.318","deg","258.533","ddeg","44.51325242","ddeg","-125.38962724",,,,,,"PilotCam",,"BrowCam",,"UserSelect",,"SciCam",,"/PilotCam.20230817_232150443.jpg",,"/BrowCam.20230817_232150443.jpg",,"/UserSelect.20230817_232150443.jpg",,"/SciCam.20230817_232150443.jpg","meters","0.00","meters","45.34","deg","258.58","ddeg","44.5018108","meters","-1.08","meters","2.51","ddeg","-125.4085934","deg","0.1","deg","-2.3","degC","9.53","degC","-999.99","degC","-999.99","degC","-999.99"
