"id","ts","event_value","event_author","event_free_text","event_option.actions","event_option.event_comment","event_option.filename","event_option.highlights","event_option.milestone","event_option.new_watchstander","event_option.type","vehicleReNavData.altitude_uom","vehicleReNavData.altitude_value","vehicleReNavData.depth_uom","vehicleReNavData.depth_value","vehicleReNavData.heading_uom","vehicleReNavData.heading_value","vehicleReNavData.latitude_uom","vehicleReNavData.latitude_value","vehicleReNavData.longitude_uom","vehicleReNavData.longitude_value","vehicleReNavData.pitch_uom","vehicleReNavData.pitch_value","vehicleReNavData.roll_uom","vehicleReNavData.roll_value","vehicleRealtimeFramegrabberData.camera_name_2_uom","vehicleRealtimeFramegrabberData.camera_name_2_value","vehicleRealtimeFramegrabberData.camera_name_3_uom","vehicleRealtimeFramegrabberData.camera_name_3_value","vehicleRealtimeFramegrabberData.camera_name_4_uom","vehicleRealtimeFramegrabberData.camera_name_4_value","vehicleRealtimeFramegrabberData.camera_name_uom","vehicleRealtimeFramegrabberData.camera_name_value","vehicleRealtimeFramegrabberData.filename_2_uom","vehicleRealtimeFramegrabberData.filename_2_value","vehicleRealtimeFramegrabberData.filename_3_uom","vehicleRealtimeFramegrabberData.filename_3_value","vehicleRealtimeFramegrabberData.filename_4_uom","vehicleRealtimeFramegrabberData.filename_4_value","vehicleRealtimeFramegrabberData.filename_uom","vehicleRealtimeFramegrabberData.filename_value","vehicleRealtimeNavData.altitude_uom","vehicleRealtimeNavData.altitude_value","vehicleRealtimeNavData.depth_uom","vehicleRealtimeNavData.depth_value","vehicleRealtimeNavData.heading_uom","vehicleRealtimeNavData.heading_value","vehicleRealtimeNavData.latitude_uom","vehicleRealtimeNavData.latitude_value","vehicleRealtimeNavData.local_x_uom","vehicleRealtimeNavData.local_x_value","vehicleRealtimeNavData.local_y_uom","vehicleRealtimeNavData.local_y_value","vehicleRealtimeNavData.longitude_uom","vehicleRealtimeNavData.longitude_value","vehicleRealtimeNavData.pitch_uom","vehicleRealtimeNavData.pitch_value","vehicleRealtimeNavData.roll_uom","vehicleRealtimeNavData.roll_value","vehicleTemperatureProbe.probe1_temperature_uom","vehicleTemperatureProbe.probe1_temperature_value","vehicleTemperatureProbe.probe2_temperature_uom","vehicleTemperatureProbe.probe2_temperature_value","vehicleTemperatureProbe.probe3_temperature_uom","vehicleTemperatureProbe.probe3_temperature_value","vehicleTemperatureProbe.probe4_temperature_uom","vehicleTemperatureProbe.probe4_temperature_value"
"64ecf2eb95482d0019b29906","2023-08-28T19:18:03.630Z","ASNAP","admin","",,,,,,,,,,,,,,,,,,,,,,,"PilotCam",,"BrowCam",,"UserSelect",,"SciCam",,"/PilotCam.20230828_191803630.jpg",,"/BrowCam.20230828_191803630.jpg",,"/UserSelect.20230828_191803630.jpg",,"/SciCam.20230828_191803630.jpg","meters","0.00","meters","0.68","deg","91.16","ddeg","44.3597301","meters","1.24","meters","2.33","ddeg","-124.9645352","deg","0.1","deg","-1.5","degC","16.76","degC","-999.99","degC","-999.99","degC","-999.99"
"64ecf30995482d0019b2990a","2023-08-28T19:18:33.672Z","ASNAP","admin","",,,,,,,,,,,,,,,,,,,,,,,"PilotCam",,"BrowCam",,"UserSelect",,"SciCam",,"/PilotCam.20230828_191833672.jpg",,"/BrowCam.20230828_191833672.jpg",,"/UserSelect.20230828_191833672.jpg",,"/SciCam.20230828_191833672.jpg","meters","0.00","meters","0.68","deg","91.01","ddeg","44.3597301","meters","1.24","meters","2.33","ddeg","-124.9645352","deg","-0.2","deg","-1.0","degC","16.73","degC","-999.99","degC","-999.99","degC","-999.99"
"64ecf32795482d0019b2990e","2023-08-28T19:19:03.717Z","ASNAP","admin","",,,,,,,,,,,,,,,,,,,,,,,"PilotCam",,"BrowCam",,"UserSelect",,"SciCam",,"/PilotCam.20230828_191903717.jpg",,"/BrowCam.20230828_191903717.jpg",,"/UserSelect.20230828_191903717.jpg",,"/SciCam.20230828_191903717.jpg","meters","0.00","meters","0.69","deg","90.92","ddeg","44.3597301","meters","1.24","meters","2.33","ddeg","-124.9645352","deg","-0.2","deg","-0.3","degC","16.70","degC","-999.99","degC","-999.99","degC","-999.99"
"64ecf34595482d0019b29912","2023-08-28T19:19:33.748Z","ASNAP","admin","",,,,,,,,,,,,,,,,,,,,,,,"PilotCam",,"BrowCam",,"UserSelect",,"SciCam",,"/PilotCam.20230828_191933748.jpg",,"/BrowCam.20230828_191933748.jpg",,"/UserSelect.20230828_191933748.jpg",,"/SciCam.20230828_191933748.jpg","meters","0.00","meters","0.69","deg","91.00","ddeg","44.3597301","meters","1.24","meters","2.33","ddeg","-124.9645352","deg","-0.3","deg","-1.6","degC","16.69","degC","-999.99","degC","-999.99","degC","-999.99"
"64ecf36395482d0019b29916","2023-08-28T19:20:03.795Z","ASNAP","admin","",,,,,,,,,,,,,,,,,,,,,,,"PilotCam",,"BrowCam",,"UserSelect",,"SciCam",,"/PilotCam.20230828_192003795.jpg",,"/BrowCam.20230828_192003795.jpg",,"/UserSelect.20230828_192003795.jpg",,"/SciCam.20230828_192003795.jpg","meters","0.00","meters","0.69","deg","90.91","ddeg","44.3597301","meters","1.24","meters","2.33","ddeg","-124.9645352","deg","0.1","deg","-1.8","degC","16.65","degC","-999.99","degC","-999.99","degC","-999.99"
"64ecf38195482d0019b2991a","2023-08-28T19:20:33.839Z","ASNAP","admin","",,,,,,,,,,,,,,,,,,,,,,,"PilotCam",,"BrowCam",,"UserSelect",,"SciCam",,"/PilotCam.20230828_192033839.jpg",,"/BrowCam.20230828_192033839.jpg",,"/UserSelect.20230828_192033839.jpg",,"/SciCam.20230828_192033839.jpg","meters","0.00","meters","0.70","deg","90.57","ddeg","44.3597301","meters","1.24","meters","2.33","ddeg","-124.9645352","deg","-0.0","deg","-1.3","degC","16.64","degC","-999.99","degC","-999.99","degC","-999.99"
"64ecf39f95482d0019b2991e","2023-08-28T19:21:03.883Z","ASNAP","admin","",,,,,,,,,,,,,,,,,,,,,,,"PilotCam",,"BrowCam",,"UserSelect",,"SciCam",,"/PilotCam.20230828_192103883.jpg",,"/BrowCam.20230828_192103883.jpg",,"/UserSelect.20230828_192103883.jpg",,"/SciCam.20230828_192103883.jpg","meters","0.00","meters","0.69","deg","90.98","ddeg","44.3597301","meters","1.24","meters","2.33","ddeg","-124.9645352","deg","0.0","deg","-1.3","degC","16.61","degC","-999.99","degC","-999.99","degC","-999.99"
"64ecf3bd95482d0019b29922","2023-08-28T19:21:33.903Z","ASNAP","admin","",,,,,,,,,,,,,,,,,,,,,,,"PilotCam",,"BrowCam",,"UserSelect",,"SciCam",,"/PilotCam.20230828_192133903.jpg",,"/BrowCam.20230828_192133903.jpg",,"/UserSelect.20230828_192133903.jpg",,"/SciCam.20230828_192133903.jpg","meters","0.00","meters","0.70","deg","90.85","ddeg","44.3597301","meters","1.24","meters","2.33","ddeg","-124.9645352","deg","-0.0","deg","-1.1","degC","16.60","degC","-999.99","degC","-999.99","degC","-999.99"
"64ecf3db95482d0019b29926","2023-08-28T19:22:03.931Z","ASNAP","admin","",,,,,,,,,,,,,,,,,,,,,,,"PilotCam",,"BrowCam",,"UserSelect",,"SciCam",,"/PilotCam.20230828_192203931.jpg",,"/BrowCam.20230828_192203931.jpg",,"/UserSelect.20230828_192203931.jpg",,"/SciCam.20230828_192203931.jpg","meters","0.00","meters","0.70","deg","90.97","ddeg","44.3597301","meters","1.24","meters","2.33","ddeg","-124.9645352","deg","0.0","deg","-1.3","degC","16.59","degC","-999.99","degC","-999.99","degC","-999.99"
"64ecf3f995482d0019b2992a","2023-08-28T19:22:33.976Z","ASNAP","admin","",,,,,,,,,,,,,,,,,,,,,,,"PilotCam",,"BrowCam",,"UserSelect",,"SciCam",,"/PilotCam.20230828_192233976.jpg",,"/BrowCam.20230828_192233976.jpg",,"/UserSelect.20230828_192233976.jpg",,"/SciCam.20230828_192233976.jpg","meters","0.00","meters","0.69","deg","54.63","ddeg","44.3597301","meters","1.24","meters","2.33","ddeg","-124.9645352","deg","0.5","deg","-1.1","degC","16.56","degC","-999.99","degC","-999.99","degC","-999.99"
"64ecf41895482d0019b2992e","2023-08-28T19:23:04.022Z","ASNAP","admin","",,,,,,,,,,,,,,,,,,,,,,,"PilotCam",,"BrowCam",,"UserSelect",,"SciCam",,"/PilotCam.20230828_192304022.jpg",,"/BrowCam.20230828_192304022.jpg",,"/UserSelect.20230828_192304022.jpg",,"/SciCam.20230828_192304022.jpg","meters","0.00","meters","0.71","deg","356.55","ddeg","44.3597301","meters","1.24","meters","2.33","ddeg","-124.9645352","deg","-0.6","deg","-1.0","degC","16.56","degC","-999.99","degC","-999.99","degC","-999.99"
"64ecf43695482d0019b29932","2023-08-28T19:23:34.071Z","ASNAP","admin","",,,,,,,,,,,,,,,,,,,,,,,"PilotCam",,"BrowCam",,"UserSelect",,"SciCam",,"/PilotCam.20230828_192334071.jpg",,"/BrowCam.20230828_192334071.jpg",,"/UserSelect.20230828_192334071.jpg",,"/SciCam.20230828_192334071.jpg","meters","0.00","meters","0.71","deg","351.71","ddeg","44.3597301","meters","1.24","meters","2.33","ddeg","-124.9645352","deg","-0.0","deg","-0.7","degC","16.60","degC","-999.99","degC","-999.99","degC","-999.99"
"64ecf45495482d0019b29936","2023-08-28T19:24:04.120Z","ASNAP","admin","",,,,,,,,,,,,,,,,,,,,,,,"PilotCam",,"BrowCam",,"UserSelect",,"SciCam",,"/PilotCam.20230828_192404120.jpg",,"/BrowCam.20230828_192404120.jpg",,"/UserSelect.20230828_192404120.jpg",,"/SciCam.20230828_192404120.jpg","meters","0.00","meters","0.71","deg","2.31","ddeg","44.3597301","meters","1.24","meters","2.33","ddeg","-124.9645352","deg","-0.8","deg","-0.8","degC","16.64","degC","-999.99","degC","-999.99","degC","-999.99"
"64ecf47295482d0019b2993a","2023-08-28T19:24:34.150Z","ASNAP","admin","",,,,,,,,,,,,,,,,,,,,,,,"PilotCam",,"BrowCam",,"UserSelect",,"SciCam",,"/PilotCam.20230828_192434150.jpg",,"/BrowCam.20230828_192434150.jpg",,"/UserSelect.20230828_192434150.jpg",,"/SciCam.20230828_192434150.jpg","meters","0.00","meters","0.72","deg","359.42","ddeg","44.3597301","meters","1.24","meters","2.33","ddeg","-124.9645352","deg","-1.1","deg","-0.9","degC","16.67","degC","-999.99","degC","-999.99","degC","-999.99"
"64ecf48a95482d0019b2993e","2023-08-28T19:24:58.143Z","ROV Actions","guest","new BEP on deck","Latching to",,,,,,,,,,,,,,,,,,,,,,"PilotCam",,"BrowCam",,"UserSelect",,"SciCam",,"/PilotCam.20230828_192458143.jpg",,"/BrowCam.20230828_192458143.jpg",,"/UserSelect.20230828_192458143.jpg",,"/SciCam.20230828_192458143.jpg","meters","0.00","meters","0.72","deg","358.93","ddeg","44.3597301","meters","1.24","meters","2.33","ddeg","-124.9645352","deg","-1.2","deg","-0.3","degC","16.69","degC","-999.99","degC","-999.99","degC","-999.99"
"64ecf49095482d0019b29942","2023-08-28T19:25:04.193Z","ASNAP","admin","",,,,,,,,,,,,,,,,,,,,,,,"PilotCam",,"BrowCam",,"UserSelect",,"SciCam",,"/PilotCam.20230828_192504193.jpg",,"/BrowCam.20230828_192504193.jpg",,"/UserSelect.20230828_192504193.jpg",,"/SciCam.20230828_192504193.jpg","meters","0.00","meters","0.72","deg","359.10","ddeg","44.3597301","meters","1.24","meters","2.33","ddeg","-124.9645352","deg","-0.8","deg","-0.2","degC","16.69","degC","-999.99","degC","-999.99","degC","-999.99"
"64ecf4ae95482d0019b29946","2023-08-28T19:25:34.235Z","ASNAP","admin","",,,,,,,,,,,,,,,,,,,,,,,"PilotCam",,"BrowCam",,"UserSelect",,"SciCam",,"/PilotCam.20230828_192534235.jpg",,"/BrowCam.20230828_192534235.jpg",,"/UserSelect.20230828_192534235.jpg",,"/SciCam.20230828_192534235.jpg","meters","0.00","meters","0.71","deg","359.11","ddeg","44.3597301","meters","1.24","meters","2.33","ddeg","-124.9645352","deg","-0.8","deg","0.1","degC","16.73","degC","-999.99","degC","-999.99","degC","-999.99"
"64ecf4cc95482d0019b2994a","2023-08-28T19:26:04.292Z","ASNAP","admin","",,,,,,,,,,,,,,,,,,,,,,,"PilotCam",,"BrowCam",,"UserSelect",,"SciCam",,"/PilotCam.20230828_192604292.jpg",,"/BrowCam.20230828_192604292.jpg",,"/UserSelect.20230828_192604292.jpg",,"/SciCam.20230828_192604292.jpg","meters","0.00","meters","0.73","deg","359.02","ddeg","44.3597301","meters","1.24","meters","2.33","ddeg","-124.9645352","deg","-1.5","deg","-0.2","degC","16.78","degC","-999.99","degC","-999.99","degC","-999.99"
"64ecf4ea95482d0019b2994e","2023-08-28T19:26:34.327Z","ASNAP","admin","",,,,,,,,,,,,,,,,,,,,,,,"PilotCam",,"BrowCam",,"UserSelect",,"SciCam",,"/PilotCam.20230828_192634327.jpg",,"/BrowCam.20230828_192634327.jpg",,"/UserSelect.20230828_192634327.jpg",,"/SciCam.20230828_192634327.jpg","meters","0.00","meters","0.72","deg","359.26","ddeg","44.3597301","meters","1.24","meters","2.33","ddeg","-124.9645352","deg","-0.6","deg","-1.4","degC","16.80","degC","-999.99","degC","-999.99","degC","-999.99"
"64ecf50895482d0019b29952","2023-08-28T19:27:04.347Z","ASNAP","admin","",,,,,,,,,,,,,,,,,,,,,,,"PilotCam",,"BrowCam",,"UserSelect",,"SciCam",,"/PilotCam.20230828_192704347.jpg",,"/BrowCam.20230828_192704347.jpg",,"/UserSelect.20230828_192704347.jpg",,"/SciCam.20230828_192704347.jpg","meters","0.00","meters","0.71","deg","72.60","ddeg","44.3597301","meters","1.24","meters","2.33","ddeg","-124.9645352","deg","-0.1","deg","-0.9","degC","16.82","degC","-999.99","degC","-999.99","degC","-999.99"
"64ecf52695482d0019b29956","2023-08-28T19:27:34.393Z","ASNAP","admin","",,,,,,,,,,,,,,,,,,,,,,,"PilotCam",,"BrowCam",,"UserSelect",,"SciCam",,"/PilotCam.20230828_192734393.jpg",,"/BrowCam.20230828_192734393.jpg",,"/UserSelect.20230828_192734393.jpg",,"/SciCam.20230828_192734393.jpg","meters","0.00","meters","0.71","deg","115.30","ddeg","44.3597301","meters","1.24","meters","2.33","ddeg","-124.9645352","deg","0.2","deg","-1.5","degC","16.83","degC","-999.99","degC","-999.99","degC","-999.99"
"64ecf54495482d0019b2995a","2023-08-28T19:28:04.463Z","ASNAP","admin","",,,,,,,,"meters","27202119.6","meters","16.865","deg","115.953","ddeg","44.36901158","ddeg","-124.95316785",,,,,,"PilotCam",,"BrowCam",,"UserSelect",,"SciCam",,"/PilotCam.20230828_192804463.jpg",,"/BrowCam.20230828_192804463.jpg",,"/UserSelect.20230828_192804463.jpg",,"/SciCam.20230828_192804463.jpg","meters","0.00","meters","0.72","deg","115.57","ddeg","44.3597301","meters","1.24","meters","2.33","ddeg","-124.9645352","deg","-0.3","deg","-1.4","degC","16.87","degC","-999.99","degC","-999.99","degC","-999.99"
"64ecf56295482d0019b2995e","2023-08-28T19:28:34.508Z","ASNAP","admin","",,,,,,,,"meters","26438539.4","meters","16.865","deg","103.601","ddeg","44.36901158","ddeg","-124.95316785",,,,,,"PilotCam",,"BrowCam",,"UserSelect",,"SciCam",,"/PilotCam.20230828_192834508.jpg",,"/BrowCam.20230828_192834508.jpg",,"/UserSelect.20230828_192834508.jpg",,"/SciCam.20230828_192834508.jpg","meters","0.00","meters","0.72","deg","103.78","ddeg","44.3597301","meters","1.24","meters","2.33","ddeg","-124.9645352","deg","0.7","deg","-2.9","degC","16.89","degC","-999.99","degC","-999.99","degC","-999.99"
"64ecf57395482d0019b29962","2023-08-28T19:28:51.602Z","VEHICLE","guest","",,,,,"Jason in water",,,"meters","26012255.8","meters","16.865","deg","142.741","ddeg","44.36901158","ddeg","-124.95316785",,,,,,"PilotCam",,"BrowCam",,"UserSelect",,"SciCam",,"/PilotCam.20230828_192851602.jpg",,"/BrowCam.20230828_192851602.jpg",,"/UserSelect.20230828_192851602.jpg",,"/SciCam.20230828_192851602.jpg","meters","0.00","meters","1.16","deg","141.61","ddeg","44.3597301","meters","1.24","meters","2.33","ddeg","-124.9645352","deg","-0.7","deg","-1.3","degC","16.95","degC","-999.99","degC","-999.99","degC","-999.99"
"64ecf58095482d0019b29966","2023-08-28T19:29:04.550Z","ASNAP","admin","",,,,,,,,"meters","25689384.0","meters","16.865","deg","184.518","ddeg","44.36901158","ddeg","-124.95316785",,,,,,"PilotCam",,"BrowCam",,"UserSelect",,"SciCam",,"/PilotCam.20230828_192904550.jpg",,"/BrowCam.20230828_192904550.jpg",,"/UserSelect.20230828_192904550.jpg",,"/SciCam.20230828_192904550.jpg","meters","0.00","meters","4.74","deg","184.77","ddeg","44.3597301","meters","1.24","meters","2.33","ddeg","-124.9645352","deg","0.2","deg","-1.5","degC","17.64","degC","-999.99","degC","-999.99","degC","-999.99"
"64ecf59e95482d0019b2996a","2023-08-28T19:29:34.579Z","ASNAP","admin","",,,,,,,,"meters","24954516.0","meters","16.865","deg","184.032","ddeg","44.36901158","ddeg","-124.95316785",,,,,,"PilotCam",,"BrowCam",,"UserSelect",,"SciCam",,"/PilotCam.20230828_192934579.jpg",,"/BrowCam.20230828_192934579.jpg",,"/UserSelect.20230828_192934579.jpg",,"/SciCam.20230828_192934579.jpg","meters","0.00","meters","14.58","deg","183.70","ddeg","44.3597301","meters","1.24","meters","2.33","ddeg","-124.9645352","deg","0.1","deg","-0.9","degC","17.98","degC","-999.99","degC","-999.99","degC","-999.99"
"64ecf5bc95482d0019b2996e","2023-08-28T19:30:04.626Z","ASNAP","admin","",,,,,,,,"meters","24233797.7","meters","23.710","deg","183.831","ddeg","44.36902022","ddeg","-124.95316368",,,,,,"PilotCam",,"BrowCam",,"UserSelect",,"SciCam",,"/PilotCam.20230828_193004626.jpg",,"/BrowCam.20230828_193004626.jpg",,"/UserSelect.20230828_193004626.jpg",,"/SciCam.20230828_193004626.jpg","meters","0.00","meters","23.74","deg","183.49","ddeg","44.3597301","meters","1.24","meters","2.33","ddeg","-124.9645352","deg","-1.4","deg","-1.1","degC","17.74","degC","-999.99","degC","-999.99","degC","-999.99"
"64ecf5da95482d0019b29976","2023-08-28T19:30:34.671Z","ASNAP","admin","",,,,,,,,"meters","23527091.5","meters","23.535","deg","181.703","ddeg","44.36903559","ddeg","-124.95312207",,,,,,"PilotCam",,"BrowCam",,"UserSelect",,"SciCam",,"/PilotCam.20230828_193034671.jpg",,"/BrowCam.20230828_193034671.jpg",,"/UserSelect.20230828_193034671.jpg",,"/SciCam.20230828_193034671.jpg","meters","0.00","meters","23.49","deg","181.51","ddeg","44.3597301","meters","1.24","meters","2.33","ddeg","-124.9645352","deg","-0.2","deg","-1.5","degC","17.26","degC","-999.99","degC","-999.99","degC","-999.99"
"64ecf5e995482d0019b2997a","2023-08-28T19:30:49.033Z","ROV Actions","guest","first football on","First Football on",,,,,,,"meters","23178950.0","meters","24.492","deg","182.829","ddeg","44.36904391","ddeg","-124.95310450",,,,,,"PilotCam",,"BrowCam",,"UserSelect",,"SciCam",,"/PilotCam.20230828_193049033.jpg",,"/BrowCam.20230828_193049033.jpg",,"/UserSelect.20230828_193049033.jpg",,"/SciCam.20230828_193049033.jpg","meters","0.00","meters","24.50","deg","182.55","ddeg","44.3597301","meters","1.24","meters","2.33","ddeg","-124.9645352","deg","-1.1","deg","0.0","degC","16.94","degC","-999.99","degC","-999.99","degC","-999.99"
"64ecf5f895482d0019b2997e","2023-08-28T19:31:04.687Z","ASNAP","admin","",,,,,,,,"meters","22834260.0","meters","25.314","deg","183.051","ddeg","44.36904871","ddeg","-124.95309654",,,,,,"PilotCam",,"BrowCam",,"UserSelect",,"SciCam",,"/PilotCam.20230828_193104687.jpg",,"/BrowCam.20230828_193104687.jpg",,"/UserSelect.20230828_193104687.jpg",,"/SciCam.20230828_193104687.jpg","meters","0.00","meters","25.33","deg","182.68","ddeg","44.3597301","meters","1.24","meters","2.33","ddeg","-124.9645352","deg","-0.7","deg","-0.3","degC","16.77","degC","-999.99","degC","-999.99","degC","-999.99"
"64ecf61695482d0019b29982","2023-08-28T19:31:34.707Z","ASNAP","admin","",,,,,,,,"meters","22155165.5","meters","26.989","deg","183.714","ddeg","44.36904682","ddeg","-124.95310277",,,,,,"PilotCam",,"BrowCam",,"UserSelect",,"SciCam",,"/PilotCam.20230828_193134707.jpg",,"/BrowCam.20230828_193134707.jpg",,"/UserSelect.20230828_193134707.jpg",,"/SciCam.20230828_193134707.jpg","meters","0.00","meters","26.99","deg","183.45","ddeg","5.3571007","meters","9477995.02","meters","-4333901.24","ddeg","-6.0770033","deg","0.1","deg","-1.0","degC","16.51","degC","-999.99","degC","-999.99","degC","-999.99"
"64ecf63495482d0019b29986","2023-08-28T19:32:04.744Z","ASNAP","admin","",,,,,,,,"meters","21489670.6","meters","29.600","deg","182.664","ddeg","44.36904319","ddeg","-124.95310554",,,,,,"PilotCam",,"BrowCam",,"UserSelect",,"SciCam",,"/PilotCam.20230828_193204744.jpg",,"/BrowCam.20230828_193204744.jpg",,"/UserSelect.20230828_193204744.jpg",,"/SciCam.20230828_193204744.jpg","meters","0.00","meters","29.80","deg","182.42","ddeg","5.3571007","meters","9477995.02","meters","-4333901.24","ddeg","-6.0770033","deg","-0.0","deg","-0.9","degC","16.20","degC","-999.99","degC","-999.99","degC","-999.99"
"64ecf65295482d0019b2998a","2023-08-28T19:32:34.787Z","ASNAP","admin","",,,,,,,,"meters","20837637.6","meters","31.749","deg","182.906","ddeg","44.36904060","ddeg","-124.95310821",,,,,,"PilotCam",,"BrowCam",,"UserSelect",,"SciCam",,"/PilotCam.20230828_193234787.jpg",,"/BrowCam.20230828_193234787.jpg",,"/UserSelect.20230828_193234787.jpg",,"/SciCam.20230828_193234787.jpg","meters","0.00","meters","31.85","deg","182.65","ddeg","5.3571007","meters","9477995.02","meters","-4333901.24","ddeg","-6.0770033","deg","-1.2","deg","-1.1","degC","14.82","degC","-999.99","degC","-999.99","degC","-999.99"
"64ecf65595482d0019b2998e","2023-08-28T19:32:37.039Z","WATCH_CHANGE","guest","",,,,,,"Alessia & Avery",,"meters","20773169.4","meters","31.991","deg","183.163","ddeg","44.36904037","ddeg","-124.95310840",,,,,,"PilotCam",,"BrowCam",,"UserSelect",,"SciCam",,"/PilotCam.20230828_193237039.jpg",,"/BrowCam.20230828_193237039.jpg",,"/UserSelect.20230828_193237039.jpg",,"/SciCam.20230828_193237039.jpg","meters","0.00","meters","32.21","deg","182.87","ddeg","5.3571007","meters","9477995.02","meters","-4333901.24","ddeg","-6.0770033","deg","0.3","deg","-1.2","degC","14.85","degC","-999.99","degC","-999.99","degC","-999.99"
"64ecf67095482d0019b29992","2023-08-28T19:33:04.805Z","ASNAP","admin","",,,,,,,,"meters","20198929.1","meters","34.419","deg","183.625","ddeg","44.36903912","ddeg","-124.95310575",,,,,,"PilotCam",,"BrowCam",,"UserSelect",,"SciCam",,"/PilotCam.20230828_193304805.jpg",,"/BrowCam.20230828_193304805.jpg",,"/UserSelect.20230828_193304805.jpg",,"/SciCam.20230828_193304805.jpg","meters","0.00","meters","34.53","deg","183.38","ddeg","5.3571007","meters","9477995.02","meters","-4333901.24","ddeg","-6.0770033","deg","-0.7","deg","-0.8","degC","14.01","degC","-999.99","degC","-999.99","degC","-999.99"
"64ecf68e95482d0019b29996","2023-08-28T19:33:34.825Z","ASNAP","admin","",,,,,,,,"meters","19573407.4","meters","37.514","deg","183.962","ddeg","44.36903929","ddeg","-124.95309629",,,,,,"PilotCam",,"BrowCam",,"UserSelect",,"SciCam",,"/PilotCam.20230828_193334825.jpg",,"/BrowCam.20230828_193334825.jpg",,"/UserSelect.20230828_193334825.jpg",,"/SciCam.20230828_193334825.jpg","meters","0.00","meters","37.58","deg","183.67","ddeg","5.3571007","meters","9477995.02","meters","-4333901.24","ddeg","-6.0770033","deg","0.0","deg","-0.1","degC","13.50","degC","-999.99","degC","-999.99","degC","-999.99"
"64ecf6ac95482d0019b2999a","2023-08-28T19:34:04.869Z","ASNAP","admin","",,,,,,,,"meters","18960935.0","meters","39.996","deg","182.835","ddeg","44.36903976","ddeg","-124.95308726",,,,,,"PilotCam",,"BrowCam",,"UserSelect",,"SciCam",,"/PilotCam.20230828_193404869.jpg",,"/BrowCam.20230828_193404869.jpg",,"/UserSelect.20230828_193404869.jpg",,"/SciCam.20230828_193404869.jpg","meters","0.00","meters","40.00","deg","182.65","ddeg","5.3571007","meters","9477995.02","meters","-4333901.24","ddeg","-6.0770033","deg","-0.3","deg","0.1","degC","13.13","degC","-999.99","degC","-999.99","degC","-999.99"
"64ecf6ca95482d0019b2999e","2023-08-28T19:34:34.888Z","ASNAP","admin","",,,,,,,,"meters","18361374.3","meters","42.720","deg","182.833","ddeg","44.36904027","ddeg","-124.95308016",,,,,,"PilotCam",,"BrowCam",,"UserSelect",,"SciCam",,"/PilotCam.20230828_193434888.jpg",,"/BrowCam.20230828_193434888.jpg",,"/UserSelect.20230828_193434888.jpg",,"/SciCam.20230828_193434888.jpg","meters","0.00","meters","42.75","deg","182.68","ddeg","5.3571096","meters","9477994.47","meters","-4333900.26","ddeg","-6.0770102","deg","-0.5","deg","0.4","degC","12.23","degC","-999.99","degC","-999.99","degC","-999.99"
"64ecf6df95482d0019b299a2","2023-08-28T19:34:55.256Z","Biology Type","guest","",,,,,,,"Jelly","meters","17949290.7","meters","44.522","deg","182.295","ddeg","44.36904036","ddeg","-124.95307596",,,,,,"PilotCam",,"BrowCam",,"UserSelect",,"SciCam",,"/PilotCam.20230828_193455256.jpg",,"/BrowCam.20230828_193455256.jpg",,"/UserSelect.20230828_193455256.jpg",,"/SciCam.20230828_193455256.jpg","meters","0.00","meters","44.59","deg","182.09","ddeg","-2.7905171","meters","10119265.15","meters","-5239250.20","ddeg","1.9667900","deg","-0.8","deg","0.6","degC","11.92","degC","-999.99","degC","-999.99","degC","-999.99"
"64ecf6e895482d0019b299a6","2023-08-28T19:35:04.933Z","ASNAP","admin","",,,,,,,,"meters","17774587.8","meters","45.179","deg","182.067","ddeg","44.36903986","ddeg","-124.95307503",,,,,,"PilotCam",,"BrowCam",,"UserSelect",,"SciCam",,"/PilotCam.20230828_193504933.jpg",,"/BrowCam.20230828_193504933.jpg",,"/UserSelect.20230828_193504933.jpg",,"/SciCam.20230828_193504933.jpg","meters","0.00","meters","45.35","deg","181.94","ddeg","-2.7905171","meters","10119265.15","meters","-5239250.20","ddeg","1.9667900","deg","-0.6","deg","0.6","degC","11.69","degC","-999.99","degC","-999.99","degC","-999.99"
"64ecf70695482d0019b299aa","2023-08-28T19:35:34.960Z","ASNAP","admin","",,,,,,,,"meters","17200438.0","meters","47.816","deg","183.004","ddeg","44.36903643","ddeg","-124.95307734",,,,,,"PilotCam",,"BrowCam",,"UserSelect",,"SciCam",,"/PilotCam.20230828_193534960.jpg",,"/BrowCam.20230828_193534960.jpg",,"/UserSelect.20230828_193534960.jpg",,"/SciCam.20230828_193534960.jpg","meters","0.00","meters","47.84","deg","182.83","ddeg","-2.7905171","meters","10119265.15","meters","-5239250.20","ddeg","1.9667900","deg","-0.6","deg","0.0","degC","11.08","degC","-999.99","degC","-999.99","degC","-999.99"
"64ecf72095482d0019b299ae","2023-08-28T19:36:00.473Z","ROV Actions","guest","last football on","Last Football on",,,,,,,"meters","16712956.9","meters","51.446","deg","181.574","ddeg","44.36902959","ddeg","-124.95307747",,,,,,"PilotCam",,"BrowCam",,"UserSelect",,"SciCam",,"/PilotCam.20230828_193600473.jpg",,"/BrowCam.20230828_193600473.jpg",,"/UserSelect.20230828_193600473.jpg",,"/SciCam.20230828_193600473.jpg","meters","0.00","meters","51.42","deg","181.40","ddeg","-2.7905171","meters","10119265.15","meters","-5239250.20","ddeg","1.9667900","deg","-1.2","deg","-0.1","degC","10.84","degC","-999.99","degC","-999.99","degC","-999.99"
"64ecf72595482d0019b299b2","2023-08-28T19:36:05.006Z","ASNAP","admin","",,,,,,,,"meters","16620279.3","meters","52.736","deg","181.889","ddeg","44.36902765","ddeg","-124.95307608",,,,,,"PilotCam",,"BrowCam",,"UserSelect",,"SciCam",,"/PilotCam.20230828_193605006.jpg",,"/BrowCam.20230828_193605006.jpg",,"/UserSelect.20230828_193605006.jpg",,"/SciCam.20230828_193605006.jpg","meters","0.00","meters","52.69","deg","181.70","ddeg","-2.7905171","meters","10119265.15","meters","-5239250.20","ddeg","1.9667900","deg","-1.0","deg","0.0","degC","10.63","degC","-999.99","degC","-999.99","degC","-999.99"
"64ecf74395482d0019b299b6","2023-08-28T19:36:35.067Z","ASNAP","admin","",,,,,,,,"meters","16071399.8","meters","62.203","deg","182.340","ddeg","44.36901697","ddeg","-124.95306186",,,,,,"PilotCam",,"BrowCam",,"UserSelect",,"SciCam",,"/PilotCam.20230828_193635067.jpg",,"/BrowCam.20230828_193635067.jpg",,"/UserSelect.20230828_193635067.jpg",,"/SciCam.20230828_193635067.jpg","meters","0.00","meters","62.07","deg","182.08","ddeg","-2.7905171","meters","10119265.15","meters","-5239250.20","ddeg","1.9667900","deg","-0.7","deg","0.3","degC","9.93","degC","-999.99","degC","-999.99","degC","-999.99"
"64ecf76195482d0019b299ba","2023-08-28T19:37:05.143Z","ASNAP","admin","",,,,,,,,"meters","15534739.7","meters","71.607","deg","182.173","ddeg","44.36900761","ddeg","-124.95305470",,,,,,"PilotCam",,"BrowCam",,"UserSelect",,"SciCam",,"/PilotCam.20230828_193705143.jpg",,"/BrowCam.20230828_193705143.jpg",,"/UserSelect.20230828_193705143.jpg",,"/SciCam.20230828_193705143.jpg","meters","0.00","meters","71.47","deg","182.09","ddeg","-2.7905171","meters","10119265.15","meters","-5239250.20","ddeg","1.9667900","deg","-0.8","deg","-0.0","degC","9.37","degC","-999.99","degC","-999.99","degC","-999.99"
"64ecf77f95482d0019b299be","2023-08-28T19:37:35.167Z","ASNAP","admin","",,,,,,,,"meters","15010161.4","meters","81.092","deg","182.318","ddeg","44.36900080","ddeg","-124.95305602",,,,,,"PilotCam",,"BrowCam",,"UserSelect",,"SciCam",,"/PilotCam.20230828_193735167.jpg",,"/BrowCam.20230828_193735167.jpg",,"/UserSelect.20230828_193735167.jpg",,"/SciCam.20230828_193735167.jpg","meters","0.00","meters","80.99","deg","182.10","ddeg","-2.7905171","meters","10119265.15","meters","-5239250.20","ddeg","1.9667900","deg","-0.3","deg","0.1","degC","9.18","degC","-999.99","degC","-999.99","degC","-999.99"
"64ecf79d95482d0019b299c2","2023-08-28T19:38:05.183Z","ASNAP","admin","",,,,,,,,"meters","14497527.4","meters","90.594","deg","182.400","ddeg","44.36901575","ddeg","-124.95305978",,,,,,"PilotCam",,"BrowCam",,"UserSelect",,"SciCam",,"/PilotCam.20230828_193805183.jpg",,"/BrowCam.20230828_193805183.jpg",,"/UserSelect.20230828_193805183.jpg",,"/SciCam.20230828_193805183.jpg","meters","0.00","meters","90.50","deg","182.29","ddeg","-2.7905171","meters","10119265.15","meters","-5239250.20","ddeg","1.9667900","deg","-1.1","deg","-0.2","degC","9.00","degC","-999.99","degC","-999.99","degC","-999.99"
"64ecf7bb95482d0019b299c6","2023-08-28T19:38:35.244Z","ASNAP","admin","",,,,,,,,"meters","13996700.2","meters","100.230","deg","184.158","ddeg","44.36904008","ddeg","-124.95306593",,,,,,"PilotCam",,"BrowCam",,"UserSelect",,"SciCam",,"/PilotCam.20230828_193835244.jpg",,"/BrowCam.20230828_193835244.jpg",,"/UserSelect.20230828_193835244.jpg",,"/SciCam.20230828_193835244.jpg","meters","0.00","meters","100.12","deg","183.99","ddeg","-2.7905171","meters","10119265.15","meters","-5239250.20","ddeg","1.9667900","deg","-0.9","deg","-0.2","degC","8.91","degC","-999.99","degC","-999.99","degC","-999.99"
"64ecf7d995482d0019b299ca","2023-08-28T19:39:05.299Z","ASNAP","admin","",,,,,,,,"meters","13507542.1","meters","109.529","deg","183.622","ddeg","44.36905664","ddeg","-124.95307833",,,,,,"PilotCam",,"BrowCam",,"UserSelect",,"SciCam",,"/PilotCam.20230828_193905299.jpg",,"/BrowCam.20230828_193905299.jpg",,"/UserSelect.20230828_193905299.jpg",,"/SciCam.20230828_193905299.jpg","meters","0.00","meters","109.46","deg","183.47","ddeg","-2.7905171","meters","10119265.15","meters","-5239250.20","ddeg","1.9667900","deg","-1.5","deg","-0.6","degC","8.60","degC","-999.99","degC","-999.99","degC","-999.99"
"64ecf7f795482d0019b299ce","2023-08-28T19:39:35.345Z","ASNAP","admin","",,,,,,,,"meters","13029915.7","meters","118.914","deg","183.957","ddeg","44.36906741","ddeg","-124.95307045",,,,,,"PilotCam",,"BrowCam",,"UserSelect",,"SciCam",,"/PilotCam.20230828_193935345.jpg",,"/BrowCam.20230828_193935345.jpg",,"/UserSelect.20230828_193935345.jpg",,"/SciCam.20230828_193935345.jpg","meters","0.00","meters","118.76","deg","183.71","ddeg","-2.7905171","meters","10119265.15","meters","-5239250.20","ddeg","1.9667900","deg","-1.3","deg","-0.5","degC","8.21","degC","-999.99","degC","-999.99","degC","-999.99"
"64ecf81595482d0019b299d2","2023-08-28T19:40:05.362Z","ASNAP","admin","",,,,,,,,"meters","12563683.3","meters","128.496","deg","183.858","ddeg","44.36907480","ddeg","-124.95306355",,,,,,"PilotCam",,"BrowCam",,"UserSelect",,"SciCam",,"/PilotCam.20230828_194005362.jpg",,"/BrowCam.20230828_194005362.jpg",,"/UserSelect.20230828_194005362.jpg",,"/SciCam.20230828_194005362.jpg","meters","0.00","meters","128.25","deg","183.70","ddeg","-2.7905171","meters","10119265.15","meters","-5239250.20","ddeg","1.9667900","deg","-1.4","deg","-0.4","degC","8.00","degC","-999.99","degC","-999.99","degC","-999.99"
"64ecf82395482d0019b299d6","2023-08-28T19:40:19.243Z","Biology Type","guest","shrimp",,,,,,,,"meters","12349968.8","meters","132.977","deg","183.340","ddeg","44.36907607","ddeg","-124.95306613",,,,,,"PilotCam",,"BrowCam",,"UserSelect",,"SciCam",,"/PilotCam.20230828_194019243.jpg",,"/BrowCam.20230828_194019243.jpg",,"/UserSelect.20230828_194019243.jpg",,"/SciCam.20230828_194019243.jpg","meters","0.00","meters","132.86","deg","183.22","ddeg","-2.7905171","meters","10119265.15","meters","-5239250.20","ddeg","1.9667900","deg","-1.1","deg","-0.7","degC","7.95","degC","-999.99","degC","-999.99","degC","-999.99"
"64ecf83395482d0019b299da","2023-08-28T19:40:35.396Z","ASNAP","admin","",,,,,,,,"meters","12108707.5","meters","135.115","deg","184.909","ddeg","44.36907448","ddeg","-124.95307174",,,,,,"PilotCam",,"BrowCam",,"UserSelect",,"SciCam",,"/PilotCam.20230828_194035396.jpg",,"/BrowCam.20230828_194035396.jpg",,"/UserSelect.20230828_194035396.jpg",,"/SciCam.20230828_194035396.jpg","meters","0.00","meters","135.05","deg","184.83","ddeg","-2.7905171","meters","10119265.15","meters","-5239250.20","ddeg","1.9667900","deg","-1.8","deg","-0.7","degC","7.93","degC","-999.99","degC","-999.99","degC","-999.99"
"64ecf85195482d0019b299de","2023-08-28T19:41:05.467Z","ASNAP","admin","",,,,,,,,"meters","11664850.6","meters","135.413","deg","185.253","ddeg","44.36906434","ddeg","-124.95308526",,,,,,"PilotCam",,"BrowCam",,"UserSelect",,"SciCam",,"/PilotCam.20230828_194105467.jpg",,"/BrowCam.20230828_194105467.jpg",,"/UserSelect.20230828_194105467.jpg",,"/SciCam.20230828_194105467.jpg","meters","0.00","meters","135.21","deg","185.13","ddeg","-2.7905171","meters","10119265.15","meters","-5239250.20","ddeg","1.9667900","deg","-1.3","deg","-0.7","degC","7.94","degC","-999.99","degC","-999.99","degC","-999.99"
"64ecf85c95482d0019b299e2","2023-08-28T19:41:16.990Z","Biology Type","guest","",,,,,,,"Fish","meters","11504861.8","meters","135.320","deg","185.509","ddeg","44.36906020","ddeg","-124.95308998",,,,,,"PilotCam",,"BrowCam",,"UserSelect",,"SciCam",,"/PilotCam.20230828_194116990.jpg",,"/BrowCam.20230828_194116990.jpg",,"/UserSelect.20230828_194116990.jpg",,"/SciCam.20230828_194116990.jpg","meters","0.00","meters","135.37","deg","185.34","ddeg","-2.7905171","meters","10119265.15","meters","-5239250.20","ddeg","1.9667900","deg","-1.3","deg","-0.8","degC","7.93","degC","-999.99","degC","-999.99","degC","-999.99"
"64ecf86c95482d0019b299e6","2023-08-28T19:41:32.586Z","Biology Type","guest","",,,,,,,"Fish","meters","11274772.4","meters","135.489","deg","185.287","ddeg","44.36905537","ddeg","-124.95309556",,,,,,"PilotCam",,"BrowCam",,"UserSelect",,"SciCam",,"/PilotCam.20230828_194132586.jpg",,"/BrowCam.20230828_194132586.jpg",,"/UserSelect.20230828_194132586.jpg",,"/SciCam.20230828_194132586.jpg","meters","0.00","meters","135.60","deg","185.23","ddeg","-2.7905171","meters","10119265.15","meters","-5239250.20","ddeg","1.9667900","deg","-1.6","deg","-0.8","degC","7.90","degC","-999.99","degC","-999.99","degC","-999.99"
"64ecf86f95482d0019b299ea","2023-08-28T19:41:35.520Z","ASNAP","admin","",,,,,,,,"meters","11231975.1","meters","135.136","deg","185.439","ddeg","44.36905464","ddeg","-124.95309640",,,,,,"PilotCam",,"BrowCam",,"UserSelect",,"SciCam",,"/PilotCam.20230828_194135520.jpg",,"/BrowCam.20230828_194135520.jpg",,"/UserSelect.20230828_194135520.jpg",,"/SciCam.20230828_194135520.jpg","meters","0.00","meters","135.17","deg","185.34","ddeg","-2.7905171","meters","10119265.15","meters","-5239250.20","ddeg","1.9667900","deg","-1.1","deg","-0.8","degC","7.93","degC","-999.99","degC","-999.99","degC","-999.99"
"64ecf88d95482d0019b299ee","2023-08-28T19:42:05.566Z","ASNAP","admin","",,,,,,,,"meters","10809943.5","meters","137.019","deg","185.112","ddeg","44.36904791","ddeg","-124.95310322",,,,,,"PilotCam",,"BrowCam",,"UserSelect",,"SciCam",,"/PilotCam.20230828_194205566.jpg",,"/BrowCam.20230828_194205566.jpg",,"/UserSelect.20230828_194205566.jpg",,"/SciCam.20230828_194205566.jpg","meters","0.00","meters","136.97","deg","185.04","ddeg","-2.7905171","meters","10119265.15","meters","-5239250.20","ddeg","1.9667900","deg","-1.4","deg","-0.8","degC","7.90","degC","-999.99","degC","-999.99","degC","-999.99"
"64ecf8ab95482d0019b299f2","2023-08-28T19:42:35.585Z","ASNAP","admin","",,,,,,,,"meters","10398618.2","meters","145.483","deg","184.426","ddeg","44.36904351","ddeg","-124.95311611",,,,,,"PilotCam",,"BrowCam",,"UserSelect",,"SciCam",,"/PilotCam.20230828_194235585.jpg",,"/BrowCam.20230828_194235585.jpg",,"/UserSelect.20230828_194235585.jpg",,"/SciCam.20230828_194235585.jpg","meters","0.00","meters","145.42","deg","184.34","ddeg","-2.7905171","meters","10119265.15","meters","-5239250.20","ddeg","1.9667900","deg","-1.5","deg","-0.5","degC","7.83","degC","-999.99","degC","-999.99","degC","-999.99"
"64ecf8c995482d0019b299f6","2023-08-28T19:43:05.629Z","ASNAP","admin","",,,,,,,,"meters","9997861.7","meters","153.962","deg","184.397","ddeg","44.36904632","ddeg","-124.95312507",,,,,,"PilotCam",,"BrowCam",,"UserSelect",,"SciCam",,"/PilotCam.20230828_194305629.jpg",,"/BrowCam.20230828_194305629.jpg",,"/UserSelect.20230828_194305629.jpg",,"/SciCam.20230828_194305629.jpg","meters","0.00","meters","154.28","deg","184.32","ddeg","-2.7905171","meters","10119265.15","meters","-5239250.20","ddeg","1.9667900","deg","-1.5","deg","-0.6","degC","7.91","degC","-999.99","degC","-999.99","degC","-999.99"
"64ecf8e795482d0019b299fa","2023-08-28T19:43:35.675Z","ASNAP","admin","",,,,,,,,"meters","9607536.4","meters","154.000","deg","184.756","ddeg","44.36904027","ddeg","-124.95312810",,,,,,"PilotCam",,"BrowCam",,"UserSelect",,"SciCam",,"/PilotCam.20230828_194335675.jpg",,"/BrowCam.20230828_194335675.jpg",,"/UserSelect.20230828_194335675.jpg",,"/SciCam.20230828_194335675.jpg","meters","0.00","meters","154.05","deg","184.65","ddeg","-2.7905171","meters","10119265.15","meters","-5239250.20","ddeg","1.9667900","deg","-1.7","deg","-0.7","degC","7.87","degC","-999.99","degC","-999.99","degC","-999.99"
"64ecf90595482d0019b299fe","2023-08-28T19:44:05.715Z","ASNAP","admin","",,,,,,,,"meters","9227504.7","meters","154.280","deg","184.554","ddeg","44.36902717","ddeg","-124.95313626",,,,,,"PilotCam",,"BrowCam",,"UserSelect",,"SciCam",,"/PilotCam.20230828_194405715.jpg",,"/BrowCam.20230828_194405715.jpg",,"/UserSelect.20230828_194405715.jpg",,"/SciCam.20230828_194405715.jpg","meters","0.00","meters","154.20","deg","184.48","ddeg","-2.7905171","meters","10119265.15","meters","-5239250.20","ddeg","1.9667900","deg","-1.4","deg","-0.7","degC","7.76","degC","-999.99","degC","-999.99","degC","-999.99"
"64ecf92395482d0019b29a02","2023-08-28T19:44:35.760Z","ASNAP","admin","",,,,,,,,"meters","8857629.0","meters","160.773","deg","183.791","ddeg","44.36902871","ddeg","-124.95313704",,,,,,"PilotCam",,"BrowCam",,"UserSelect",,"SciCam",,"/PilotCam.20230828_194435760.jpg",,"/BrowCam.20230828_194435760.jpg",,"/UserSelect.20230828_194435760.jpg",,"/SciCam.20230828_194435760.jpg","meters","0.00","meters","160.76","deg","183.64","ddeg","-2.7905171","meters","10119265.15","meters","-5239250.20","ddeg","1.9667900","deg","-1.1","deg","-0.8","degC","7.83","degC","-999.99","degC","-999.99","degC","-999.99"
"64ecf94195482d0019b29a06","2023-08-28T19:45:05.804Z","ASNAP","admin","",,,,,,,,"meters","8497772.0","meters","175.013","deg","184.216","ddeg","44.36904311","ddeg","-124.95312858",,,,,,"PilotCam",,"BrowCam",,"UserSelect",,"SciCam",,"/PilotCam.20230828_194505804.jpg",,"/BrowCam.20230828_194505804.jpg",,"/UserSelect.20230828_194505804.jpg",,"/SciCam.20230828_194505804.jpg","meters","0.00","meters","175.20","deg","184.19","ddeg","-2.7905171","meters","10119265.15","meters","-5239250.20","ddeg","1.9667900","deg","-0.8","deg","-0.7","degC","7.61","degC","-999.99","degC","-999.99","degC","-999.99"
"64ecf95f95482d0019b29a0a","2023-08-28T19:45:35.849Z","ASNAP","admin","",,,,,,,,"meters","8147795.9","meters","189.087","deg","183.319","ddeg","44.36904303","ddeg","-124.95311347",,,,,,"PilotCam",,"BrowCam",,"UserSelect",,"SciCam",,"/PilotCam.20230828_194535849.jpg",,"/BrowCam.20230828_194535849.jpg",,"/UserSelect.20230828_194535849.jpg",,"/SciCam.20230828_194535849.jpg","meters","0.00","meters","189.50","deg","183.12","ddeg","-2.7905171","meters","10119265.15","meters","-5239250.20","ddeg","1.9667900","deg","-0.8","deg","-0.7","degC","7.61","degC","-999.99","degC","-999.99","degC","-999.99"
"64ecf97d95482d0019b29a0e","2023-08-28T19:46:05.886Z","ASNAP","admin","",,,,,,,,"meters","7807563.2","meters","203.345","deg","182.227","ddeg","44.36903912","ddeg","-124.95310303",,,,,,"PilotCam",,"BrowCam",,"UserSelect",,"SciCam",,"/PilotCam.20230828_194605886.jpg",,"/BrowCam.20230828_194605886.jpg",,"/UserSelect.20230828_194605886.jpg",,"/SciCam.20230828_194605886.jpg","meters","0.00","meters","203.63","deg","182.32","ddeg","-2.7905171","meters","10119265.15","meters","-5239250.20","ddeg","1.9667900","deg","-1.3","deg","-0.8","degC","7.52","degC","-999.99","degC","-999.99","degC","-999.99"
"64ecf99b95482d0019b29a12","2023-08-28T19:46:35.930Z","ASNAP","admin","",,,,,,,,"meters","7476936.5","meters","217.666","deg","184.390","ddeg","44.36903408","ddeg","-124.95310295",,,,,,"PilotCam",,"BrowCam",,"UserSelect",,"SciCam",,"/PilotCam.20230828_194635930.jpg",,"/BrowCam.20230828_194635930.jpg",,"/UserSelect.20230828_194635930.jpg",,"/SciCam.20230828_194635930.jpg","meters","0.00","meters","217.87","deg","184.44","ddeg","-2.7905171","meters","10119265.15","meters","-5239250.20","ddeg","1.9667900","deg","-0.6","deg","-0.7","degC","7.52","degC","-999.99","degC","-999.99","degC","-999.99"
"64ecf9b995482d0019b29a16","2023-08-28T19:47:05.976Z","ASNAP","admin","",,,,,,,,"meters","7155778.0","meters","231.774","deg","183.194","ddeg","44.36903033","ddeg","-124.95310320",,,,,,"PilotCam",,"BrowCam",,"UserSelect",,"SciCam",,"/PilotCam.20230828_194705976.jpg",,"/BrowCam.20230828_194705976.jpg",,"/UserSelect.20230828_194705976.jpg",,"/SciCam.20230828_194705976.jpg","meters","0.00","meters","231.96","deg","183.18","ddeg","-2.7905171","meters","10119265.15","meters","-5239250.20","ddeg","1.9667900","deg","-0.8","deg","-0.8","degC","7.32","degC","-999.99","degC","-999.99","degC","-999.99"
"64ecf9d795482d0019b29a1a","2023-08-28T19:47:35.996Z","ASNAP","admin","",,,,,,,,"meters","6843950.3","meters","246.004","deg","183.275","ddeg","44.36903448","ddeg","-124.95309975",,,,,,"PilotCam",,"BrowCam",,"UserSelect",,"SciCam",,"/PilotCam.20230828_194735996.jpg",,"/BrowCam.20230828_194735996.jpg",,"/UserSelect.20230828_194735996.jpg",,"/SciCam.20230828_194735996.jpg","meters","0.00","meters","246.41","deg","183.08","ddeg","-2.7905171","meters","10119265.15","meters","-5239250.20","ddeg","1.9667900","deg","-1.1","deg","-0.7","degC","7.20","degC","-999.99","degC","-999.99","degC","-999.99"
"64ecf9d995482d0019b29a1e","2023-08-28T19:47:37.420Z","Biology Type","guest","ctenophore",,,,,,,,"meters","6823490.2","meters","247.098","deg","183.173","ddeg","44.36903485","ddeg","-124.95309955",,,,,,"PilotCam",,"BrowCam",,"UserSelect",,"SciCam",,"/PilotCam.20230828_194737420.jpg",,"/BrowCam.20230828_194737420.jpg",,"/UserSelect.20230828_194737420.jpg",,"/SciCam.20230828_194737420.jpg","meters","0.00","meters","246.88","deg","183.11","ddeg","-2.7905171","meters","10119265.15","meters","-5239250.20","ddeg","1.9667900","deg","-0.8","deg","-0.6","degC","7.18","degC","-999.99","degC","-999.99","degC","-999.99"
"64ecf9ed95482d0019b29a22","2023-08-28T19:47:57.105Z","Biology Type","guest","",,,,,,,"Fish","meters","6621127.2","meters","256.585","deg","183.482","ddeg","44.36903730","ddeg","-124.95309833",,,,,,"PilotCam",,"BrowCam",,"UserSelect",,"SciCam",,"/PilotCam.20230828_194757105.jpg",,"/BrowCam.20230828_194757105.jpg",,"/UserSelect.20230828_194757105.jpg",,"/SciCam.20230828_194757105.jpg","meters","0.00","meters","256.35","deg","183.41","ddeg","-2.7905171","meters","10119265.15","meters","-5239250.20","ddeg","1.9667900","deg","-1.1","deg","-0.8","degC","7.11","degC","-999.99","degC","-999.99","degC","-999.99"
"64ecf9f695482d0019b29a26","2023-08-28T19:48:06.045Z","ASNAP","admin","",,,,,,,,"meters","6531384.7","meters","261.064","deg","183.788","ddeg","44.36903754","ddeg","-124.95309797",,,,,,"PilotCam",,"BrowCam",,"UserSelect",,"SciCam",,"/PilotCam.20230828_194806045.jpg",,"/BrowCam.20230828_194806045.jpg",,"/UserSelect.20230828_194806045.jpg",,"/SciCam.20230828_194806045.jpg","meters","0.00","meters","260.81","deg","183.75","ddeg","-2.7905171","meters","10119265.15","meters","-5239250.20","ddeg","1.9667900","deg","-0.9","deg","-0.7","degC","7.18","degC","-999.99","degC","-999.99","degC","-999.99"
"64ecf9f995482d0019b29a2a","2023-08-28T19:48:09.706Z","Biology Type","guest","many ctenophore and siphonophores",,,,,,,,"meters","6501651.8","meters","262.317","deg","183.161","ddeg","44.36903754","ddeg","-124.95309779",,,,,,"PilotCam",,"BrowCam",,"UserSelect",,"SciCam",,"/PilotCam.20230828_194809706.jpg",,"/BrowCam.20230828_194809706.jpg",,"/UserSelect.20230828_194809706.jpg",,"/SciCam.20230828_194809706.jpg","meters","0.00","meters","262.38","deg","183.11","ddeg","-2.7905171","meters","10119265.15","meters","-5239250.20","ddeg","1.9667900","deg","-0.8","deg","-0.6","degC","7.06","degC","-999.99","degC","-999.99","degC","-999.99"
"64ecfa1495482d0019b29a2e","2023-08-28T19:48:36.110Z","ASNAP","admin","",,,,,,,,"meters","6238105.4","meters","275.152","deg","183.463","ddeg","44.36903595","ddeg","-124.95309242",,,,,,"PilotCam",,"BrowCam",,"UserSelect",,"SciCam",,"/PilotCam.20230828_194836110.jpg",,"/BrowCam.20230828_194836110.jpg",,"/UserSelect.20230828_194836110.jpg",,"/SciCam.20230828_194836110.jpg","meters","0.00","meters","274.90","deg","183.48","ddeg","-2.7905171","meters","10119265.15","meters","-5239250.20","ddeg","1.9667900","deg","-1.0","deg","-0.9","degC","7.01","degC","-999.99","degC","-999.99","degC","-999.99"
"64ecfa1b95482d0019b29a32","2023-08-28T19:48:43.280Z","Biology Type","guest","",,,,,,,"Fish","meters","6170961.2","meters","278.392","deg","183.582","ddeg","44.36903486","ddeg","-124.95308986",,,,,,"PilotCam",,"BrowCam",,"UserSelect",,"SciCam",,"/PilotCam.20230828_194843280.jpg",,"/BrowCam.20230828_194843280.jpg",,"/UserSelect.20230828_194843280.jpg",,"/SciCam.20230828_194843280.jpg","meters","0.00","meters","278.26","deg","183.56","ddeg","-2.7905171","meters","10119265.15","meters","-5239250.20","ddeg","1.9667900","deg","-1.2","deg","-0.7","degC","7.15","degC","-999.99","degC","-999.99","degC","-999.99"
"64ecfa2995482d0019b29a36","2023-08-28T19:48:57.045Z","Biology Type","guest","",,,,,,,"Fish","meters","6038121.6","meters","285.136","deg","182.846","ddeg","44.36903196","ddeg","-124.95308437",,,,,,"PilotCam",,"BrowCam",,"UserSelect",,"SciCam",,"/PilotCam.20230828_194857045.jpg",,"/BrowCam.20230828_194857045.jpg",,"/UserSelect.20230828_194857045.jpg",,"/SciCam.20230828_194857045.jpg","meters","0.00","meters","284.90","deg","182.66","ddeg","-2.7905171","meters","10119265.15","meters","-5239250.20","ddeg","1.9667900","deg","-0.6","deg","-0.5","degC","6.92","degC","-999.99","degC","-999.99","degC","-999.99"
"64ecfa3295482d0019b29a3a","2023-08-28T19:49:06.128Z","ASNAP","admin","",,,,,,,,"meters","5953739.6","meters","289.377","deg","184.119","ddeg","44.36902999","ddeg","-124.95308129",,,,,,"PilotCam",,"BrowCam",,"UserSelect",,"SciCam",,"/PilotCam.20230828_194906128.jpg",,"/BrowCam.20230828_194906128.jpg",,"/UserSelect.20230828_194906128.jpg",,"/SciCam.20230828_194906128.jpg","meters","0.00","meters","289.29","deg","184.05","ddeg","-2.7905171","meters","10119265.15","meters","-5239250.20","ddeg","1.9667900","deg","-0.7","deg","-0.5","degC","6.97","degC","-999.99","degC","-999.99","degC","-999.99"
"64ecfa3b95482d0019b29a3e","2023-08-28T19:49:15.974Z","Biology Type","guest","ctenophores",,,,,,,,"meters","5870147.5","meters","293.767","deg","183.853","ddeg","44.36902820","ddeg","-124.95307902",,,,,,"PilotCam",,"BrowCam",,"UserSelect",,"SciCam",,"/PilotCam.20230828_194915974.jpg",,"/BrowCam.20230828_194915974.jpg",,"/UserSelect.20230828_194915974.jpg",,"/SciCam.20230828_194915974.jpg","meters","0.00","meters","294.08","deg","183.79","ddeg","-2.7905171","meters","10119265.15","meters","-5239250.20","ddeg","1.9667900","deg","-0.6","deg","-0.6","degC","6.78","degC","-999.99","degC","-999.99","degC","-999.99"
"64ecfa5095482d0019b29a42","2023-08-28T19:49:36.172Z","ASNAP","admin","",,,,,,,,"meters","5678149.8","meters","303.671","deg","182.195","ddeg","44.36902521","ddeg","-124.95307819",,,,,,"PilotCam",,"BrowCam",,"UserSelect",,"SciCam",,"/PilotCam.20230828_194936172.jpg",,"/BrowCam.20230828_194936172.jpg",,"/UserSelect.20230828_194936172.jpg",,"/SciCam.20230828_194936172.jpg","meters","0.00","meters","303.53","deg","182.29","ddeg","-2.7905171","meters","10119265.15","meters","-5239250.20","ddeg","1.9667900","deg","-1.0","deg","-1.1","degC","6.95","degC","-999.99","degC","-999.99","degC","-999.99"
"64ecfa5d95482d0019b29a46","2023-08-28T19:49:49.376Z","Biology Type","guest","siphonophore",,,,,,,,"meters","5561418.3","meters","309.972","deg","183.806","ddeg","44.36902386","ddeg","-124.95308022",,,,,,"PilotCam",,"BrowCam",,"UserSelect",,"SciCam",,"/PilotCam.20230828_194949376.jpg",,"/BrowCam.20230828_194949376.jpg",,"/UserSelect.20230828_194949376.jpg",,"/SciCam.20230828_194949376.jpg","meters","0.00","meters","310.12","deg","183.64","ddeg","-2.7905171","meters","10119265.15","meters","-5239250.20","ddeg","1.9667900","deg","-1.1","deg","-1.0","degC","6.78","degC","-999.99","degC","-999.99","degC","-999.99"
"64ecfa6e95482d0019b29a4a","2023-08-28T19:50:06.217Z","ASNAP","admin","",,,,,,,,"meters","5411198.4","meters","318.015","deg","184.497","ddeg","44.36902227","ddeg","-124.95308496",,,,,,"PilotCam",,"BrowCam",,"UserSelect",,"SciCam",,"/PilotCam.20230828_195006217.jpg",,"/BrowCam.20230828_195006217.jpg",,"/UserSelect.20230828_195006217.jpg",,"/SciCam.20230828_195006217.jpg","meters","0.00","meters","317.61","deg","184.61","ddeg","-2.7905171","meters","10119265.15","meters","-5239250.20","ddeg","1.9667900","deg","-1.0","deg","-0.8","degC","6.72","degC","-999.99","degC","-999.99","degC","-999.99"
"64ecfa8195482d0019b29a4e","2023-08-28T19:50:25.653Z","Biology Type","guest","",,,,,,,"Jelly","meters","5246534.7","meters","327.266","deg","183.816","ddeg","44.36901963","ddeg","-124.95309333",,,,,,"PilotCam",,"BrowCam",,"UserSelect",,"SciCam",,"/PilotCam.20230828_195025653.jpg",,"/BrowCam.20230828_195025653.jpg",,"/UserSelect.20230828_195025653.jpg",,"/SciCam.20230828_195025653.jpg","meters","0.00","meters","327.10","deg","183.70","ddeg","-2.7905171","meters","10119265.15","meters","-5239250.20","ddeg","1.9667900","deg","-0.9","deg","-0.8","degC","6.74","degC","-999.99","degC","-999.99","degC","-999.99"
"64ecfa8c95482d0019b29a52","2023-08-28T19:50:36.285Z","ASNAP","admin","",,,,,,,,"meters","5152747.8","meters","332.520","deg","183.427","ddeg","44.36901665","ddeg","-124.95309849",,,,,,"PilotCam",,"BrowCam",,"UserSelect",,"SciCam",,"/PilotCam.20230828_195036285.jpg",,"/BrowCam.20230828_195036285.jpg",,"/UserSelect.20230828_195036285.jpg",,"/SciCam.20230828_195036285.jpg","meters","0.00","meters","332.40","deg","183.25","ddeg","-2.7905171","meters","10119265.15","meters","-5239250.20","ddeg","1.9667900","deg","-0.9","deg","-0.8","degC","6.40","degC","-999.99","degC","-999.99","degC","-999.99"
"64ecfa8c95482d0019b29a55","2023-08-28T19:50:36.451Z","Biology Type","guest","many types of ctenophores and siphonophores
",,,,,,,,"meters","5152747.8","meters","332.520","deg","183.427","ddeg","44.36901665","ddeg","-124.95309849",,,,,,"PilotCam",,"BrowCam",,"UserSelect",,"SciCam",,"/PilotCam.20230828_195036451.jpg",,"/BrowCam.20230828_195036451.jpg",,"/UserSelect.20230828_195036451.jpg",,"/SciCam.20230828_195036451.jpg","meters","0.00","meters","332.40","deg","183.25","ddeg","-2.7905171","meters","10119265.15","meters","-5239250.20","ddeg","1.9667900","deg","-0.9","deg","-0.8","degC","6.40","degC","-999.99","degC","-999.99","degC","-999.99"
"64ecfaa295482d0019b29a5a","2023-08-28T19:50:58.828Z","Biology Type","guest","shrimp",,,,,,,,"meters","4968540.5","meters","343.019","deg","184.042","ddeg","44.36900654","ddeg","-124.95310642",,,,,,"PilotCam",,"BrowCam",,"UserSelect",,"SciCam",,"/PilotCam.20230828_195058828.jpg",,"/BrowCam.20230828_195058828.jpg",,"/UserSelect.20230828_195058828.jpg",,"/SciCam.20230828_195058828.jpg","meters","0.00","meters","343.34","deg","183.83","ddeg","-2.7905171","meters","10119265.15","meters","-5239250.20","ddeg","1.9667900","deg","-0.8","deg","-0.9","degC","6.39","degC","-999.99","degC","-999.99","degC","-999.99"
"64ecfaaa95482d0019b29a5e","2023-08-28T19:51:06.320Z","ASNAP","admin","",,,,,,,,"meters","4902660.6","meters","346.618","deg","183.660","ddeg","44.36900204","ddeg","-124.95310888",,,,,,"PilotCam",,"BrowCam",,"UserSelect",,"SciCam",,"/PilotCam.20230828_195106320.jpg",,"/BrowCam.20230828_195106320.jpg",,"/UserSelect.20230828_195106320.jpg",,"/SciCam.20230828_195106320.jpg","meters","0.00","meters","346.49","deg","183.60","ddeg","-2.7905171","meters","10119265.15","meters","-5239250.20","ddeg","1.9667900","deg","-0.6","deg","-0.8","degC","6.40","degC","-999.99","degC","-999.99","degC","-999.99"
"64ecfabf95482d0019b29a62","2023-08-28T19:51:27.356Z","Biology Type","guest","",,,,,,,"Jelly","meters","4732502.0","meters","356.191","deg","183.160","ddeg","44.36899022","ddeg","-124.95311555",,,,,,"PilotCam",,"BrowCam",,"UserSelect",,"SciCam",,"/PilotCam.20230828_195127356.jpg",,"/BrowCam.20230828_195127356.jpg",,"/UserSelect.20230828_195127356.jpg",,"/SciCam.20230828_195127356.jpg","meters","0.00","meters","356.07","deg","183.11","ddeg","-2.7905171","meters","10119265.15","meters","-5239250.20","ddeg","1.9667900","deg","-0.2","deg","-0.9","degC","6.07","degC","-999.99","degC","-999.99","degC","-999.99"
"64ecfac895482d0019b29a66","2023-08-28T19:51:36.390Z","ASNAP","admin","",,,,,,,,"meters","4660799.1","meters","360.508","deg","184.549","ddeg","44.36898545","ddeg","-124.95311828",,,,,,"PilotCam",,"BrowCam",,"UserSelect",,"SciCam",,"/PilotCam.20230828_195136390.jpg",,"/BrowCam.20230828_195136390.jpg",,"/UserSelect.20230828_195136390.jpg",,"/SciCam.20230828_195136390.jpg","meters","0.00","meters","360.36","deg","184.46","ddeg","-2.7905171","meters","10119265.15","meters","-5239250.20","ddeg","1.9667900","deg","-0.5","deg","-0.8","degC","6.12","degC","-999.99","degC","-999.99","degC","-999.99"
"64ecfaca95482d0019b29a6a","2023-08-28T19:51:38.521Z","Biology Type","guest","",,,,,,,"Jelly","meters","4644964.1","meters","361.384","deg","184.600","ddeg","44.36898443","ddeg","-124.95311888",,,,,,"PilotCam",,"BrowCam",,"UserSelect",,"SciCam",,"/PilotCam.20230828_195138521.jpg",,"/BrowCam.20230828_195138521.jpg",,"/UserSelect.20230828_195138521.jpg",,"/SciCam.20230828_195138521.jpg","meters","0.00","meters","361.15","deg","184.53","ddeg","-2.7905171","meters","10119265.15","meters","-5239250.20","ddeg","1.9667900","deg","-0.6","deg","-0.8","degC","6.08","degC","-999.99","degC","-999.99","degC","-999.99"
"64ecfad195482d0019b29a6e","2023-08-28T19:51:45.344Z","Biology Type","guest","",,,,,,,"Fish","meters","4589824.1","meters","364.906","deg","184.196","ddeg","44.36898106","ddeg","-124.95312101",,,,,,"PilotCam",,"BrowCam",,"UserSelect",,"SciCam",,"/PilotCam.20230828_195145344.jpg",,"/BrowCam.20230828_195145344.jpg",,"/UserSelect.20230828_195145344.jpg",,"/SciCam.20230828_195145344.jpg","meters","0.00","meters","364.76","deg","184.02","ddeg","-2.7905171","meters","10119265.15","meters","-5239250.20","ddeg","1.9667900","deg","0.2","deg","-0.8","degC","5.97","degC","-999.99","degC","-999.99","degC","-999.99"
"64ecfae695482d0019b29a72","2023-08-28T19:52:06.408Z","ASNAP","admin","",,,,,,,,"meters","4427025.8","meters","374.528","deg","183.621","ddeg","44.36897319","ddeg","-124.95312804",,,,,,"PilotCam",,"BrowCam",,"UserSelect",,"SciCam",,"/PilotCam.20230828_195206408.jpg",,"/BrowCam.20230828_195206408.jpg",,"/UserSelect.20230828_195206408.jpg",,"/SciCam.20230828_195206408.jpg","meters","0.00","meters","374.27","deg","183.61","ddeg","-2.7905171","meters","10119265.15","meters","-5239250.20","ddeg","1.9667900","deg","-1.4","deg","-0.9","degC","5.98","degC","-999.99","degC","-999.99","degC","-999.99"
"64ecfaf195482d0019b29a76","2023-08-28T19:52:17.785Z","Biology Type","guest","lantern fish",,,,,,,"Fish","meters","4343308.3","meters","379.559","deg","184.320","ddeg","44.36897025","ddeg","-124.95313187",,,,,,"PilotCam",,"BrowCam",,"UserSelect",,"SciCam",,"/PilotCam.20230828_195217785.jpg",,"/BrowCam.20230828_195217785.jpg",,"/UserSelect.20230828_195217785.jpg",,"/SciCam.20230828_195217785.jpg","meters","0.00","meters","379.27","deg","184.25","ddeg","-2.7905171","meters","10119265.15","meters","-5239250.20","ddeg","1.9667900","deg","-0.7","deg","-0.9","degC","5.93","degC","-999.99","degC","-999.99","degC","-999.99"
"64ecfb0495482d0019b29a7a","2023-08-28T19:52:36.468Z","ASNAP","admin","",,,,,,,,"meters","4201203.2","meters","388.344","deg","184.061","ddeg","44.36896558","ddeg","-124.95313851",,,,,,"PilotCam",,"BrowCam",,"UserSelect",,"SciCam",,"/PilotCam.20230828_195236468.jpg",,"/BrowCam.20230828_195236468.jpg",,"/UserSelect.20230828_195236468.jpg",,"/SciCam.20230828_195236468.jpg","meters","0.00","meters","388.15","deg","184.03","ddeg","-2.7905171","meters","10119265.15","meters","-5239250.20","ddeg","1.9667900","deg","-0.9","deg","-0.9","degC","5.83","degC","-999.99","degC","-999.99","degC","-999.99"
"64ecfb0595482d0019b29a7e","2023-08-28T19:52:37.724Z","Biology Type","guest","shrimp",,,,,,,,"meters","4193811.1","meters","388.878","deg","183.951","ddeg","44.36896532","ddeg","-124.95313886",,,,,,"PilotCam",,"BrowCam",,"UserSelect",,"SciCam",,"/PilotCam.20230828_195237724.jpg",,"/BrowCam.20230828_195237724.jpg",,"/UserSelect.20230828_195237724.jpg",,"/SciCam.20230828_195237724.jpg","meters","0.00","meters","388.63","deg","183.91","ddeg","-2.7905171","meters","10119265.15","meters","-5239250.20","ddeg","1.9667900","deg","-0.8","deg","-0.9","degC","5.98","degC","-999.99","degC","-999.99","degC","-999.99"
"64ecfb1195482d0019b29a82","2023-08-28T19:52:49.909Z","Biology Type","guest","",,,,,,,"Jelly","meters","4105781.2","meters","394.485","deg","183.631","ddeg","44.36896206","ddeg","-124.95314312",,,,,,"PilotCam",,"BrowCam",,"UserSelect",,"SciCam",,"/PilotCam.20230828_195249909.jpg",,"/BrowCam.20230828_195249909.jpg",,"/UserSelect.20230828_195249909.jpg",,"/SciCam.20230828_195249909.jpg","meters","0.00","meters","394.89","deg","183.47","ddeg","-2.7905171","meters","10119265.15","meters","-5239250.20","ddeg","1.9667900","deg","-1.0","deg","-1.0","degC","6.00","degC","-999.99","degC","-999.99","degC","-999.99"
"64ecfb2295482d0019b29a86","2023-08-28T19:53:06.512Z","ASNAP","admin","",,,,,,,,"meters","3983193.6","meters","402.593","deg","184.283","ddeg","44.36895685","ddeg","-124.95314778",,,,,,"PilotCam",,"BrowCam",,"UserSelect",,"SciCam",,"/PilotCam.20230828_195306512.jpg",,"/BrowCam.20230828_195306512.jpg",,"/UserSelect.20230828_195306512.jpg",,"/SciCam.20230828_195306512.jpg","meters","0.00","meters","402.38","deg","184.26","ddeg","-2.7905171","meters","10119265.15","meters","-5239250.20","ddeg","1.9667900","deg","-0.6","deg","-1.1","degC","5.74","degC","-999.99","degC","-999.99","degC","-999.99"
"64ecfb3a95482d0019b29a8a","2023-08-28T19:53:30.138Z","Biology Type","guest","shrimp
",,,,,,,,"meters","3814319.0","meters","413.693","deg","184.179","ddeg","44.36895025","ddeg","-124.95314741",,,,,,"PilotCam",,"BrowCam",,"UserSelect",,"SciCam",,"/PilotCam.20230828_195330138.jpg",,"/BrowCam.20230828_195330138.jpg",,"/UserSelect.20230828_195330138.jpg",,"/SciCam.20230828_195330138.jpg","meters","0.00","meters","413.61","deg","184.08","ddeg","44.4642124","meters","6824788.14","meters","11612.22","ddeg","-39.3575925","deg","-1.1","deg","-0.8","degC","5.85","degC","-999.99","degC","-999.99","degC","-999.99"
"64ecfb4095482d0019b29a8e","2023-08-28T19:53:36.555Z","ASNAP","admin","",,,,,,,,"meters","3772859.6","meters","416.411","deg","184.652","ddeg","44.36894915","ddeg","-124.95314576",,,,,,"PilotCam",,"BrowCam",,"UserSelect",,"SciCam",,"/PilotCam.20230828_195336555.jpg",,"/BrowCam.20230828_195336555.jpg",,"/UserSelect.20230828_195336555.jpg",,"/SciCam.20230828_195336555.jpg","meters","0.00","meters","416.38","deg","184.61","ddeg","44.4642555","meters","6824784.25","meters","11617.01","ddeg","-39.3576413","deg","-0.7","deg","-0.8","degC","5.69","degC","-999.99","degC","-999.99","degC","-999.99"
