"id","ts","event_value","event_author","event_free_text","event_option.actions","event_option.dive_#/summary","event_option.filename","event_option.location","event_option.milestone","event_option.sample_name","event_option.type","vehicleReNavData.altitude_uom","vehicleReNavData.altitude_value","vehicleReNavData.depth_uom","vehicleReNavData.depth_value","vehicleReNavData.heading_uom","vehicleReNavData.heading_value","vehicleReNavData.latitude_uom","vehicleReNavData.latitude_value","vehicleReNavData.longitude_uom","vehicleReNavData.longitude_value","vehicleReNavData.pitch_uom","vehicleReNavData.pitch_value","vehicleReNavData.roll_uom","vehicleReNavData.roll_value","vehicleRealtimeFramegrabberData.camera_name_2_uom","vehicleRealtimeFramegrabberData.camera_name_2_value","vehicleRealtimeFramegrabberData.camera_name_3_uom","vehicleRealtimeFramegrabberData.camera_name_3_value","vehicleRealtimeFramegrabberData.camera_name_4_uom","vehicleRealtimeFramegrabberData.camera_name_4_value","vehicleRealtimeFramegrabberData.camera_name_uom","vehicleRealtimeFramegrabberData.camera_name_value","vehicleRealtimeFramegrabberData.filename_2_uom","vehicleRealtimeFramegrabberData.filename_2_value","vehicleRealtimeFramegrabberData.filename_3_uom","vehicleRealtimeFramegrabberData.filename_3_value","vehicleRealtimeFramegrabberData.filename_4_uom","vehicleRealtimeFramegrabberData.filename_4_value","vehicleRealtimeFramegrabberData.filename_uom","vehicleRealtimeFramegrabberData.filename_value","vehicleRealtimeNavData.altitude_uom","vehicleRealtimeNavData.altitude_value","vehicleRealtimeNavData.depth_uom","vehicleRealtimeNavData.depth_value","vehicleRealtimeNavData.heading_uom","vehicleRealtimeNavData.heading_value","vehicleRealtimeNavData.latitude_uom","vehicleRealtimeNavData.latitude_value","vehicleRealtimeNavData.local_x_uom","vehicleRealtimeNavData.local_x_value","vehicleRealtimeNavData.local_y_uom","vehicleRealtimeNavData.local_y_value","vehicleRealtimeNavData.longitude_uom","vehicleRealtimeNavData.longitude_value","vehicleRealtimeNavData.pitch_uom","vehicleRealtimeNavData.pitch_value","vehicleRealtimeNavData.roll_uom","vehicleRealtimeNavData.roll_value","vehicleTemperatureProbe.probe1_temperature_uom","vehicleTemperatureProbe.probe1_temperature_value","vehicleTemperatureProbe.probe2_temperature_uom","vehicleTemperatureProbe.probe2_temperature_value","vehicleTemperatureProbe.probe3_temperature_uom","vehicleTemperatureProbe.probe3_temperature_value","vehicleTemperatureProbe.probe4_temperature_uom","vehicleTemperatureProbe.probe4_temperature_value"
"6506579819a182001b1d61bc","2023-09-17T01:34:16.444Z","ASNAP","admin","",,,,,,,,,,,,,,,,,,,,,,,"PilotCam",,"BrowCam",,"UserSelect",,"SciCam",,"/PilotCam.20230917_013416444.jpg",,"/BrowCam.20230917_013416444.jpg",,"/UserSelect.20230917_013416444.jpg",,"/SciCam.20230917_013416444.jpg","meters","0.00","meters","0.61","deg","5.81","ddeg","23.3550402","meters","8629540.64","meters","-2507702.25","ddeg","-18.7935593","deg","0.5","deg","-0.4","degC","15.63","degC","-999.99","degC","-999.99","degC","-999.99"
"650657a419a182001b1d61c4","2023-09-17T01:34:28.469Z","Name","guest","Kristine Prado-Casillas",,,,,,,,,,,,,,,,,,,,,,,"PilotCam",,"BrowCam",,"UserSelect",,"SciCam",,"/PilotCam.20230917_013428469.jpg",,"/BrowCam.20230917_013428469.jpg",,"/UserSelect.20230917_013428469.jpg",,"/SciCam.20230917_013428469.jpg","meters","0.00","meters","0.64","deg","1.99","ddeg","23.3550402","meters","8629540.64","meters","-2507702.25","ddeg","-18.7935593","deg","-0.8","deg","-0.8","degC","15.65","degC","-999.99","degC","-999.99","degC","-999.99"
"650657b619a182001b1d61c8","2023-09-17T01:34:46.491Z","ASNAP","admin","",,,,,,,,,,,,,,,,,,,,,,,"PilotCam",,"BrowCam",,"UserSelect",,"SciCam",,"/PilotCam.20230917_013446491.jpg",,"/BrowCam.20230917_013446491.jpg",,"/UserSelect.20230917_013446491.jpg",,"/SciCam.20230917_013446491.jpg","meters","0.00","meters","0.64","deg","3.79","ddeg","23.3550402","meters","8629540.64","meters","-2507702.25","ddeg","-18.7935593","deg","-0.7","deg","-0.6","degC","15.66","degC","-999.99","degC","-999.99","degC","-999.99"
"650657bd19a182001b1d61cc","2023-09-17T01:34:53.495Z","Site Interactions","guest","Unsure of CTD instrument",,"J2-1560 -- Replacing CTD",,"Eastern Caldera",,,,,,,,,,,,,,,,,,,"PilotCam",,"BrowCam",,"UserSelect",,"SciCam",,"/PilotCam.20230917_013453495.jpg",,"/BrowCam.20230917_013453495.jpg",,"/UserSelect.20230917_013453495.jpg",,"/SciCam.20230917_013453495.jpg","meters","0.00","meters","0.62","deg","3.39","ddeg","23.3550402","meters","8629540.64","meters","-2507702.25","ddeg","-18.7935593","deg","-0.1","deg","-2.1","degC","15.64","degC","-999.99","degC","-999.99","degC","-999.99"
"650657d419a182001b1d61d0","2023-09-17T01:35:16.538Z","ASNAP","admin","",,,,,,,,,,,,,,,,,,,,,,,"PilotCam",,"BrowCam",,"UserSelect",,"SciCam",,"/PilotCam.20230917_013516538.jpg",,"/BrowCam.20230917_013516538.jpg",,"/UserSelect.20230917_013516538.jpg",,"/SciCam.20230917_013516538.jpg","meters","0.00","meters","0.63","deg","39.58","ddeg","23.3550402","meters","8629540.64","meters","-2507702.25","ddeg","-18.7935593","deg","-0.1","deg","-1.4","degC","15.70","degC","-999.99","degC","-999.99","degC","-999.99"
"650657f219a182001b1d61d4","2023-09-17T01:35:46.561Z","ASNAP","admin","",,,,,,,,,,,,,,,,,,,,,,,"PilotCam",,"BrowCam",,"UserSelect",,"SciCam",,"/PilotCam.20230917_013546561.jpg",,"/BrowCam.20230917_013546561.jpg",,"/UserSelect.20230917_013546561.jpg",,"/SciCam.20230917_013546561.jpg","meters","0.00","meters","0.64","deg","108.47","ddeg","23.3550402","meters","8629540.64","meters","-2507702.25","ddeg","-18.7935593","deg","0.3","deg","0.3","degC","15.77","degC","-999.99","degC","-999.99","degC","-999.99"
"6506581019a182001b1d61d8","2023-09-17T01:36:16.589Z","ASNAP","admin","",,,,,,,,,,,,,,,,,,,,,,,"PilotCam",,"BrowCam",,"UserSelect",,"SciCam",,"/PilotCam.20230917_013616589.jpg",,"/BrowCam.20230917_013616589.jpg",,"/UserSelect.20230917_013616589.jpg",,"/SciCam.20230917_013616589.jpg","meters","0.00","meters","0.63","deg","108.80","ddeg","23.3550402","meters","8629540.64","meters","-2507702.25","ddeg","-18.7935593","deg","-0.9","deg","-1.8","degC","15.70","degC","-999.99","degC","-999.99","degC","-999.99"
"6506582e19a182001b1d61dc","2023-09-17T01:36:46.635Z","ASNAP","admin","",,,,,,,,,,,,,,,,,,,,,,,"PilotCam",,"BrowCam",,"UserSelect",,"SciCam",,"/PilotCam.20230917_013646635.jpg",,"/BrowCam.20230917_013646635.jpg",,"/UserSelect.20230917_013646635.jpg",,"/SciCam.20230917_013646635.jpg","meters","0.00","meters","0.65","deg","108.48","ddeg","23.3550402","meters","8629540.64","meters","-2507702.25","ddeg","-18.7935593","deg","-1.2","deg","0.6","degC","15.78","degC","-999.99","degC","-999.99","degC","-999.99"
"6506583f19a182001b1d61e0","2023-09-17T01:37:03.263Z","VEHICLE","guest","",,,,,"Jason in water",,,"meters","328189655.2","meters","11.209","deg","160.212","ddeg","45.93951963","ddeg","-129.97362514",,,,,,"PilotCam",,"BrowCam",,"UserSelect",,"SciCam",,"/PilotCam.20230917_013703263.jpg",,"/BrowCam.20230917_013703263.jpg",,"/UserSelect.20230917_013703263.jpg",,"/SciCam.20230917_013703263.jpg","meters","0.00","meters","0.71","deg","157.24","ddeg","23.3550402","meters","8629540.64","meters","-2507702.25","ddeg","-18.7935593","deg","-0.6","deg","-2.0","degC","15.74","degC","-999.99","degC","-999.99","degC","-999.99"
"6506584c19a182001b1d61e8","2023-09-17T01:37:16.681Z","ASNAP","admin","",,,,,,,,"meters","324916108.9","meters","11.209","deg","197.258","ddeg","45.93951963","ddeg","-129.97362514",,,,,,"PilotCam",,"BrowCam",,"UserSelect",,"SciCam",,"/PilotCam.20230917_013716681.jpg",,"/BrowCam.20230917_013716681.jpg",,"/UserSelect.20230917_013716681.jpg",,"/SciCam.20230917_013716681.jpg","meters","0.00","meters","2.19","deg","197.10","ddeg","23.3550402","meters","8629540.64","meters","-2507702.25","ddeg","-18.7935593","deg","-9.0","deg","1.0","degC","16.40","degC","-999.99","degC","-999.99","degC","-999.99"
"6506586a19a182001b1d61ec","2023-09-17T01:37:46.712Z","ASNAP","admin","",,,,,,,,"meters","317445006.5","meters","11.209","deg","198.871","ddeg","45.93951963","ddeg","-129.97362514",,,,,,"PilotCam",,"BrowCam",,"UserSelect",,"SciCam",,"/PilotCam.20230917_013746712.jpg",,"/BrowCam.20230917_013746712.jpg",,"/UserSelect.20230917_013746712.jpg",,"/SciCam.20230917_013746712.jpg","meters","0.00","meters","3.09","deg","198.81","ddeg","23.3550402","meters","8629540.64","meters","-2507702.25","ddeg","-18.7935593","deg","-2.8","deg","-2.3","degC","17.26","degC","-999.99","degC","-999.99","degC","-999.99"
"6506588819a182001b1d61f0","2023-09-17T01:38:16.731Z","ASNAP","admin","",,,,,,,,"meters","310089317.8","meters","11.209","deg","198.969","ddeg","45.93951963","ddeg","-129.97362514",,,,,,"PilotCam",,"BrowCam",,"UserSelect",,"SciCam",,"/PilotCam.20230917_013816731.jpg",,"/BrowCam.20230917_013816731.jpg",,"/UserSelect.20230917_013816731.jpg",,"/SciCam.20230917_013816731.jpg","meters","0.00","meters","7.75","deg","198.95","ddeg","23.3549962","meters","8629545.01","meters","-2507707.14","ddeg","-18.7935030","deg","-4.0","deg","2.8","degC","17.58","degC","-999.99","degC","-999.99","degC","-999.99"
"650658a619a182001b1d61f4","2023-09-17T01:38:46.777Z","ASNAP","admin","",,,,,,,,"meters","302848144.3","meters","11.209","deg","198.902","ddeg","45.93951963","ddeg","-129.97362514",,,,,,"PilotCam",,"BrowCam",,"UserSelect",,"SciCam",,"/PilotCam.20230917_013846777.jpg",,"/BrowCam.20230917_013846777.jpg",,"/UserSelect.20230917_013846777.jpg",,"/SciCam.20230917_013846777.jpg","meters","0.00","meters","9.02","deg","198.92","ddeg","4.0471183","meters","10232000.82","meters","-4653758.49","ddeg","1.8615325","deg","-4.2","deg","-0.0","degC","17.55","degC","-999.99","degC","-999.99","degC","-999.99"
"650658c419a182001b1d61f8","2023-09-17T01:39:16.802Z","ASNAP","admin","",,,,,,,,"meters","295720587.5","meters","10.753","deg","198.201","ddeg","45.93951889","ddeg","-129.97362745",,,,,,"PilotCam",,"BrowCam",,"UserSelect",,"SciCam",,"/PilotCam.20230917_013916802.jpg",,"/BrowCam.20230917_013916802.jpg",,"/UserSelect.20230917_013916802.jpg",,"/SciCam.20230917_013916802.jpg","meters","0.00","meters","10.76","deg","198.07","ddeg","4.0471770","meters","10232004.53","meters","-4653751.97","ddeg","1.8615804","deg","-2.9","deg","-1.5","degC","17.64","degC","-999.99","degC","-999.99","degC","-999.99"
"650658dc19a182001b1d61fc","2023-09-17T01:39:40.878Z","ROV Actions","guest","on","First Football on",,,,,,,"meters","290099742.5","meters","11.137","deg","199.171","ddeg","45.93951110","ddeg","-129.97364219",,,,,,"PilotCam",,"BrowCam",,"UserSelect",,"SciCam",,"/PilotCam.20230917_013940878.jpg",,"/BrowCam.20230917_013940878.jpg",,"/UserSelect.20230917_013940878.jpg",,"/SciCam.20230917_013940878.jpg","meters","0.00","meters","11.14","deg","199.15","ddeg","4.0472221","meters","10232006.40","meters","-4653746.96","ddeg","1.8616045","deg","-4.4","deg","-0.7","degC","17.61","degC","-999.99","degC","-999.99","degC","-999.99"
"650658e219a182001b1d6200","2023-09-17T01:39:46.848Z","ASNAP","admin","",,,,,,,,"meters","288705749.2","meters","11.155","deg","198.978","ddeg","45.93950663","ddeg","-129.97364700",,,,,,"PilotCam",,"BrowCam",,"UserSelect",,"SciCam",,"/PilotCam.20230917_013946848.jpg",,"/BrowCam.20230917_013946848.jpg",,"/UserSelect.20230917_013946848.jpg",,"/SciCam.20230917_013946848.jpg","meters","0.00","meters","11.16","deg","198.95","ddeg","4.0472270","meters","10232006.84","meters","-4653746.41","ddeg","1.8616101","deg","-4.1","deg","0.4","degC","17.50","degC","-999.99","degC","-999.99","degC","-999.99"
"6506590019a182001b1d6204","2023-09-17T01:40:16.867Z","ASNAP","admin","",,,,,,,,"meters","281802730.8","meters","12.477","deg","199.183","ddeg","45.93947677","ddeg","-129.97366517",,,,,,"PilotCam",,"BrowCam",,"UserSelect",,"SciCam",,"/PilotCam.20230917_014016867.jpg",,"/BrowCam.20230917_014016867.jpg",,"/UserSelect.20230917_014016867.jpg",,"/SciCam.20230917_014016867.jpg","meters","0.00","meters","12.48","deg","199.20","ddeg","4.0472483","meters","10232009.16","meters","-4653744.04","ddeg","1.8616400","deg","-3.9","deg","1.5","degC","17.54","degC","-999.99","degC","-999.99","degC","-999.99"
"6506591e19a182001b1d6208","2023-09-17T01:40:46.915Z","ASNAP","admin","",,,,,,,,"meters","275010634.0","meters","13.941","deg","198.912","ddeg","45.93945568","ddeg","-129.97366755",,,,,,"PilotCam",,"BrowCam",,"UserSelect",,"SciCam",,"/PilotCam.20230917_014046915.jpg",,"/BrowCam.20230917_014046915.jpg",,"/UserSelect.20230917_014046915.jpg",,"/SciCam.20230917_014046915.jpg","meters","0.00","meters","13.92","deg","198.93","ddeg","3.5992116","meters","11718232.43","meters","-4703542.88","ddeg","21.0184831","deg","-2.7","deg","2.0","degC","17.53","degC","-999.99","degC","-999.99","degC","-999.99"
"6506593c19a182001b1d620c","2023-09-17T01:41:16.964Z","ASNAP","admin","",,,,,,,,"meters","268328560.3","meters","16.247","deg","199.278","ddeg","45.93943923","ddeg","-129.97366702",,,,,,"PilotCam",,"BrowCam",,"UserSelect",,"SciCam",,"/PilotCam.20230917_014116964.jpg",,"/BrowCam.20230917_014116964.jpg",,"/UserSelect.20230917_014116964.jpg",,"/SciCam.20230917_014116964.jpg","meters","0.00","meters","16.26","deg","199.28","ddeg","5.7928611","meters","11329985.37","meters","-4459720.92","ddeg","16.0141287","deg","-3.7","deg","0.5","degC","17.56","degC","-999.99","degC","-999.99","degC","-999.99"
"6506595b19a182001b1d6210","2023-09-17T01:41:47.010Z","ASNAP","admin","",,,,,,,,"meters","261538382.0","meters","19.197","deg","198.769","ddeg","45.93941771","ddeg","-129.97366881",,,,,,"PilotCam",,"BrowCam",,"UserSelect",,"SciCam",,"/PilotCam.20230917_014147010.jpg",,"/BrowCam.20230917_014147010.jpg",,"/UserSelect.20230917_014147010.jpg",,"/SciCam.20230917_014147010.jpg","meters","0.00","meters","18.98","deg","199.14","ddeg","7.5977002","meters","10649527.09","meters","-4259114.86","ddeg","7.2432846","deg","-1.7","deg","-1.5","degC","17.57","degC","-999.99","degC","-999.99","degC","-999.99"
"6506597919a182001b1d6214","2023-09-17T01:42:17.056Z","ASNAP","admin","",,,,,,,,"meters","255077251.5","meters","21.672","deg","198.994","ddeg","45.93939310","ddeg","-129.97367252",,,,,,"PilotCam",,"BrowCam",,"UserSelect",,"SciCam",,"/PilotCam.20230917_014217056.jpg",,"/BrowCam.20230917_014217056.jpg",,"/UserSelect.20230917_014217056.jpg",,"/SciCam.20230917_014217056.jpg","meters","0.00","meters","21.44","deg","198.91","ddeg","10.0049674","meters","10294340.13","meters","-3991549.52","ddeg","2.6650621","deg","-2.1","deg","1.7","degC","17.64","degC","-999.99","degC","-999.99","degC","-999.99"
"6506599719a182001b1d6218","2023-09-17T01:42:47.127Z","ASNAP","admin","",,,,,,,,"meters","248723418.9","meters","24.595","deg","198.430","ddeg","45.93937400","ddeg","-129.97367698",,,,,,"PilotCam",,"BrowCam",,"UserSelect",,"SciCam",,"/PilotCam.20230917_014247127.jpg",,"/BrowCam.20230917_014247127.jpg",,"/UserSelect.20230917_014247127.jpg",,"/SciCam.20230917_014247127.jpg","meters","0.00","meters","24.53","deg","198.44","ddeg","6.5189186","meters","10487715.66","meters","-4379020.36","ddeg","5.1575979","deg","-3.8","deg","1.0","degC","17.52","degC","-999.99","degC","-999.99","degC","-999.99"
"650659b519a182001b1d6220","2023-09-17T01:43:17.197Z","ASNAP","admin","",,,,,,,,"meters","242475985.9","meters","27.360","deg","198.211","ddeg","45.93938137","ddeg","-129.97368040",,,,,,"PilotCam",,"BrowCam",,"UserSelect",,"SciCam",,"/PilotCam.20230917_014317197.jpg",,"/BrowCam.20230917_014317197.jpg",,"/UserSelect.20230917_014317197.jpg",,"/SciCam.20230917_014317197.jpg","meters","0.00","meters","27.34","deg","198.18","ddeg","16.4472495","meters","10685697.15","meters","-3275496.29","ddeg","7.7095027","deg","-4.0","deg","0.5","degC","17.55","degC","-999.99","degC","-999.99","degC","-999.99"
"650659b819a182001b1d6224","2023-09-17T01:43:20.561Z","Site Interactions","guest","CTD instrument number is CTDPFB306",,"J2-1560 -- Swap CTDPFB306 at MJ03E",,"Eastern Caldera",,,,"meters","241857059.9","meters","27.417","deg","198.478","ddeg","45.93938383","ddeg","-129.97368156",,,,,,"PilotCam",,"BrowCam",,"UserSelect",,"SciCam",,"/PilotCam.20230917_014320561.jpg",,"/BrowCam.20230917_014320561.jpg",,"/UserSelect.20230917_014320561.jpg",,"/SciCam.20230917_014320561.jpg","meters","0.00","meters","27.42","deg","198.47","ddeg","16.4472495","meters","10685697.15","meters","-3275496.29","ddeg","7.7095027","deg","-3.6","deg","0.6","degC","17.51","degC","-999.99","degC","-999.99","degC","-999.99"
"650659d319a182001b1d6228","2023-09-17T01:43:47.223Z","ASNAP","admin","",,,,,,,,"meters","236334054.0","meters","27.572","deg","198.703","ddeg","45.93940252","ddeg","-129.97370899",,,,,,"PilotCam",,"BrowCam",,"UserSelect",,"SciCam",,"/PilotCam.20230917_014347223.jpg",,"/BrowCam.20230917_014347223.jpg",,"/UserSelect.20230917_014347223.jpg",,"/SciCam.20230917_014347223.jpg","meters","0.00","meters","27.58","deg","199.03","ddeg","21.1698445","meters","9908620.06","meters","-2750584.57","ddeg","-2.3067204","deg","-4.3","deg","0.4","degC","17.33","degC","-999.99","degC","-999.99","degC","-999.99"
"650659f119a182001b1d622c","2023-09-17T01:44:17.266Z","ASNAP","admin","",,,,,,,,"meters","230296724.8","meters","27.943","deg","198.833","ddeg","45.93939130","ddeg","-129.97373994",,,,,,"PilotCam",,"BrowCam",,"UserSelect",,"SciCam",,"/PilotCam.20230917_014417266.jpg",,"/BrowCam.20230917_014417266.jpg",,"/UserSelect.20230917_014417266.jpg",,"/SciCam.20230917_014417266.jpg","meters","0.00","meters","27.81","deg","198.89","ddeg","19.5080175","meters","9675637.13","meters","-2935294.99","ddeg","-5.3097802","deg","-4.1","deg","0.3","degC","17.43","degC","-999.99","degC","-999.99","degC","-999.99"
"65065a0f19a182001b1d6230","2023-09-17T01:44:47.300Z","ASNAP","admin","",,,,,,,,"meters","224363100.0","meters","40.165","deg","198.522","ddeg","45.93937934","ddeg","-129.97374569",,,,,,"PilotCam",,"BrowCam",,"UserSelect",,"SciCam",,"/PilotCam.20230917_014447300.jpg",,"/BrowCam.20230917_014447300.jpg",,"/UserSelect.20230917_014447300.jpg",,"/SciCam.20230917_014447300.jpg","meters","0.00","meters","39.93","deg","198.56","ddeg","19.5080175","meters","9675637.13","meters","-2935294.99","ddeg","-5.3097802","deg","-4.3","deg","0.3","degC","16.23","degC","-999.99","degC","-999.99","degC","-999.99"
"65065a2519a182001b1d6234","2023-09-17T01:45:09.580Z","ROV Actions","guest","off","Last Football on",,,,,,,"meters","220077164.7","meters","47.361","deg","198.370","ddeg","45.93938860","ddeg","-129.97372111",,,,,,"PilotCam",,"BrowCam",,"UserSelect",,"SciCam",,"/PilotCam.20230917_014509580.jpg",,"/BrowCam.20230917_014509580.jpg",,"/UserSelect.20230917_014509580.jpg",,"/SciCam.20230917_014509580.jpg","meters","0.00","meters","47.43","deg","198.38","ddeg","19.5080175","meters","9675637.13","meters","-2935294.99","ddeg","-5.3097802","deg","-3.7","deg","0.4","degC","12.98","degC","-999.99","degC","-999.99","degC","-999.99"
"65065a2d19a182001b1d6238","2023-09-17T01:45:17.326Z","ASNAP","admin","",,,,,,,,"meters","218532281.0","meters","50.169","deg","198.430","ddeg","45.93939311","ddeg","-129.97370559",,,,,,"PilotCam",,"BrowCam",,"UserSelect",,"SciCam",,"/PilotCam.20230917_014517326.jpg",,"/BrowCam.20230917_014517326.jpg",,"/UserSelect.20230917_014517326.jpg",,"/SciCam.20230917_014517326.jpg","meters","0.00","meters","49.87","deg","198.42","ddeg","19.5080175","meters","9675637.13","meters","-2935294.99","ddeg","-5.3097802","deg","-4.0","deg","0.4","degC","12.16","degC","-999.99","degC","-999.99","degC","-999.99"
"65065a4b19a182001b1d623c","2023-09-17T01:45:47.354Z","ASNAP","admin","",,,,,,,,"meters","212803369.5","meters","60.808","deg","198.180","ddeg","45.93938779","ddeg","-129.97365507",,,,,,"PilotCam",,"BrowCam",,"UserSelect",,"SciCam",,"/PilotCam.20230917_014547354.jpg",,"/BrowCam.20230917_014547354.jpg",,"/UserSelect.20230917_014547354.jpg",,"/SciCam.20230917_014547354.jpg","meters","0.00","meters","60.87","deg","198.18","ddeg","19.5080175","meters","9675637.13","meters","-2935294.99","ddeg","-5.3097802","deg","-3.9","deg","0.5","degC","9.39","degC","-999.99","degC","-999.99","degC","-999.99"
"65065a6919a182001b1d6240","2023-09-17T01:46:17.397Z","ASNAP","admin","",,,,,,,,"meters","207175467.2","meters","69.110","deg","198.631","ddeg","45.93933992","ddeg","-129.97365940",,,,,,"PilotCam",,"BrowCam",,"UserSelect",,"SciCam",,"/PilotCam.20230917_014617397.jpg",,"/BrowCam.20230917_014617397.jpg",,"/UserSelect.20230917_014617397.jpg",,"/SciCam.20230917_014617397.jpg","meters","0.00","meters","69.16","deg","198.61","ddeg","19.5080175","meters","9675637.13","meters","-2935294.99","ddeg","-5.3097802","deg","-3.5","deg","0.1","degC","8.07","degC","-999.99","degC","-999.99","degC","-999.99"
"65065a8719a182001b1d6244","2023-09-17T01:46:47.443Z","ASNAP","admin","",,,,,,,,"meters","201647675.4","meters","79.788","deg","231.550","ddeg","45.93930112","ddeg","-129.97365616",,,,,,"PilotCam",,"BrowCam",,"UserSelect",,"SciCam",,"/PilotCam.20230917_014647443.jpg",,"/BrowCam.20230917_014647443.jpg",,"/UserSelect.20230917_014647443.jpg",,"/SciCam.20230917_014647443.jpg","meters","0.00","meters","79.87","deg","231.61","ddeg","19.5080175","meters","9675637.13","meters","-2935294.99","ddeg","-5.3097802","deg","-3.9","deg","0.7","degC","7.65","degC","-999.99","degC","-999.99","degC","-999.99"
"65065aa519a182001b1d6248","2023-09-17T01:47:17.459Z","ASNAP","admin","",,,,,,,,"meters","196219096.0","meters","91.436","deg","263.238","ddeg","45.93928407","ddeg","-129.97363688",,,,,,"PilotCam",,"BrowCam",,"UserSelect",,"SciCam",,"/PilotCam.20230917_014717459.jpg",,"/BrowCam.20230917_014717459.jpg",,"/UserSelect.20230917_014717459.jpg",,"/SciCam.20230917_014717459.jpg","meters","0.00","meters","91.48","deg","264.41","ddeg","19.5080175","meters","9675637.13","meters","-2935294.99","ddeg","-5.3097802","deg","-3.9","deg","0.9","degC","7.52","degC","-999.99","degC","-999.99","degC","-999.99"
"65065ac319a182001b1d624c","2023-09-17T01:47:47.504Z","ASNAP","admin","",,,,,,,,"meters","190888830.3","meters","101.382","deg","271.768","ddeg","45.93927325","ddeg","-129.97363591",,,,,,"PilotCam",,"BrowCam",,"UserSelect",,"SciCam",,"/PilotCam.20230917_014747504.jpg",,"/BrowCam.20230917_014747504.jpg",,"/UserSelect.20230917_014747504.jpg",,"/SciCam.20230917_014747504.jpg","meters","0.00","meters","101.44","deg","271.78","ddeg","19.5080175","meters","9675637.13","meters","-2935294.99","ddeg","-5.3097802","deg","-3.7","deg","1.0","degC","7.17","degC","-999.99","degC","-999.99","degC","-999.99"
"65065ae119a182001b1d6250","2023-09-17T01:48:17.549Z","ASNAP","admin","",,,,,,,,"meters","185655980.1","meters","111.072","deg","271.580","ddeg","45.93925377","ddeg","-129.97365788",,,,,,"PilotCam",,"BrowCam",,"UserSelect",,"SciCam",,"/PilotCam.20230917_014817549.jpg",,"/BrowCam.20230917_014817549.jpg",,"/UserSelect.20230917_014817549.jpg",,"/SciCam.20230917_014817549.jpg","meters","0.00","meters","111.13","deg","271.57","ddeg","19.5080175","meters","9675637.13","meters","-2935294.99","ddeg","-5.3097802","deg","-3.2","deg","0.4","degC","6.99","degC","-999.99","degC","-999.99","degC","-999.99"
"65065aff19a182001b1d6254","2023-09-17T01:48:47.566Z","ASNAP","admin","",,,,,,,,"meters","180519646.9","meters","120.093","deg","272.130","ddeg","45.93924631","ddeg","-129.97370704",,,,,,"PilotCam",,"BrowCam",,"UserSelect",,"SciCam",,"/PilotCam.20230917_014847566.jpg",,"/BrowCam.20230917_014847566.jpg",,"/UserSelect.20230917_014847566.jpg",,"/SciCam.20230917_014847566.jpg","meters","0.00","meters","120.15","deg","272.13","ddeg","19.5080175","meters","9675637.13","meters","-2935294.99","ddeg","-5.3097802","deg","-3.2","deg","0.2","degC","6.85","degC","-999.99","degC","-999.99","degC","-999.99"
"65065b1d19a182001b1d6258","2023-09-17T01:49:17.589Z","ASNAP","admin","",,,,,,,,"meters","175478932.3","meters","122.650","deg","272.040","ddeg","45.93927179","ddeg","-129.97374957",,,,,,"PilotCam",,"BrowCam",,"UserSelect",,"SciCam",,"/PilotCam.20230917_014917589.jpg",,"/BrowCam.20230917_014917589.jpg",,"/UserSelect.20230917_014917589.jpg",,"/SciCam.20230917_014917589.jpg","meters","0.00","meters","122.65","deg","272.05","ddeg","19.5080175","meters","9675637.13","meters","-2935294.99","ddeg","-5.3097802","deg","-4.1","deg","0.6","degC","6.83","degC","-999.99","degC","-999.99","degC","-999.99"
"65065b3b19a182001b1d625c","2023-09-17T01:49:47.632Z","ASNAP","admin","",,,,,,,,"meters","170532937.9","meters","122.867","deg","272.290","ddeg","45.93931824","ddeg","-129.97377432",,,,,,"PilotCam",,"BrowCam",,"UserSelect",,"SciCam",,"/PilotCam.20230917_014947632.jpg",,"/BrowCam.20230917_014947632.jpg",,"/UserSelect.20230917_014947632.jpg",,"/SciCam.20230917_014947632.jpg","meters","0.00","meters","122.87","deg","272.28","ddeg","19.5080175","meters","9675637.13","meters","-2935294.99","ddeg","-5.3097802","deg","-4.1","deg","0.7","degC","6.78","degC","-999.99","degC","-999.99","degC","-999.99"
"65065b5919a182001b1d6260","2023-09-17T01:50:17.677Z","ASNAP","admin","",,,,,,,,"meters","165680765.3","meters","128.392","deg","271.609","ddeg","45.93934254","ddeg","-129.97379106",,,,,,"PilotCam",,"BrowCam",,"UserSelect",,"SciCam",,"/PilotCam.20230917_015017677.jpg",,"/BrowCam.20230917_015017677.jpg",,"/UserSelect.20230917_015017677.jpg",,"/SciCam.20230917_015017677.jpg","meters","0.00","meters","128.12","deg","271.58","ddeg","19.5080175","meters","9675637.13","meters","-2935294.99","ddeg","-5.3097802","deg","-3.3","deg","0.4","degC","6.83","degC","-999.99","degC","-999.99","degC","-999.99"
"65065b7719a182001b1d6264","2023-09-17T01:50:47.705Z","ASNAP","admin","",,,,,,,,"meters","160921516.0","meters","138.305","deg","271.620","ddeg","45.93936085","ddeg","-129.97381501",,,,,,"PilotCam",,"BrowCam",,"UserSelect",,"SciCam",,"/PilotCam.20230917_015047705.jpg",,"/BrowCam.20230917_015047705.jpg",,"/UserSelect.20230917_015047705.jpg",,"/SciCam.20230917_015047705.jpg","meters","0.00","meters","138.37","deg","271.61","ddeg","19.5080175","meters","9675637.13","meters","-2935294.99","ddeg","-5.3097802","deg","-3.5","deg","0.3","degC","6.69","degC","-999.99","degC","-999.99","degC","-999.99"
"65065b9519a182001b1d6268","2023-09-17T01:51:17.748Z","ASNAP","admin","",,,,,,,,"meters","156254291.7","meters","144.978","deg","272.569","ddeg","45.93938250","ddeg","-129.97383929",,,,,,"PilotCam",,"BrowCam",,"UserSelect",,"SciCam",,"/PilotCam.20230917_015117748.jpg",,"/BrowCam.20230917_015117748.jpg",,"/UserSelect.20230917_015117748.jpg",,"/SciCam.20230917_015117748.jpg","meters","0.00","meters","144.98","deg","272.58","ddeg","19.5080175","meters","9675637.13","meters","-2935294.99","ddeg","-5.3097802","deg","-4.1","deg","0.8","degC","6.72","degC","-999.99","degC","-999.99","degC","-999.99"
"65065bb319a182001b1d626c","2023-09-17T01:51:47.794Z","ASNAP","admin","",,,,,,,,"meters","151678194.0","meters","145.942","deg","271.668","ddeg","45.93940714","ddeg","-129.97384272",,,,,,"PilotCam",,"BrowCam",,"UserSelect",,"SciCam",,"/PilotCam.20230917_015147794.jpg",,"/BrowCam.20230917_015147794.jpg",,"/UserSelect.20230917_015147794.jpg",,"/SciCam.20230917_015147794.jpg","meters","0.00","meters","145.97","deg","271.66","ddeg","19.5080175","meters","9675637.13","meters","-2935294.99","ddeg","-5.3097802","deg","-3.6","deg","0.4","degC","6.59","degC","-999.99","degC","-999.99","degC","-999.99"
"65065bd119a182001b1d6270","2023-09-17T01:52:17.839Z","ASNAP","admin","",,,,,,,,"meters","147192324.3","meters","161.083","deg","271.551","ddeg","45.93941655","ddeg","-129.97380326",,,,,,"PilotCam",,"BrowCam",,"UserSelect",,"SciCam",,"/PilotCam.20230917_015217839.jpg",,"/BrowCam.20230917_015217839.jpg",,"/UserSelect.20230917_015217839.jpg",,"/SciCam.20230917_015217839.jpg","meters","0.00","meters","161.20","deg","271.58","ddeg","19.5080175","meters","9675637.13","meters","-2935294.99","ddeg","-5.3097802","deg","-3.4","deg","1.1","degC","6.33","degC","-999.99","degC","-999.99","degC","-999.99"
"65065bef19a182001b1d6274","2023-09-17T01:52:47.882Z","ASNAP","admin","",,,,,,,,"meters","142795784.4","meters","176.105","deg","271.612","ddeg","45.93941468","ddeg","-129.97378431",,,,,,"PilotCam",,"BrowCam",,"UserSelect",,"SciCam",,"/PilotCam.20230917_015247882.jpg",,"/BrowCam.20230917_015247882.jpg",,"/UserSelect.20230917_015247882.jpg",,"/SciCam.20230917_015247882.jpg","meters","0.00","meters","176.20","deg","271.61","ddeg","19.5080175","meters","9675637.13","meters","-2935294.99","ddeg","-5.3097802","deg","-2.6","deg","0.2","degC","6.50","degC","-999.99","degC","-999.99","degC","-999.99"
"65065c0d19a182001b1d6278","2023-09-17T01:53:17.927Z","ASNAP","admin","",,,,,,,,"meters","138487675.8","meters","189.410","deg","271.390","ddeg","45.93942413","ddeg","-129.97380760",,,,,,"PilotCam",,"BrowCam",,"UserSelect",,"SciCam",,"/PilotCam.20230917_015317927.jpg",,"/BrowCam.20230917_015317927.jpg",,"/UserSelect.20230917_015317927.jpg",,"/SciCam.20230917_015317927.jpg","meters","0.00","meters","189.47","deg","271.39","ddeg","19.5080175","meters","9675637.13","meters","-2935294.99","ddeg","-5.3097802","deg","-3.2","deg","0.5","degC","6.10","degC","-999.99","degC","-999.99","degC","-999.99"
"65065c2b19a182001b1d627c","2023-09-17T01:53:47.947Z","ASNAP","admin","",,,,,,,,"meters","134267100.0","meters","204.076","deg","271.570","ddeg","45.93942746","ddeg","-129.97383075",,,,,,"PilotCam",,"BrowCam",,"UserSelect",,"SciCam",,"/PilotCam.20230917_015347947.jpg",,"/BrowCam.20230917_015347947.jpg",,"/UserSelect.20230917_015347947.jpg",,"/SciCam.20230917_015347947.jpg","meters","0.00","meters","204.16","deg","271.58","ddeg","19.5080175","meters","9675637.13","meters","-2935294.99","ddeg","-5.3097802","deg","-3.0","deg","0.4","degC","6.02","degC","-999.99","degC","-999.99","degC","-999.99"
"65065c4919a182001b1d6280","2023-09-17T01:54:17.962Z","ASNAP","admin","",,,,,,,,"meters","130133158.8","meters","218.116","deg","271.668","ddeg","45.93942404","ddeg","-129.97385521",,,,,,"PilotCam",,"BrowCam",,"UserSelect",,"SciCam",,"/PilotCam.20230917_015417962.jpg",,"/BrowCam.20230917_015417962.jpg",,"/UserSelect.20230917_015417962.jpg",,"/SciCam.20230917_015417962.jpg","meters","0.00","meters","218.20","deg","271.67","ddeg","19.5080175","meters","9675637.13","meters","-2935294.99","ddeg","-5.3097802","deg","-3.2","deg","0.2","degC","5.75","degC","-999.99","degC","-999.99","degC","-999.99"
"65065c6719a182001b1d6284","2023-09-17T01:54:47.979Z","ASNAP","admin","",,,,,,,,"meters","126084953.6","meters","232.006","deg","271.752","ddeg","45.93942979","ddeg","-129.97388227",,,,,,"PilotCam",,"BrowCam",,"UserSelect",,"SciCam",,"/PilotCam.20230917_015447979.jpg",,"/BrowCam.20230917_015447979.jpg",,"/UserSelect.20230917_015447979.jpg",,"/SciCam.20230917_015447979.jpg","meters","0.00","meters","232.06","deg","271.75","ddeg","19.5080175","meters","9675637.13","meters","-2935294.99","ddeg","-5.3097802","deg","-3.2","deg","0.1","degC","5.62","degC","-999.99","degC","-999.99","degC","-999.99"
"65065c8619a182001b1d6288","2023-09-17T01:55:18.023Z","ASNAP","admin","",,,,,,,,"meters","121990924.4","meters","246.604","deg","271.658","ddeg","45.93944202","ddeg","-129.97390535",,,,,,"PilotCam",,"BrowCam",,"UserSelect",,"SciCam",,"/PilotCam.20230917_015518023.jpg",,"/BrowCam.20230917_015518023.jpg",,"/UserSelect.20230917_015518023.jpg",,"/SciCam.20230917_015518023.jpg","meters","0.00","meters","246.19","deg","271.70","ddeg","19.5080175","meters","9675637.13","meters","-2935294.99","ddeg","-5.3097802","deg","-3.2","deg","0.1","degC","5.50","degC","-999.99","degC","-999.99","degC","-999.99"
"65065ca419a182001b1d628c","2023-09-17T01:55:48.050Z","ASNAP","admin","",,,,,,,,"meters","118114278.6","meters","260.654","deg","271.830","ddeg","45.93945529","ddeg","-129.97392966",,,,,,"PilotCam",,"BrowCam",,"UserSelect",,"SciCam",,"/PilotCam.20230917_015548050.jpg",,"/BrowCam.20230917_015548050.jpg",,"/UserSelect.20230917_015548050.jpg",,"/SciCam.20230917_015548050.jpg","meters","0.00","meters","260.26","deg","271.79","ddeg","19.5080175","meters","9675637.13","meters","-2935294.99","ddeg","-5.3097802","deg","-3.0","deg","0.2","degC","5.20","degC","-999.99","degC","-999.99","degC","-999.99"
"65065cc219a182001b1d6290","2023-09-17T01:56:18.122Z","ASNAP","admin","",,,,,,,,"meters","114320643.6","meters","273.275","deg","271.711","ddeg","45.93946340","ddeg","-129.97396781",,,,,,"PilotCam",,"BrowCam",,"UserSelect",,"SciCam",,"/PilotCam.20230917_015618122.jpg",,"/BrowCam.20230917_015618122.jpg",,"/UserSelect.20230917_015618122.jpg",,"/SciCam.20230917_015618122.jpg","meters","0.00","meters","272.94","deg","271.71","ddeg","19.5080175","meters","9675637.13","meters","-2935294.99","ddeg","-5.3097802","deg","-3.3","deg","0.5","degC","5.19","degC","-999.99","degC","-999.99","degC","-999.99"
"65065ce019a182001b1d6294","2023-09-17T01:56:48.187Z","ASNAP","admin","",,,,,,,,"meters","110609121.2","meters","285.973","deg","271.690","ddeg","45.93946197","ddeg","-129.97399579",,,,,,"PilotCam",,"BrowCam",,"UserSelect",,"SciCam",,"/PilotCam.20230917_015648187.jpg",,"/BrowCam.20230917_015648187.jpg",,"/UserSelect.20230917_015648187.jpg",,"/SciCam.20230917_015648187.jpg","meters","0.00","meters","285.61","deg","271.68","ddeg","19.5080175","meters","9675637.13","meters","-2935294.99","ddeg","-5.3097802","deg","-3.2","deg","0.4","degC","5.06","degC","-999.99","degC","-999.99","degC","-999.99"
"65065cfe19a182001b1d6298","2023-09-17T01:57:18.237Z","ASNAP","admin","",,,,,,,,"meters","106978812.8","meters","298.593","deg","271.789","ddeg","45.93945205","ddeg","-129.97401155",,,,,,"PilotCam",,"BrowCam",,"UserSelect",,"SciCam",,"/PilotCam.20230917_015718237.jpg",,"/BrowCam.20230917_015718237.jpg",,"/UserSelect.20230917_015718237.jpg",,"/SciCam.20230917_015718237.jpg","meters","0.00","meters","298.23","deg","271.78","ddeg","19.5080175","meters","9675637.13","meters","-2935294.99","ddeg","-5.3097802","deg","-3.3","deg","0.4","degC","5.07","degC","-999.99","degC","-999.99","degC","-999.99"
"65065d1c19a182001b1d629c","2023-09-17T01:57:48.282Z","ASNAP","admin","",,,,,,,,"meters","103428820.0","meters","311.177","deg","271.663","ddeg","45.93943912","ddeg","-129.97402609",,,,,,"PilotCam",,"BrowCam",,"UserSelect",,"SciCam",,"/PilotCam.20230917_015748282.jpg",,"/BrowCam.20230917_015748282.jpg",,"/UserSelect.20230917_015748282.jpg",,"/SciCam.20230917_015748282.jpg","meters","0.00","meters","310.82","deg","271.68","ddeg","19.5080175","meters","9675637.13","meters","-2935294.99","ddeg","-5.3097802","deg","-3.3","deg","0.4","degC","4.93","degC","-999.99","degC","-999.99","degC","-999.99"
"65065d3a19a182001b1d62a0","2023-09-17T01:58:18.341Z","ASNAP","admin","",,,,,,,,"meters","99958244.5","meters","323.751","deg","271.690","ddeg","45.93943197","ddeg","-129.97404432",,,,,,"PilotCam",,"BrowCam",,"UserSelect",,"SciCam",,"/PilotCam.20230917_015818341.jpg",,"/BrowCam.20230917_015818341.jpg",,"/UserSelect.20230917_015818341.jpg",,"/SciCam.20230917_015818341.jpg","meters","0.00","meters","323.41","deg","271.71","ddeg","19.5080175","meters","9675637.13","meters","-2935294.99","ddeg","-5.3097802","deg","-3.2","deg","0.5","degC","4.77","degC","-999.99","degC","-999.99","degC","-999.99"
"65065d5819a182001b1d62a4","2023-09-17T01:58:48.411Z","ASNAP","admin","",,,,,,,,"meters","96566187.8","meters","336.397","deg","271.780","ddeg","45.93943001","ddeg","-129.97406955",,,,,,"PilotCam",,"BrowCam",,"UserSelect",,"SciCam",,"/PilotCam.20230917_015848411.jpg",,"/BrowCam.20230917_015848411.jpg",,"/UserSelect.20230917_015848411.jpg",,"/SciCam.20230917_015848411.jpg","meters","0.00","meters","336.44","deg","271.78","ddeg","19.5080175","meters","9675637.13","meters","-2935294.99","ddeg","-5.3097802","deg","-3.2","deg","0.4","degC","4.76","degC","-999.99","degC","-999.99","degC","-999.99"
"65065d7619a182001b1d62a8","2023-09-17T01:59:18.470Z","ASNAP","admin","",,,,,,,,"meters","93251751.5","meters","349.089","deg","271.778","ddeg","45.93941970","ddeg","-129.97409718",,,,,,"PilotCam",,"BrowCam",,"UserSelect",,"SciCam",,"/PilotCam.20230917_015918470.jpg",,"/BrowCam.20230917_015918470.jpg",,"/UserSelect.20230917_015918470.jpg",,"/SciCam.20230917_015918470.jpg","meters","0.00","meters","349.15","deg","271.77","ddeg","19.5080175","meters","9675637.13","meters","-2935294.99","ddeg","-5.3097802","deg","-3.3","deg","0.4","degC","4.68","degC","-999.99","degC","-999.99","degC","-999.99"
"65065d9419a182001b1d62ac","2023-09-17T01:59:48.514Z","ASNAP","admin","",,,,,,,,"meters","90014037.2","meters","363.325","deg","304.494","ddeg","45.93940212","ddeg","-129.97408285",,,,,,"PilotCam",,"BrowCam",,"UserSelect",,"SciCam",,"/PilotCam.20230917_015948514.jpg",,"/BrowCam.20230917_015948514.jpg",,"/UserSelect.20230917_015948514.jpg",,"/SciCam.20230917_015948514.jpg","meters","0.00","meters","363.40","deg","305.28","ddeg","19.5080175","meters","9675637.13","meters","-2935294.99","ddeg","-5.3097802","deg","-4.2","deg","0.7","degC","4.64","degC","-999.99","degC","-999.99","degC","-999.99"
"65065db219a182001b1d62b0","2023-09-17T02:00:18.557Z","ASNAP","admin","",,,,,,,,"meters","86852146.5","meters","377.403","deg","317.398","ddeg","45.93938767","ddeg","-129.97403748",,,,,,"PilotCam",,"BrowCam",,"UserSelect",,"SciCam",,"/PilotCam.20230917_020018557.jpg",,"/BrowCam.20230917_020018557.jpg",,"/UserSelect.20230917_020018557.jpg",,"/SciCam.20230917_020018557.jpg","meters","0.00","meters","377.50","deg","317.38","ddeg","19.5080175","meters","9675637.13","meters","-2935294.99","ddeg","-5.3097802","deg","-3.9","deg","0.4","degC","4.53","degC","-999.99","degC","-999.99","degC","-999.99"
"65065dd019a182001b1d62b4","2023-09-17T02:00:48.599Z","ASNAP","admin","",,,,,,,,"meters","83765180.9","meters","391.632","deg","317.080","ddeg","45.93940180","ddeg","-129.97403788",,,,,,"PilotCam",,"BrowCam",,"UserSelect",,"SciCam",,"/PilotCam.20230917_020048599.jpg",,"/BrowCam.20230917_020048599.jpg",,"/UserSelect.20230917_020048599.jpg",,"/SciCam.20230917_020048599.jpg","meters","0.00","meters","391.69","deg","317.09","ddeg","19.5080175","meters","9675637.13","meters","-2935294.99","ddeg","-5.3097802","deg","-2.8","deg","0.5","degC","4.15","degC","-999.99","degC","-999.99","degC","-999.99"
"65065dee19a182001b1d62b8","2023-09-17T02:01:18.650Z","ASNAP","admin","",,,,,,,,"meters","80752242.1","meters","406.315","deg","317.297","ddeg","45.93943468","ddeg","-129.97407149",,,,,,"PilotCam",,"BrowCam",,"UserSelect",,"SciCam",,"/PilotCam.20230917_020118650.jpg",,"/BrowCam.20230917_020118650.jpg",,"/UserSelect.20230917_020118650.jpg",,"/SciCam.20230917_020118650.jpg","meters","0.00","meters","406.40","deg","317.30","ddeg","19.5080175","meters","9675637.13","meters","-2935294.99","ddeg","-5.3097802","deg","-2.6","deg","0.5","degC","4.64","degC","-999.99","degC","-999.99","degC","-999.99"
"65065e0c19a182001b1d62bc","2023-09-17T02:01:48.671Z","ASNAP","admin","",,,,,,,,"meters","77812431.7","meters","420.948","deg","317.091","ddeg","45.93947197","ddeg","-129.97411522",,,,,,"PilotCam",,"BrowCam",,"UserSelect",,"SciCam",,"/PilotCam.20230917_020148671.jpg",,"/BrowCam.20230917_020148671.jpg",,"/UserSelect.20230917_020148671.jpg",,"/SciCam.20230917_020148671.jpg","meters","0.00","meters","421.04","deg","317.08","ddeg","19.5080175","meters","9675637.13","meters","-2935294.99","ddeg","-5.3097802","deg","-2.5","deg","0.5","degC","4.05","degC","-999.99","degC","-999.99","degC","-999.99"
"65065e2a19a182001b1d62c0","2023-09-17T02:02:18.716Z","ASNAP","admin","",,,,,,,,"meters","74944851.2","meters","435.821","deg","317.199","ddeg","45.93950002","ddeg","-129.97415863",,,,,,"PilotCam",,"BrowCam",,"UserSelect",,"SciCam",,"/PilotCam.20230917_020218716.jpg",,"/BrowCam.20230917_020218716.jpg",,"/UserSelect.20230917_020218716.jpg",,"/SciCam.20230917_020218716.jpg","meters","0.00","meters","435.92","deg","317.19","ddeg","19.5080175","meters","9675637.13","meters","-2935294.99","ddeg","-5.3097802","deg","-2.4","deg","0.5","degC","3.82","degC","-999.99","degC","-999.99","degC","-999.99"
"65065e4819a182001b1d62c4","2023-09-17T02:02:48.761Z","ASNAP","admin","",,,,,,,,"meters","72148602.2","meters","450.979","deg","332.273","ddeg","45.93951206","ddeg","-129.97418167",,,,,,"PilotCam",,"BrowCam",,"UserSelect",,"SciCam",,"/PilotCam.20230917_020248761.jpg",,"/BrowCam.20230917_020248761.jpg",,"/UserSelect.20230917_020248761.jpg",,"/SciCam.20230917_020248761.jpg","meters","0.00","meters","451.05","deg","332.26","ddeg","19.5080175","meters","9675637.13","meters","-2935294.99","ddeg","-5.3097802","deg","-3.6","deg","0.5","degC","4.28","degC","-999.99","degC","-999.99","degC","-999.99"
"65065e6619a182001b1d62c8","2023-09-17T02:03:18.780Z","ASNAP","admin","",,,,,,,,"meters","69422786.3","meters","466.917","deg","332.162","ddeg","45.93952425","ddeg","-129.97419677",,,,,,"PilotCam",,"BrowCam",,"UserSelect",,"SciCam",,"/PilotCam.20230917_020318780.jpg",,"/BrowCam.20230917_020318780.jpg",,"/UserSelect.20230917_020318780.jpg",,"/SciCam.20230917_020318780.jpg","meters","0.00","meters","467.01","deg","332.18","ddeg","19.5080175","meters","9675637.13","meters","-2935294.99","ddeg","-5.3097802","deg","-2.6","deg","0.6","degC","4.18","degC","-999.99","degC","-999.99","degC","-999.99"
"65065e8419a182001b1d62cc","2023-09-17T02:03:48.800Z","ASNAP","admin","",,,,,,,,"meters","66766505.1","meters","481.228","deg","332.522","ddeg","45.93952430","ddeg","-129.97419682",,,,,,"PilotCam",,"BrowCam",,"UserSelect",,"SciCam",,"/PilotCam.20230917_020348800.jpg",,"/BrowCam.20230917_020348800.jpg",,"/UserSelect.20230917_020348800.jpg",,"/SciCam.20230917_020348800.jpg","meters","0.00","meters","481.31","deg","332.51","ddeg","19.5080175","meters","9675637.13","meters","-2935294.99","ddeg","-5.3097802","deg","-3.6","deg","0.6","degC","4.17","degC","-999.99","degC","-999.99","degC","-999.99"
"65065ea219a182001b1d62d0","2023-09-17T02:04:18.833Z","ASNAP","admin","",,,,,,,,"meters","64178860.1","meters","494.804","deg","332.281","ddeg","45.93953021","ddeg","-129.97419411",,,,,,"PilotCam",,"BrowCam",,"UserSelect",,"SciCam",,"/PilotCam.20230917_020418833.jpg",,"/BrowCam.20230917_020418833.jpg",,"/UserSelect.20230917_020418833.jpg",,"/SciCam.20230917_020418833.jpg","meters","0.00","meters","494.89","deg","332.26","ddeg","19.5080175","meters","9675637.13","meters","-2935294.99","ddeg","-5.3097802","deg","-3.2","deg","0.5","degC","4.13","degC","-999.99","degC","-999.99","degC","-999.99"
"65065ec019a182001b1d62d4","2023-09-17T02:04:48.866Z","ASNAP","admin","",,,,,,,,"meters","61658953.1","meters","508.201","deg","332.340","ddeg","45.93955535","ddeg","-129.97421453",,,,,,"PilotCam",,"BrowCam",,"UserSelect",,"SciCam",,"/PilotCam.20230917_020448866.jpg",,"/BrowCam.20230917_020448866.jpg",,"/UserSelect.20230917_020448866.jpg",,"/SciCam.20230917_020448866.jpg","meters","0.00","meters","508.26","deg","332.34","ddeg","19.5080175","meters","9675637.13","meters","-2935294.99","ddeg","-5.3097802","deg","-2.8","deg","0.4","degC","4.13","degC","-999.99","degC","-999.99","degC","-999.99"
"65065ede19a182001b1d62d8","2023-09-17T02:05:18.910Z","ASNAP","admin","",,,,,,,,"meters","59205885.5","meters","521.351","deg","332.317","ddeg","45.93958135","ddeg","-129.97423734",,,,,,"PilotCam",,"BrowCam",,"UserSelect",,"SciCam",,"/PilotCam.20230917_020518910.jpg",,"/BrowCam.20230917_020518910.jpg",,"/UserSelect.20230917_020518910.jpg",,"/SciCam.20230917_020518910.jpg","meters","0.00","meters","521.41","deg","332.32","ddeg","19.5080175","meters","9675637.13","meters","-2935294.99","ddeg","-5.3097802","deg","-2.9","deg","0.6","degC","4.13","degC","-999.99","degC","-999.99","degC","-999.99"
"65065efc19a182001b1d62dc","2023-09-17T02:05:48.956Z","ASNAP","admin","",,,,,,,,"meters","56818759.0","meters","534.901","deg","332.257","ddeg","45.93961091","ddeg","-129.97424915",,,,,,"PilotCam",,"BrowCam",,"UserSelect",,"SciCam",,"/PilotCam.20230917_020548956.jpg",,"/BrowCam.20230917_020548956.jpg",,"/UserSelect.20230917_020548956.jpg",,"/SciCam.20230917_020548956.jpg","meters","0.00","meters","534.98","deg","332.27","ddeg","19.5080175","meters","9675637.13","meters","-2935294.99","ddeg","-5.3097802","deg","-2.8","deg","0.4","degC","4.11","degC","-999.99","degC","-999.99","degC","-999.99"
"65065f1b19a182001b1d62e0","2023-09-17T02:06:19.002Z","ASNAP","admin","",,,,,,,,"meters","54420381.9","meters","549.182","deg","332.200","ddeg","45.93964686","ddeg","-129.97425625",,,,,,"PilotCam",,"BrowCam",,"UserSelect",,"SciCam",,"/PilotCam.20230917_020619002.jpg",,"/BrowCam.20230917_020619002.jpg",,"/UserSelect.20230917_020619002.jpg",,"/SciCam.20230917_020619002.jpg","meters","0.00","meters","548.81","deg","332.18","ddeg","19.5080175","meters","9675637.13","meters","-2935294.99","ddeg","-5.3097802","deg","-3.2","deg","0.5","degC","4.08","degC","-999.99","degC","-999.99","degC","-999.99"
"65065f3919a182001b1d62e4","2023-09-17T02:06:49.047Z","ASNAP","admin","",,,,,,,,"meters","52164564.9","meters","564.229","deg","332.280","ddeg","45.93967703","ddeg","-129.97427116",,,,,,"PilotCam",,"BrowCam",,"UserSelect",,"SciCam",,"/PilotCam.20230917_020649047.jpg",,"/BrowCam.20230917_020649047.jpg",,"/UserSelect.20230917_020649047.jpg",,"/SciCam.20230917_020649047.jpg","meters","0.00","meters","563.84","deg","332.29","ddeg","19.5080175","meters","9675637.13","meters","-2935294.99","ddeg","-5.3097802","deg","-2.8","deg","0.4","degC","3.95","degC","-999.99","degC","-999.99","degC","-999.99"
"65065f5719a182001b1d62e8","2023-09-17T02:07:19.074Z","ASNAP","admin","",,,,,,,,"meters","49971963.7","meters","579.474","deg","332.389","ddeg","45.93970323","ddeg","-129.97429003",,,,,,"PilotCam",,"BrowCam",,"UserSelect",,"SciCam",,"/PilotCam.20230917_020719074.jpg",,"/BrowCam.20230917_020719074.jpg",,"/UserSelect.20230917_020719074.jpg",,"/SciCam.20230917_020719074.jpg","meters","0.00","meters","579.09","deg","332.33","ddeg","19.5080175","meters","9675637.13","meters","-2935294.99","ddeg","-5.3097802","deg","-2.9","deg","0.4","degC","3.90","degC","-999.99","degC","-999.99","degC","-999.99"
"65065f7519a182001b1d62ec","2023-09-17T02:07:49.120Z","ASNAP","admin","",,,,,,,,"meters","47841680.0","meters","594.586","deg","332.212","ddeg","45.93972595","ddeg","-129.97430312",,,,,,"PilotCam",,"BrowCam",,"UserSelect",,"SciCam",,"/PilotCam.20230917_020749120.jpg",,"/BrowCam.20230917_020749120.jpg",,"/UserSelect.20230917_020749120.jpg",,"/SciCam.20230917_020749120.jpg","meters","0.00","meters","594.21","deg","332.27","ddeg","19.5080175","meters","9675637.13","meters","-2935294.99","ddeg","-5.3097802","deg","-2.9","deg","0.5","degC","3.89","degC","-999.99","degC","-999.99","degC","-999.99"
"65065f9319a182001b1d62f0","2023-09-17T02:08:19.168Z","ASNAP","admin","",,,,,,,,"meters","45772815.3","meters","610.282","deg","332.151","ddeg","45.93972412","ddeg","-129.97430342",,,,,,"PilotCam",,"BrowCam",,"UserSelect",,"SciCam",,"/PilotCam.20230917_020819168.jpg",,"/BrowCam.20230917_020819168.jpg",,"/UserSelect.20230917_020819168.jpg",,"/SciCam.20230917_020819168.jpg","meters","0.00","meters","609.92","deg","332.23","ddeg","19.5080175","meters","9675637.13","meters","-2935294.99","ddeg","-5.3097802","deg","-3.4","deg","0.6","degC","3.87","degC","-999.99","degC","-999.99","degC","-999.99"
"65065fb119a182001b1d62f4","2023-09-17T02:08:49.238Z","ASNAP","admin","",,,,,,,,"meters","43764471.3","meters","625.423","deg","332.290","ddeg","45.93972003","ddeg","-129.97428689",,,,,,"PilotCam",,"BrowCam",,"UserSelect",,"SciCam",,"/PilotCam.20230917_020849238.jpg",,"/BrowCam.20230917_020849238.jpg",,"/UserSelect.20230917_020849238.jpg",,"/SciCam.20230917_020849238.jpg","meters","0.00","meters","625.03","deg","332.31","ddeg","19.5080175","meters","9675637.13","meters","-2935294.99","ddeg","-5.3097802","deg","-3.3","deg","0.3","degC","3.79","degC","-999.99","degC","-999.99","degC","-999.99"
"65065fcf19a182001b1d62f8","2023-09-17T02:09:19.267Z","ASNAP","admin","",,,,,,,,"meters","41815749.4","meters","640.330","deg","332.239","ddeg","45.93972407","ddeg","-129.97426355",,,,,,"PilotCam",,"BrowCam",,"UserSelect",,"SciCam",,"/PilotCam.20230917_020919267.jpg",,"/BrowCam.20230917_020919267.jpg",,"/UserSelect.20230917_020919267.jpg",,"/SciCam.20230917_020919267.jpg","meters","0.00","meters","639.93","deg","332.20","ddeg","19.5080175","meters","9675637.13","meters","-2935294.99","ddeg","-5.3097802","deg","-3.3","deg","0.3","degC","3.68","degC","-999.99","degC","-999.99","degC","-999.99"
"65065fed19a182001b1d62fc","2023-09-17T02:09:49.329Z","ASNAP","admin","",,,,,,,,"meters","39925751.4","meters","655.244","deg","332.093","ddeg","45.93972097","ddeg","-129.97424357",,,,,,"PilotCam",,"BrowCam",,"UserSelect",,"SciCam",,"/PilotCam.20230917_020949329.jpg",,"/BrowCam.20230917_020949329.jpg",,"/UserSelect.20230917_020949329.jpg",,"/SciCam.20230917_020949329.jpg","meters","0.00","meters","654.89","deg","332.10","ddeg","19.5080175","meters","9675637.13","meters","-2935294.99","ddeg","-5.3097802","deg","-3.6","deg","0.6","degC","3.64","degC","-999.99","degC","-999.99","degC","-999.99"
"6506600b19a182001b1d6300","2023-09-17T02:10:19.369Z","ASNAP","admin","",,,,,,,,"meters","38093578.7","meters","669.677","deg","332.160","ddeg","45.93972619","ddeg","-129.97422750",,,,,,"PilotCam",,"BrowCam",,"UserSelect",,"SciCam",,"/PilotCam.20230917_021019369.jpg",,"/BrowCam.20230917_021019369.jpg",,"/UserSelect.20230917_021019369.jpg",,"/SciCam.20230917_021019369.jpg","meters","0.00","meters","669.30","deg","332.15","ddeg","19.5080175","meters","9675637.13","meters","-2935294.99","ddeg","-5.3097802","deg","-3.0","deg","0.3","degC","3.66","degC","-999.99","degC","-999.99","degC","-999.99"
"6506602919a182001b1d6304","2023-09-17T02:10:49.397Z","ASNAP","admin","",,,,,,,,"meters","36318333.0","meters","683.744","deg","332.362","ddeg","45.93973175","ddeg","-129.97421754",,,,,,"PilotCam",,"BrowCam",,"UserSelect",,"SciCam",,"/PilotCam.20230917_021049397.jpg",,"/BrowCam.20230917_021049397.jpg",,"/UserSelect.20230917_021049397.jpg",,"/SciCam.20230917_021049397.jpg","meters","0.00","meters","683.36","deg","332.32","ddeg","19.5080175","meters","9675637.13","meters","-2935294.99","ddeg","-5.3097802","deg","-3.6","deg","0.9","degC","3.73","degC","-999.99","degC","-999.99","degC","-999.99"
"6506604719a182001b1d6308","2023-09-17T02:11:19.441Z","ASNAP","admin","",,,,,,,,"meters","34599115.9","meters","697.460","deg","341.766","ddeg","45.93971837","ddeg","-129.97421591",,,,,,"PilotCam",,"BrowCam",,"UserSelect",,"SciCam",,"/PilotCam.20230917_021119441.jpg",,"/BrowCam.20230917_021119441.jpg",,"/UserSelect.20230917_021119441.jpg",,"/SciCam.20230917_021119441.jpg","meters","0.00","meters","697.59","deg","344.08","ddeg","19.5080175","meters","9675637.13","meters","-2935294.99","ddeg","-5.3097802","deg","-3.4","deg","-0.1","degC","3.42","degC","-999.99","degC","-999.99","degC","-999.99"
"6506606519a182001b1d630c","2023-09-17T02:11:49.512Z","ASNAP","admin","",,,,,,,,"meters","32935028.9","meters","712.613","deg","165.662","ddeg","45.93968884","ddeg","-129.97423789",,,,,,"PilotCam",,"BrowCam",,"UserSelect",,"SciCam",,"/PilotCam.20230917_021149512.jpg",,"/BrowCam.20230917_021149512.jpg",,"/UserSelect.20230917_021149512.jpg",,"/SciCam.20230917_021149512.jpg","meters","0.00","meters","712.81","deg","165.09","ddeg","19.5080175","meters","9675637.13","meters","-2935294.99","ddeg","-5.3097802","deg","-4.0","deg","-0.0","degC","3.71","degC","-999.99","degC","-999.99","degC","-999.99"
"6506608319a182001b1d6310","2023-09-17T02:12:19.565Z","ASNAP","admin","",,,,,,,,"meters","31325173.7","meters","725.676","deg","167.348","ddeg","45.93968502","ddeg","-129.97424373",,,,,,"PilotCam",,"BrowCam",,"UserSelect",,"SciCam",,"/PilotCam.20230917_021219565.jpg",,"/BrowCam.20230917_021219565.jpg",,"/UserSelect.20230917_021219565.jpg",,"/SciCam.20230917_021219565.jpg","meters","0.00","meters","725.77","deg","167.16","ddeg","19.5080175","meters","9675637.13","meters","-2935294.99","ddeg","-5.3097802","deg","-4.9","deg","0.6","degC","3.62","degC","-999.99","degC","-999.99","degC","-999.99"
"650660a119a182001b1d6314","2023-09-17T02:12:49.582Z","ASNAP","admin","",,,,,,,,"meters","29768651.8","meters","739.679","deg","166.529","ddeg","45.93967986","ddeg","-129.97423298",,,,,,"PilotCam",,"BrowCam",,"UserSelect",,"SciCam",,"/PilotCam.20230917_021249582.jpg",,"/BrowCam.20230917_021249582.jpg",,"/UserSelect.20230917_021249582.jpg",,"/SciCam.20230917_021249582.jpg","meters","0.00","meters","739.88","deg","166.51","ddeg","19.5080175","meters","9675637.13","meters","-2935294.99","ddeg","-5.3097802","deg","-3.8","deg","-0.0","degC","3.53","degC","-999.99","degC","-999.99","degC","-999.99"
"650660bf19a182001b1d6318","2023-09-17T02:13:19.603Z","ASNAP","admin","",,,,,,,,"meters","28264564.8","meters","753.420","deg","166.670","ddeg","45.93967024","ddeg","-129.97421432",,,,,,"PilotCam",,"BrowCam",,"UserSelect",,"SciCam",,"/PilotCam.20230917_021319603.jpg",,"/BrowCam.20230917_021319603.jpg",,"/UserSelect.20230917_021319603.jpg",,"/SciCam.20230917_021319603.jpg","meters","0.00","meters","753.58","deg","166.67","ddeg","19.5080175","meters","9675637.13","meters","-2935294.99","ddeg","-5.3097802","deg","-3.7","deg","0.2","degC","3.44","degC","-999.99","degC","-999.99","degC","-999.99"
"650660dd19a182001b1d631c","2023-09-17T02:13:49.644Z","ASNAP","admin","",,,,,,,,"meters","26812014.3","meters","766.676","deg","166.510","ddeg","45.93965768","ddeg","-129.97419500",,,,,,"PilotCam",,"BrowCam",,"UserSelect",,"SciCam",,"/PilotCam.20230917_021349644.jpg",,"/BrowCam.20230917_021349644.jpg",,"/UserSelect.20230917_021349644.jpg",,"/SciCam.20230917_021349644.jpg","meters","0.00","meters","766.84","deg","166.51","ddeg","19.5080175","meters","9675637.13","meters","-2935294.99","ddeg","-5.3097802","deg","-3.6","deg","0.3","degC","3.39","degC","-999.99","degC","-999.99","degC","-999.99"
"650660fb19a182001b1d6320","2023-09-17T02:14:19.690Z","ASNAP","admin","",,,,,,,,"meters","25410101.8","meters","780.837","deg","166.337","ddeg","45.93964526","ddeg","-129.97418238",,,,,,"PilotCam",,"BrowCam",,"UserSelect",,"SciCam",,"/PilotCam.20230917_021419690.jpg",,"/BrowCam.20230917_021419690.jpg",,"/UserSelect.20230917_021419690.jpg",,"/SciCam.20230917_021419690.jpg","meters","0.00","meters","780.94","deg","166.34","ddeg","19.5080175","meters","9675637.13","meters","-2935294.99","ddeg","-5.3097802","deg","-3.7","deg","0.5","degC","3.36","degC","-999.99","degC","-999.99","degC","-999.99"
"6506611919a182001b1d6324","2023-09-17T02:14:49.709Z","ASNAP","admin","",,,,,,,,"meters","24057929.1","meters","794.423","deg","166.588","ddeg","45.93963172","ddeg","-129.97415529",,,,,,"PilotCam",,"BrowCam",,"UserSelect",,"SciCam",,"/PilotCam.20230917_021449709.jpg",,"/BrowCam.20230917_021449709.jpg",,"/UserSelect.20230917_021449709.jpg",,"/SciCam.20230917_021449709.jpg","meters","0.00","meters","794.54","deg","166.58","ddeg","19.5080175","meters","9675637.13","meters","-2935294.99","ddeg","-5.3097802","deg","-3.6","deg","0.3","degC","3.28","degC","-999.99","degC","-999.99","degC","-999.99"
"6506613719a182001b1d6328","2023-09-17T02:15:19.733Z","ASNAP","admin","",,,,,,,,"meters","22754597.6","meters","808.093","deg","166.422","ddeg","45.93961840","ddeg","-129.97411920",,,,,,"PilotCam",,"BrowCam",,"UserSelect",,"SciCam",,"/PilotCam.20230917_021519733.jpg",,"/BrowCam.20230917_021519733.jpg",,"/UserSelect.20230917_021519733.jpg",,"/SciCam.20230917_021519733.jpg","meters","0.00","meters","808.23","deg","166.44","ddeg","19.5080175","meters","9675637.13","meters","-2935294.99","ddeg","-5.3097802","deg","-3.8","deg","0.4","degC","3.32","degC","-999.99","degC","-999.99","degC","-999.99"
"6506615519a182001b1d632c","2023-09-17T02:15:49.789Z","ASNAP","admin","",,,,,,,,"meters","21499209.0","meters","821.314","deg","166.081","ddeg","45.93961682","ddeg","-129.97408765",,,,,,"PilotCam",,"BrowCam",,"UserSelect",,"SciCam",,"/PilotCam.20230917_021549789.jpg",,"/BrowCam.20230917_021549789.jpg",,"/UserSelect.20230917_021549789.jpg",,"/SciCam.20230917_021549789.jpg","meters","0.00","meters","821.45","deg","166.10","ddeg","19.5080175","meters","9675637.13","meters","-2935294.99","ddeg","-5.3097802","deg","-4.1","deg","0.6","degC","3.23","degC","-999.99","degC","-999.99","degC","-999.99"
"6506617319a182001b1d6330","2023-09-17T02:16:19.846Z","ASNAP","admin","",,,,,,,,"meters","20290864.8","meters","834.432","deg","166.850","ddeg","45.93963155","ddeg","-129.97407404",,,,,,"PilotCam",,"BrowCam",,"UserSelect",,"SciCam",,"/PilotCam.20230917_021619846.jpg",,"/BrowCam.20230917_021619846.jpg",,"/UserSelect.20230917_021619846.jpg",,"/SciCam.20230917_021619846.jpg","meters","0.00","meters","834.53","deg","166.84","ddeg","19.5080175","meters","9675637.13","meters","-2935294.99","ddeg","-5.3097802","deg","-4.2","deg","0.3","degC","3.13","degC","-999.99","degC","-999.99","degC","-999.99"
"6506619119a182001b1d6334","2023-09-17T02:16:49.861Z","ASNAP","admin","",,,,,,,,"meters","19128666.6","meters","847.903","deg","166.727","ddeg","45.93964123","ddeg","-129.97405299",,,,,,"PilotCam",,"BrowCam",,"UserSelect",,"SciCam",,"/PilotCam.20230917_021649861.jpg",,"/BrowCam.20230917_021649861.jpg",,"/UserSelect.20230917_021649861.jpg",,"/SciCam.20230917_021649861.jpg","meters","0.00","meters","848.02","deg","166.74","ddeg","19.5080175","meters","9675637.13","meters","-2935294.99","ddeg","-5.3097802","deg","-3.9","deg","0.7","degC","3.21","degC","-999.99","degC","-999.99","degC","-999.99"
"650661af19a182001b1d6338","2023-09-17T02:17:19.888Z","ASNAP","admin","",,,,,,,,"meters","18011716.0","meters","861.674","deg","166.700","ddeg","45.93963158","ddeg","-129.97402112",,,,,,"PilotCam",,"BrowCam",,"UserSelect",,"SciCam",,"/PilotCam.20230917_021719888.jpg",,"/BrowCam.20230917_021719888.jpg",,"/UserSelect.20230917_021719888.jpg",,"/SciCam.20230917_021719888.jpg","meters","0.00","meters","861.80","deg","166.70","ddeg","19.5080175","meters","9675637.13","meters","-2935294.99","ddeg","-5.3097802","deg","-4.0","deg","0.4","degC","3.21","degC","-999.99","degC","-999.99","degC","-999.99"
"650661cd19a182001b1d633c","2023-09-17T02:17:49.956Z","ASNAP","admin","",,,,,,,,"meters","16939114.7","meters","874.765","deg","166.469","ddeg","45.93962259","ddeg","-129.97399944",,,,,,"PilotCam",,"BrowCam",,"UserSelect",,"SciCam",,"/PilotCam.20230917_021749956.jpg",,"/BrowCam.20230917_021749956.jpg",,"/UserSelect.20230917_021749956.jpg",,"/SciCam.20230917_021749956.jpg","meters","0.00","meters","874.90","deg","166.44","ddeg","19.5080175","meters","9675637.13","meters","-2935294.99","ddeg","-5.3097802","deg","-3.8","deg","0.7","degC","3.14","degC","-999.99","degC","-999.99","degC","-999.99"
"650661ec19a182001b1d6340","2023-09-17T02:18:20.003Z","ASNAP","admin","",,,,,,,,"meters","15876396.9","meters","888.388","deg","166.769","ddeg","45.93962166","ddeg","-129.97397905",,,,,,"PilotCam",,"BrowCam",,"UserSelect",,"SciCam",,"/PilotCam.20230917_021820003.jpg",,"/BrowCam.20230917_021820003.jpg",,"/UserSelect.20230917_021820003.jpg",,"/SciCam.20230917_021820003.jpg","meters","0.00","meters","888.07","deg","166.78","ddeg","19.5080175","meters","9675637.13","meters","-2935294.99","ddeg","-5.3097802","deg","-4.0","deg","0.6","degC","3.13","degC","-999.99","degC","-999.99","degC","-999.99"
"6506620a19a182001b1d6344","2023-09-17T02:18:50.045Z","ASNAP","admin","",,,,,,,,"meters","14891201.7","meters","900.969","deg","166.890","ddeg","45.93964092","ddeg","-129.97395791",,,,,,"PilotCam",,"BrowCam",,"UserSelect",,"SciCam",,"/PilotCam.20230917_021850045.jpg",,"/BrowCam.20230917_021850045.jpg",,"/UserSelect.20230917_021850045.jpg",,"/SciCam.20230917_021850045.jpg","meters","0.00","meters","900.66","deg","166.89","ddeg","19.5080175","meters","9675637.13","meters","-2935294.99","ddeg","-5.3097802","deg","-4.2","deg","0.6","degC","3.02","degC","-999.99","degC","-999.99","degC","-999.99"
