"id","ts","event_value","event_author","event_free_text","event_option.actions","event_option.event_comment","event_option.filename","event_option.milestone","event_option.new_watchstander","event_option.sample_description","event_option.sample_name","event_option.type","vehicleReNavData.altitude_uom","vehicleReNavData.altitude_value","vehicleReNavData.depth_uom","vehicleReNavData.depth_value","vehicleReNavData.heading_uom","vehicleReNavData.heading_value","vehicleReNavData.latitude_uom","vehicleReNavData.latitude_value","vehicleReNavData.longitude_uom","vehicleReNavData.longitude_value","vehicleReNavData.pitch_uom","vehicleReNavData.pitch_value","vehicleReNavData.roll_uom","vehicleReNavData.roll_value","vehicleRealtimeFramegrabberData.camera_name_2_uom","vehicleRealtimeFramegrabberData.camera_name_2_value","vehicleRealtimeFramegrabberData.camera_name_3_uom","vehicleRealtimeFramegrabberData.camera_name_3_value","vehicleRealtimeFramegrabberData.camera_name_4_uom","vehicleRealtimeFramegrabberData.camera_name_4_value","vehicleRealtimeFramegrabberData.camera_name_uom","vehicleRealtimeFramegrabberData.camera_name_value","vehicleRealtimeFramegrabberData.filename_2_uom","vehicleRealtimeFramegrabberData.filename_2_value","vehicleRealtimeFramegrabberData.filename_3_uom","vehicleRealtimeFramegrabberData.filename_3_value","vehicleRealtimeFramegrabberData.filename_4_uom","vehicleRealtimeFramegrabberData.filename_4_value","vehicleRealtimeFramegrabberData.filename_uom","vehicleRealtimeFramegrabberData.filename_value","vehicleRealtimeNavData.altitude_uom","vehicleRealtimeNavData.altitude_value","vehicleRealtimeNavData.depth_uom","vehicleRealtimeNavData.depth_value","vehicleRealtimeNavData.heading_uom","vehicleRealtimeNavData.heading_value","vehicleRealtimeNavData.latitude_uom","vehicleRealtimeNavData.latitude_value","vehicleRealtimeNavData.local_x_uom","vehicleRealtimeNavData.local_x_value","vehicleRealtimeNavData.local_y_uom","vehicleRealtimeNavData.local_y_value","vehicleRealtimeNavData.longitude_uom","vehicleRealtimeNavData.longitude_value","vehicleRealtimeNavData.pitch_uom","vehicleRealtimeNavData.pitch_value","vehicleRealtimeNavData.roll_uom","vehicleRealtimeNavData.roll_value","vehicleTemperatureProbe.probe1_temperature_uom","vehicleTemperatureProbe.probe1_temperature_value","vehicleTemperatureProbe.probe2_temperature_uom","vehicleTemperatureProbe.probe2_temperature_value","vehicleTemperatureProbe.probe3_temperature_uom","vehicleTemperatureProbe.probe3_temperature_value","vehicleTemperatureProbe.probe4_temperature_uom","vehicleTemperatureProbe.probe4_temperature_value"
"64ebfa5095482d0019b26a28","2023-08-28T01:37:20.350Z","VEHICLE","guest","",,,,"Jason off deck",,,,,,,,,,,,,,,,,,,,"PilotCam",,"BrowCam",,"UserSelect",,"SciCam",,"/PilotCam.20230828_013720350.jpg",,"/BrowCam.20230828_013720350.jpg",,"/UserSelect.20230828_013720350.jpg",,"/SciCam.20230828_013720350.jpg","meters","0.00","meters","0.66","deg","43.36","ddeg","44.5685611","meters","0.09","meters","2.92","ddeg","-125.1491000","deg","0.4","deg","-1.6","degC","16.57","degC","-999.99","degC","-999.99","degC","-999.99"
"64ebfc1595482d0019b26a2c","2023-08-28T01:44:53.859Z","ROV Actions","guest","undervator","Latching to",,,,,,,,,,,,,,,,,,,,,,,"PilotCam",,"BrowCam",,"UserSelect",,"SciCam",,"/PilotCam.20230828_014453859.jpg",,"/BrowCam.20230828_014453859.jpg",,"/UserSelect.20230828_014453859.jpg",,"/SciCam.20230828_014453859.jpg","meters","0.00","meters","0.70","deg","6.42","ddeg","44.5685611","meters","0.09","meters","2.92","ddeg","-125.1491000","deg","-0.1","deg","-0.2","degC","16.44","degC","-999.99","degC","-999.99","degC","-999.99"
"64ebfc9d95482d0019b26a30","2023-08-28T01:47:09.502Z","VEHICLE","guest","",,,,"Jason in water",,,,,"meters","4.0","meters","12.823","deg","135.079","ddeg","44.56981962","ddeg","-125.14652348",,,,,,"PilotCam",,"BrowCam",,"UserSelect",,"SciCam",,"/PilotCam.20230828_014709502.jpg",,"/BrowCam.20230828_014709502.jpg",,"/UserSelect.20230828_014709502.jpg",,"/SciCam.20230828_014709502.jpg","meters","0.00","meters","0.72","deg","133.44","ddeg","44.5685611","meters","0.09","meters","2.92","ddeg","-125.1491000","deg","-1.1","deg","-0.4","degC","16.38","degC","-999.99","degC","-999.99","degC","-999.99"
"64ebfd0c95482d0019b26a34","2023-08-28T01:49:00.933Z","Biology Type","guest","mola mola",,,,,,,,"Fish","meters","4.0","meters","21.794","deg","189.092","ddeg","44.56983631","ddeg","-125.14649377",,,,,,"PilotCam",,"BrowCam",,"UserSelect",,"SciCam",,"/PilotCam.20230828_014900933.jpg",,"/BrowCam.20230828_014900933.jpg",,"/UserSelect.20230828_014900933.jpg",,"/SciCam.20230828_014900933.jpg","meters","0.00","meters","21.85","deg","187.66","ddeg","-1.4700599","meters","9923134.88","meters","-5115917.56","ddeg","-0.2334224","deg","-0.3","deg","-0.6","degC","17.55","degC","-999.99","degC","-999.99","degC","-999.99"
"64ebfd3e95482d0019b26a3c","2023-08-28T01:49:50.558Z","ROV Actions","guest","first football on","First Football on",,,,,,,,"meters","4.0","meters","25.604","deg","189.226","ddeg","44.56986515","ddeg","-125.14645987",,,,,,"PilotCam",,"BrowCam",,"UserSelect",,"SciCam",,"/PilotCam.20230828_014950558.jpg",,"/BrowCam.20230828_014950558.jpg",,"/UserSelect.20230828_014950558.jpg",,"/SciCam.20230828_014950558.jpg","meters","0.00","meters","25.64","deg","187.82","ddeg","-14.3632902","meters","9744143.84","meters","-6548643.82","ddeg","-2.4866203","deg","-3.1","deg","-0.0","degC","16.36","degC","-999.99","degC","-999.99","degC","-999.99"
"64ebfe6595482d0019b26a44","2023-08-28T01:54:45.373Z","ROV Actions","guest","football on","Last Football on",,,,,,,,"meters","4.0","meters","47.416","deg","190.821","ddeg","44.56982324","ddeg","-125.14653984",,,,,,"PilotCam",,"BrowCam",,"UserSelect",,"SciCam",,"/PilotCam.20230828_015445373.jpg",,"/BrowCam.20230828_015445373.jpg",,"/UserSelect.20230828_015445373.jpg",,"/SciCam.20230828_015445373.jpg","meters","0.00","meters","47.35","deg","189.98","ddeg","-14.3632902","meters","9744143.84","meters","-6548643.82","ddeg","-2.4866203","deg","-0.9","deg","-1.6","degC","9.58","degC","-999.99","degC","-999.99","degC","-999.99"
"64ebff7495482d0019b26a48","2023-08-28T01:59:16.619Z","FREE_FORM","guest","stopping at 140m to put on beacon",,,,,,,,,"meters","4.0","meters","131.600","deg","189.845","ddeg","44.56969784","ddeg","-125.14654993",,,,,,"PilotCam",,"BrowCam",,"UserSelect",,"SciCam",,"/PilotCam.20230828_015916619.jpg",,"/BrowCam.20230828_015916619.jpg",,"/UserSelect.20230828_015916619.jpg",,"/SciCam.20230828_015916619.jpg","meters","0.00","meters","131.54","deg","189.42","ddeg","-0.7728489","meters","9891049.52","meters","-5038441.83","ddeg","-0.6373234","deg","-0.2","deg","-1.1","degC","8.24","degC","-999.99","degC","-999.99","degC","-999.99"
"64ec038595482d0019b26a4c","2023-08-28T02:16:37.638Z","Biology Type","guest","long dark fish with feathery fins",,,,,,,,"Fish","meters","4.0","meters","563.713","deg","188.403","ddeg","44.56974634","ddeg","-125.14681543",,,,,,"PilotCam",,"BrowCam",,"UserSelect",,"SciCam",,"/PilotCam.20230828_021637638.jpg",,"/BrowCam.20230828_021637638.jpg",,"/UserSelect.20230828_021637638.jpg",,"/SciCam.20230828_021637638.jpg","meters","0.00","meters","563.93","deg","188.62","ddeg","0.0432751","meters","9938884.06","meters","-4947752.20","ddeg","-0.0351665","deg","-0.9","deg","-1.9","degC","5.07","degC","-999.99","degC","-999.99","degC","-999.99"
"64ec040495482d0019b26a50","2023-08-28T02:18:44.117Z","FREE_FORM","guest","stopping briefly at 650",,,,,,,,,"meters","4.0","meters","613.667","deg","75.095","ddeg","44.56976918","ddeg","-125.14675322",,,,,,"PilotCam",,"BrowCam",,"UserSelect",,"SciCam",,"/PilotCam.20230828_021844117.jpg",,"/BrowCam.20230828_021844117.jpg",,"/UserSelect.20230828_021844117.jpg",,"/SciCam.20230828_021844117.jpg","meters","0.00","meters","613.51","deg","67.38","ddeg","0.1785411","meters","9899902.71","meters","-4932721.12","ddeg","-0.5258766","deg","-2.7","deg","-0.8","degC","4.91","degC","-999.99","degC","-999.99","degC","-999.99"
"64ec049395482d0019b26a54","2023-08-28T02:21:07.705Z","Biology Type","guest","large, round and orange",,,,,,,,"Jelly","meters","4.0","meters","645.375","deg","196.488","ddeg","44.56994593","ddeg","-125.14660790",,,,,,"PilotCam",,"BrowCam",,"UserSelect",,"SciCam",,"/PilotCam.20230828_022107705.jpg",,"/BrowCam.20230828_022107705.jpg",,"/UserSelect.20230828_022107705.jpg",,"/SciCam.20230828_022107705.jpg","meters","0.00","meters","645.61","deg","196.61","ddeg","0.1212325","meters","9824580.70","meters","-4939089.39","ddeg","-1.4740547","deg","-1.2","deg","-1.2","degC","4.67","degC","-999.99","degC","-999.99","degC","-999.99"
"64ec057c95482d0019b26a58","2023-08-28T02:25:00.907Z","Biology Type","guest","many ctenophores",,,,,,,,,"meters","4.0","meters","739.546","deg","197.472","ddeg","44.56981137","ddeg","-125.14652772",,,,,,"PilotCam",,"BrowCam",,"UserSelect",,"SciCam",,"/PilotCam.20230828_022500907.jpg",,"/BrowCam.20230828_022500907.jpg",,"/UserSelect.20230828_022500907.jpg",,"/SciCam.20230828_022500907.jpg","meters","0.00","meters","739.56","deg","197.48","ddeg","0.1223313","meters","9824601.40","meters","-4938967.29","ddeg","-1.4737942","deg","-1.6","deg","-1.1","degC","4.61","degC","-999.99","degC","-999.99","degC","-999.99"
"64ec060695482d0019b26a5c","2023-08-28T02:27:18.829Z","VEHICLE","guest","",,,,"On bottom",,,,,"meters","4.0","meters","769.385","deg","198.617","ddeg","44.56992067","ddeg","-125.14659717",,,,,,"PilotCam",,"BrowCam",,"UserSelect",,"SciCam",,"/PilotCam.20230828_022718829.jpg",,"/BrowCam.20230828_022718829.jpg",,"/UserSelect.20230828_022718829.jpg",,"/SciCam.20230828_022718829.jpg","meters","0.00","meters","769.36","deg","198.67","ddeg","0.1226910","meters","9824594.21","meters","-4938927.32","ddeg","-1.4738847","deg","-2.5","deg","-0.7","degC","4.13","degC","-999.99","degC","-999.99","degC","-999.99"
"64ec061995482d0019b26a60","2023-08-28T02:27:37.848Z","ASNAP","admin","",,,,,,,,,"meters","4.1","meters","769.292","deg","197.763","ddeg","44.56991965","ddeg","-125.14657779",,,,,,"PilotCam",,"BrowCam",,"UserSelect",,"SciCam",,"/PilotCam.20230828_022737848.jpg",,"/BrowCam.20230828_022737848.jpg",,"/UserSelect.20230828_022737848.jpg",,"/SciCam.20230828_022737848.jpg","meters","0.00","meters","769.26","deg","197.91","ddeg","0.1226962","meters","9824594.94","meters","-4938926.74","ddeg","-1.4738755","deg","-2.3","deg","-1.2","degC","4.26","degC","-999.99","degC","-999.99","degC","-999.99"
"64ec063295482d0019b26a64","2023-08-28T02:28:02.503Z","Biology Type","guest","2",,,,,,,,"Hagfish","meters","2.6","meters","771.451","deg","197.515","ddeg","44.56991856","ddeg","-125.14656350",,,,,,"PilotCam",,"BrowCam",,"UserSelect",,"SciCam",,"/PilotCam.20230828_022802503.jpg",,"/BrowCam.20230828_022802503.jpg",,"/UserSelect.20230828_022802503.jpg",,"/SciCam.20230828_022802503.jpg","meters","0.00","meters","771.52","deg","197.56","ddeg","0.1227157","meters","9824594.95","meters","-4938924.57","ddeg","-1.4738754","deg","-2.3","deg","-0.5","degC","4.33","degC","-999.99","degC","-999.99","degC","-999.99"
"64ec063795482d0019b26a68","2023-08-28T02:28:07.888Z","ASNAP","admin","",,,,,,,,,"meters","2.1","meters","771.982","deg","198.270","ddeg","44.56991824","ddeg","-125.14656271",,,,,,"PilotCam",,"BrowCam",,"UserSelect",,"SciCam",,"/PilotCam.20230828_022807888.jpg",,"/BrowCam.20230828_022807888.jpg",,"/UserSelect.20230828_022807888.jpg",,"/SciCam.20230828_022807888.jpg","meters","0.00","meters","772.01","deg","198.27","ddeg","0.1227205","meters","9824594.75","meters","-4938924.04","ddeg","-1.4738779","deg","2.0","deg","-3.0","degC","4.25","degC","-999.99","degC","-999.99","degC","-999.99"
"64ec065595482d0019b26a6c","2023-08-28T02:28:37.937Z","ASNAP","admin","",,,,,,,,,"meters","2.1","meters","772.045","deg","196.027","ddeg","44.56991935","ddeg","-125.14656203",,,,,,"PilotCam",,"BrowCam",,"UserSelect",,"SciCam",,"/PilotCam.20230828_022837937.jpg",,"/BrowCam.20230828_022837937.jpg",,"/UserSelect.20230828_022837937.jpg",,"/SciCam.20230828_022837937.jpg","meters","0.00","meters","772.06","deg","196.10","ddeg","0.1227208","meters","9824594.87","meters","-4938924.01","ddeg","-1.4738764","deg","3.3","deg","-3.9","degC","4.25","degC","-999.99","degC","-999.99","degC","-999.99"
"64ec067395482d0019b26a70","2023-08-28T02:29:07.976Z","ASNAP","admin","",,,,,,,,,"meters","2.0","meters","772.098","deg","199.389","ddeg","44.56992524","ddeg","-125.14655751",,,,,,"PilotCam",,"BrowCam",,"UserSelect",,"SciCam",,"/PilotCam.20230828_022907976.jpg",,"/BrowCam.20230828_022907976.jpg",,"/UserSelect.20230828_022907976.jpg",,"/SciCam.20230828_022907976.jpg","meters","0.00","meters","772.10","deg","199.38","ddeg","0.1227214","meters","9824595.00","meters","-4938923.94","ddeg","-1.4738747","deg","4.2","deg","-3.3","degC","4.27","degC","-999.99","degC","-999.99","degC","-999.99"
"64ec069295482d0019b26a74","2023-08-28T02:29:38.001Z","ASNAP","admin","",,,,,,,,,"meters","2.0","meters","772.099","deg","199.369","ddeg","44.56992246","ddeg","-125.14656257",,,,,,"PilotCam",,"BrowCam",,"UserSelect",,"SciCam",,"/PilotCam.20230828_022938001.jpg",,"/BrowCam.20230828_022938001.jpg",,"/UserSelect.20230828_022938001.jpg",,"/SciCam.20230828_022938001.jpg","meters","0.00","meters","772.10","deg","199.36","ddeg","0.1227214","meters","9824594.98","meters","-4938923.94","ddeg","-1.4738750","deg","4.1","deg","-3.3","degC","4.19","degC","-999.99","degC","-999.99","degC","-999.99"
"64ec069795482d0019b26a78","2023-08-28T02:29:43.593Z","FREE_FORM","guest","landixng undervator, finding flat ground",,,,,,,,,"meters","2.0","meters","772.101","deg","199.369","ddeg","44.56992052","ddeg","-125.14656315",,,,,,"PilotCam",,"BrowCam",,"UserSelect",,"SciCam",,"/PilotCam.20230828_022943593.jpg",,"/BrowCam.20230828_022943593.jpg",,"/UserSelect.20230828_022943593.jpg",,"/SciCam.20230828_022943593.jpg","meters","0.00","meters","772.10","deg","199.35","ddeg","0.1227214","meters","9824594.98","meters","-4938923.94","ddeg","-1.4738750","deg","4.1","deg","-3.3","degC","4.19","degC","-999.99","degC","-999.99","degC","-999.99"
"64ec06b095482d0019b26a7c","2023-08-28T02:30:08.016Z","ASNAP","admin","",,,,,,,,,"meters","4.5","meters","768.815","deg","200.668","ddeg","44.56991408","ddeg","-125.14655557",,,,,,"PilotCam",,"BrowCam",,"UserSelect",,"SciCam",,"/PilotCam.20230828_023008016.jpg",,"/BrowCam.20230828_023008016.jpg",,"/UserSelect.20230828_023008016.jpg",,"/SciCam.20230828_023008016.jpg","meters","0.00","meters","768.86","deg","200.93","ddeg","0.1226887","meters","9824596.75","meters","-4938927.57","ddeg","-1.4738527","deg","-2.6","deg","-0.9","degC","4.29","degC","-999.99","degC","-999.99","degC","-999.99"
"64ec06b395482d0019b26a80","2023-08-28T02:30:11.755Z","Biology Type","guest","",,,,,,,,"Squid","meters","4.8","meters","768.751","deg","198.699","ddeg","44.56991369","ddeg","-125.14655239",,,,,,"PilotCam",,"BrowCam",,"UserSelect",,"SciCam",,"/PilotCam.20230828_023011755.jpg",,"/BrowCam.20230828_023011755.jpg",,"/UserSelect.20230828_023011755.jpg",,"/SciCam.20230828_023011755.jpg","meters","0.00","meters","768.68","deg","198.61","ddeg","0.1226861","meters","9824597.13","meters","-4938927.86","ddeg","-1.4738479","deg","-2.2","deg","-0.6","degC","4.30","degC","-999.99","degC","-999.99","degC","-999.99"
"64ec06ce95482d0019b26a84","2023-08-28T02:30:38.067Z","ASNAP","admin","",,,,,,,,,"meters","3.4","meters","770.504","deg","198.866","ddeg","44.56991637","ddeg","-125.14652477",,,,,,"PilotCam",,"BrowCam",,"UserSelect",,"SciCam",,"/PilotCam.20230828_023038067.jpg",,"/BrowCam.20230828_023038067.jpg",,"/UserSelect.20230828_023038067.jpg",,"/SciCam.20230828_023038067.jpg","meters","0.00","meters","770.51","deg","198.61","ddeg","0.1227108","meters","9824597.80","meters","-4938925.12","ddeg","-1.4738395","deg","-1.9","deg","-0.7","degC","4.25","degC","-999.99","degC","-999.99","degC","-999.99"
"64ec06ea95482d0019b26a88","2023-08-28T02:31:06.468Z","Biology Type","guest","red rockfish",,,,,,,,"Fish","meters","2.5","meters","771.818","deg","199.359","ddeg","44.56992127","ddeg","-125.14648930",,,,,,"PilotCam",,"BrowCam",,"UserSelect",,"SciCam",,"/PilotCam.20230828_023106468.jpg",,"/BrowCam.20230828_023106468.jpg",,"/UserSelect.20230828_023106468.jpg",,"/SciCam.20230828_023106468.jpg","meters","0.00","meters","771.90","deg","199.19","ddeg","0.1227273","meters","9824598.96","meters","-4938923.28","ddeg","-1.4738249","deg","-2.3","deg","0.0","degC","4.27","degC","-999.99","degC","-999.99","degC","-999.99"
"64ec06ec95482d0019b26a8c","2023-08-28T02:31:08.129Z","ASNAP","admin","",,,,,,,,,"meters","2.5","meters","771.766","deg","198.406","ddeg","44.56992141","ddeg","-125.14648700",,,,,,"PilotCam",,"BrowCam",,"UserSelect",,"SciCam",,"/PilotCam.20230828_023108129.jpg",,"/BrowCam.20230828_023108129.jpg",,"/UserSelect.20230828_023108129.jpg",,"/SciCam.20230828_023108129.jpg","meters","0.00","meters","771.85","deg","198.50","ddeg","0.1227274","meters","9824599.00","meters","-4938923.27","ddeg","-1.4738244","deg","-2.2","deg","-0.2","degC","4.12","degC","-999.99","degC","-999.99","degC","-999.99"
"64ec070a95482d0019b26a90","2023-08-28T02:31:38.177Z","ASNAP","admin","",,,,,,,,,"meters","2.1","meters","772.538","deg","199.618","ddeg","44.56992082","ddeg","-125.14646969",,,,,,"PilotCam",,"BrowCam",,"UserSelect",,"SciCam",,"/PilotCam.20230828_023138177.jpg",,"/BrowCam.20230828_023138177.jpg",,"/UserSelect.20230828_023138177.jpg",,"/SciCam.20230828_023138177.jpg","meters","0.00","meters","772.55","deg","199.36","ddeg","0.1227317","meters","9824599.38","meters","-4938922.79","ddeg","-1.4738196","deg","0.3","deg","-3.6","degC","4.29","degC","-999.99","degC","-999.99","degC","-999.99"
"64ec072895482d0019b26a94","2023-08-28T02:32:08.246Z","ASNAP","admin","",,,,,,,,,"meters","2.1","meters","772.661","deg","199.912","ddeg","44.56991859","ddeg","-125.14647161",,,,,,"PilotCam",,"BrowCam",,"UserSelect",,"SciCam",,"/PilotCam.20230828_023208246.jpg",,"/BrowCam.20230828_023208246.jpg",,"/UserSelect.20230828_023208246.jpg",,"/SciCam.20230828_023208246.jpg","meters","0.00","meters","772.76","deg","199.94","ddeg","0.1227315","meters","9824599.59","meters","-4938922.82","ddeg","-1.4738170","deg","0.6","deg","-10.1","degC","4.25","degC","-999.99","degC","-999.99","degC","-999.99"
"64ec074695482d0019b26a98","2023-08-28T02:32:38.297Z","ASNAP","admin","",,,,,,,,,"meters","2.0","meters","772.621","deg","197.836","ddeg","44.56991706","ddeg","-125.14647393",,,,,,"PilotCam",,"BrowCam",,"UserSelect",,"SciCam",,"/PilotCam.20230828_023238297.jpg",,"/BrowCam.20230828_023238297.jpg",,"/UserSelect.20230828_023238297.jpg",,"/SciCam.20230828_023238297.jpg","meters","0.00","meters","772.62","deg","197.78","ddeg","0.1227315","meters","9824599.58","meters","-4938922.82","ddeg","-1.4738171","deg","0.2","deg","-4.2","degC","4.36","degC","-999.99","degC","-999.99","degC","-999.99"
"64ec076495482d0019b26a9c","2023-08-28T02:33:08.346Z","ASNAP","admin","",,,,,,,,,"meters","2.0","meters","772.626","deg","197.836","ddeg","44.56991785","ddeg","-125.14647462",,,,,,"PilotCam",,"BrowCam",,"UserSelect",,"SciCam",,"/PilotCam.20230828_023308346.jpg",,"/BrowCam.20230828_023308346.jpg",,"/UserSelect.20230828_023308346.jpg",,"/SciCam.20230828_023308346.jpg","meters","0.00","meters","772.63","deg","197.77","ddeg","0.1227317","meters","9824599.57","meters","-4938922.79","ddeg","-1.4738172","deg","0.2","deg","-4.2","degC","4.33","degC","-999.99","degC","-999.99","degC","-999.99"
"64ec077b95482d0019b26aa0","2023-08-28T02:33:31.634Z","FREE_FORM","guest","set down undervator",,,,,,,,,"meters","2.0","meters","772.630","deg","197.836","ddeg","44.56991880","ddeg","-125.14647603",,,,,,"PilotCam",,"BrowCam",,"UserSelect",,"SciCam",,"/PilotCam.20230828_023331634.jpg",,"/BrowCam.20230828_023331634.jpg",,"/UserSelect.20230828_023331634.jpg",,"/SciCam.20230828_023331634.jpg","meters","0.00","meters","772.63","deg","197.76","ddeg","0.1227319","meters","9824599.57","meters","-4938922.77","ddeg","-1.4738172","deg","0.2","deg","-4.2","degC","4.28","degC","-999.99","degC","-999.99","degC","-999.99"
"64ec078295482d0019b26aa4","2023-08-28T02:33:38.372Z","ASNAP","admin","",,,,,,,,,"meters","2.0","meters","772.631","deg","197.836","ddeg","44.56991886","ddeg","-125.14647566",,,,,,"PilotCam",,"BrowCam",,"UserSelect",,"SciCam",,"/PilotCam.20230828_023338372.jpg",,"/BrowCam.20230828_023338372.jpg",,"/UserSelect.20230828_023338372.jpg",,"/SciCam.20230828_023338372.jpg","meters","0.00","meters","772.63","deg","197.76","ddeg","0.1227320","meters","9824599.57","meters","-4938922.76","ddeg","-1.4738172","deg","0.2","deg","-4.2","degC","4.18","degC","-999.99","degC","-999.99","degC","-999.99"
"64ec07a095482d0019b26aa8","2023-08-28T02:34:08.416Z","ASNAP","admin","",,,,,,,,,"meters","2.0","meters","772.662","deg","197.996","ddeg","44.56991697","ddeg","-125.14647401",,,,,,"PilotCam",,"BrowCam",,"UserSelect",,"SciCam",,"/PilotCam.20230828_023408416.jpg",,"/BrowCam.20230828_023408416.jpg",,"/UserSelect.20230828_023408416.jpg",,"/SciCam.20230828_023408416.jpg","meters","0.00","meters","772.67","deg","197.92","ddeg","0.1227319","meters","9824599.59","meters","-4938922.77","ddeg","-1.4738170","deg","0.2","deg","-5.4","degC","4.19","degC","-999.99","degC","-999.99","degC","-999.99"
"64ec07be95482d0019b26aac","2023-08-28T02:34:38.461Z","ASNAP","admin","",,,,,,,,,"meters","2.0","meters","772.646","deg","197.764","ddeg","44.56991750","ddeg","-125.14647032",,,,,,"PilotCam",,"BrowCam",,"UserSelect",,"SciCam",,"/PilotCam.20230828_023438461.jpg",,"/BrowCam.20230828_023438461.jpg",,"/UserSelect.20230828_023438461.jpg",,"/SciCam.20230828_023438461.jpg","meters","0.00","meters","772.65","deg","197.68","ddeg","0.1227316","meters","9824599.59","meters","-4938922.81","ddeg","-1.4738170","deg","0.2","deg","-4.2","degC","4.20","degC","-999.99","degC","-999.99","degC","-999.99"
"64ec07dc95482d0019b26ab0","2023-08-28T02:35:08.507Z","ASNAP","admin","",,,,,,,,,"meters","2.0","meters","772.653","deg","197.763","ddeg","44.56992491","ddeg","-125.14646715",,,,,,"PilotCam",,"BrowCam",,"UserSelect",,"SciCam",,"/PilotCam.20230828_023508507.jpg",,"/BrowCam.20230828_023508507.jpg",,"/UserSelect.20230828_023508507.jpg",,"/SciCam.20230828_023508507.jpg","meters","0.00","meters","772.65","deg","197.68","ddeg","0.1227313","meters","9824599.60","meters","-4938922.84","ddeg","-1.4738168","deg","0.2","deg","-4.3","degC","4.21","degC","-999.99","degC","-999.99","degC","-999.99"
"64ec07fa95482d0019b26ab4","2023-08-28T02:35:38.551Z","ASNAP","admin","",,,,,,,,,"meters","2.0","meters","772.657","deg","197.762","ddeg","44.56993504","ddeg","-125.14647086",,,,,,"PilotCam",,"BrowCam",,"UserSelect",,"SciCam",,"/PilotCam.20230828_023538551.jpg",,"/BrowCam.20230828_023538551.jpg",,"/UserSelect.20230828_023538551.jpg",,"/SciCam.20230828_023538551.jpg","meters","0.00","meters","772.66","deg","197.66","ddeg","0.1227310","meters","9824599.61","meters","-4938922.87","ddeg","-1.4738167","deg","0.2","deg","-4.2","degC","4.27","degC","-999.99","degC","-999.99","degC","-999.99"
"64ec081895482d0019b26ab8","2023-08-28T02:36:08.593Z","ASNAP","admin","",,,,,,,,,"meters","2.0","meters","772.664","deg","197.752","ddeg","44.56993842","ddeg","-125.14647178",,,,,,"PilotCam",,"BrowCam",,"UserSelect",,"SciCam",,"/PilotCam.20230828_023608593.jpg",,"/BrowCam.20230828_023608593.jpg",,"/UserSelect.20230828_023608593.jpg",,"/SciCam.20230828_023608593.jpg","meters","0.00","meters","772.67","deg","197.65","ddeg","0.1227307","meters","9824599.62","meters","-4938922.91","ddeg","-1.4738166","deg","0.2","deg","-4.3","degC","4.09","degC","-999.99","degC","-999.99","degC","-999.99"
"64ec083695482d0019b26abc","2023-08-28T02:36:38.636Z","ASNAP","admin","",,,,,,,,,"meters","2.0","meters","772.669","deg","197.762","ddeg","44.56993028","ddeg","-125.14646925",,,,,,"PilotCam",,"BrowCam",,"UserSelect",,"SciCam",,"/PilotCam.20230828_023638636.jpg",,"/BrowCam.20230828_023638636.jpg",,"/UserSelect.20230828_023638636.jpg",,"/SciCam.20230828_023638636.jpg","meters","0.00","meters","772.67","deg","197.64","ddeg","0.1227298","meters","9824599.65","meters","-4938923.00","ddeg","-1.4738162","deg","0.2","deg","-4.2","degC","4.18","degC","-999.99","degC","-999.99","degC","-999.99"
"64ec085495482d0019b26ac0","2023-08-28T02:37:08.679Z","ASNAP","admin","",,,,,,,,,"meters","2.0","meters","772.675","deg","197.753","ddeg","44.56992545","ddeg","-125.14646569",,,,,,"PilotCam",,"BrowCam",,"UserSelect",,"SciCam",,"/PilotCam.20230828_023708679.jpg",,"/BrowCam.20230828_023708679.jpg",,"/UserSelect.20230828_023708679.jpg",,"/SciCam.20230828_023708679.jpg","meters","0.00","meters","772.68","deg","197.64","ddeg","0.1227287","meters","9824599.70","meters","-4938923.13","ddeg","-1.4738156","deg","0.2","deg","-4.2","degC","4.22","degC","-999.99","degC","-999.99","degC","-999.99"
"64ec087295482d0019b26ac4","2023-08-28T02:37:38.703Z","ASNAP","admin","",,,,,,,,,"meters","2.0","meters","772.681","deg","197.752","ddeg","44.56992580","ddeg","-125.14646683",,,,,,"PilotCam",,"BrowCam",,"UserSelect",,"SciCam",,"/PilotCam.20230828_023738703.jpg",,"/BrowCam.20230828_023738703.jpg",,"/UserSelect.20230828_023738703.jpg",,"/SciCam.20230828_023738703.jpg","meters","0.00","meters","772.68","deg","197.63","ddeg","0.1227273","meters","9824599.75","meters","-4938923.28","ddeg","-1.4738149","deg","0.2","deg","-4.2","degC","4.26","degC","-999.99","degC","-999.99","degC","-999.99"
"64ec089095482d0019b26ac8","2023-08-28T02:38:08.745Z","ASNAP","admin","",,,,,,,,,"meters","2.0","meters","772.687","deg","197.751","ddeg","44.56991623","ddeg","-125.14646861",,,,,,"PilotCam",,"BrowCam",,"UserSelect",,"SciCam",,"/PilotCam.20230828_023808745.jpg",,"/BrowCam.20230828_023808745.jpg",,"/UserSelect.20230828_023808745.jpg",,"/SciCam.20230828_023808745.jpg","meters","0.00","meters","772.69","deg","197.63","ddeg","0.1227257","meters","9824599.82","meters","-4938923.46","ddeg","-1.4738141","deg","0.2","deg","-4.2","degC","4.23","degC","-999.99","degC","-999.99","degC","-999.99"
"64ec08ae95482d0019b26acc","2023-08-28T02:38:38.766Z","ASNAP","admin","",,,,,,,,,"meters","2.0","meters","772.690","deg","197.751","ddeg","44.56991121","ddeg","-125.14646594",,,,,,"PilotCam",,"BrowCam",,"UserSelect",,"SciCam",,"/PilotCam.20230828_023838766.jpg",,"/BrowCam.20230828_023838766.jpg",,"/UserSelect.20230828_023838766.jpg",,"/SciCam.20230828_023838766.jpg","meters","0.00","meters","772.69","deg","197.61","ddeg","0.1227244","meters","9824599.86","meters","-4938923.60","ddeg","-1.4738136","deg","0.2","deg","-4.2","degC","4.36","degC","-999.99","degC","-999.99","degC","-999.99"
"64ec08cc95482d0019b26ad0","2023-08-28T02:39:08.805Z","ASNAP","admin","",,,,,,,,,"meters","2.0","meters","772.694","deg","197.752","ddeg","44.56991267","ddeg","-125.14647095",,,,,,"PilotCam",,"BrowCam",,"UserSelect",,"SciCam",,"/PilotCam.20230828_023908805.jpg",,"/BrowCam.20230828_023908805.jpg",,"/UserSelect.20230828_023908805.jpg",,"/SciCam.20230828_023908805.jpg","meters","0.00","meters","772.69","deg","197.61","ddeg","0.1227235","meters","9824599.89","meters","-4938923.71","ddeg","-1.4738132","deg","0.2","deg","-4.1","degC","4.19","degC","-999.99","degC","-999.99","degC","-999.99"
"64ec08ea95482d0019b26ad4","2023-08-28T02:39:38.825Z","ASNAP","admin","",,,,,,,,,"meters","2.0","meters","772.699","deg","197.750","ddeg","44.56991407","ddeg","-125.14646932",,,,,,"PilotCam",,"BrowCam",,"UserSelect",,"SciCam",,"/PilotCam.20230828_023938825.jpg",,"/BrowCam.20230828_023938825.jpg",,"/UserSelect.20230828_023938825.jpg",,"/SciCam.20230828_023938825.jpg","meters","0.00","meters","772.70","deg","197.60","ddeg","0.1227229","meters","9824599.91","meters","-4938923.77","ddeg","-1.4738129","deg","0.2","deg","-4.1","degC","4.28","degC","-999.99","degC","-999.99","degC","-999.99"
"64ec090895482d0019b26ad8","2023-08-28T02:40:08.850Z","ASNAP","admin","",,,,,,,,,"meters","2.0","meters","772.704","deg","197.749","ddeg","44.56991804","ddeg","-125.14646844",,,,,,"PilotCam",,"BrowCam",,"UserSelect",,"SciCam",,"/PilotCam.20230828_024008850.jpg",,"/BrowCam.20230828_024008850.jpg",,"/UserSelect.20230828_024008850.jpg",,"/SciCam.20230828_024008850.jpg","meters","0.00","meters","772.70","deg","197.59","ddeg","0.1227225","meters","9824599.92","meters","-4938923.82","ddeg","-1.4738128","deg","0.2","deg","-4.1","degC","4.15","degC","-999.99","degC","-999.99","degC","-999.99"
"64ec091395482d0019b26adc","2023-08-28T02:40:19.638Z","Biology Type","guest","",,,,,,,,"Squid","meters","2.0","meters","772.708","deg","197.749","ddeg","44.56991869","ddeg","-125.14647079",,,,,,"PilotCam",,"BrowCam",,"UserSelect",,"SciCam",,"/PilotCam.20230828_024019638.jpg",,"/BrowCam.20230828_024019638.jpg",,"/UserSelect.20230828_024019638.jpg",,"/SciCam.20230828_024019638.jpg","meters","0.00","meters","772.71","deg","197.59","ddeg","0.1227225","meters","9824599.93","meters","-4938923.82","ddeg","-1.4738127","deg","0.2","deg","-4.1","degC","4.22","degC","-999.99","degC","-999.99","degC","-999.99"
"64ec092695482d0019b26ae0","2023-08-28T02:40:38.878Z","ASNAP","admin","",,,,,,,,,"meters","2.0","meters","772.710","deg","197.749","ddeg","44.56991768","ddeg","-125.14647733",,,,,,"PilotCam",,"BrowCam",,"UserSelect",,"SciCam",,"/PilotCam.20230828_024038878.jpg",,"/BrowCam.20230828_024038878.jpg",,"/UserSelect.20230828_024038878.jpg",,"/SciCam.20230828_024038878.jpg","meters","0.00","meters","772.71","deg","197.59","ddeg","0.1227222","meters","9824599.93","meters","-4938923.85","ddeg","-1.4738127","deg","0.2","deg","-4.1","degC","4.34","degC","-999.99","degC","-999.99","degC","-999.99"
"64ec092a95482d0019b26ae4","2023-08-28T02:40:42.128Z","FREE_FORM","guest","moving ship",,,,,,,,,"meters","2.0","meters","772.711","deg","197.749","ddeg","44.56991698","ddeg","-125.14647932",,,,,,"PilotCam",,"BrowCam",,"UserSelect",,"SciCam",,"/PilotCam.20230828_024042128.jpg",,"/BrowCam.20230828_024042128.jpg",,"/UserSelect.20230828_024042128.jpg",,"/SciCam.20230828_024042128.jpg","meters","0.00","meters","772.71","deg","197.59","ddeg","0.1227222","meters","9824599.93","meters","-4938923.85","ddeg","-1.4738127","deg","0.2","deg","-4.1","degC","4.36","degC","-999.99","degC","-999.99","degC","-999.99"
"64ec094495482d0019b26ae8","2023-08-28T02:41:08.923Z","ASNAP","admin","",,,,,,,,,"meters","2.0","meters","772.713","deg","197.738","ddeg","44.56991133","ddeg","-125.14648683",,,,,,"PilotCam",,"BrowCam",,"UserSelect",,"SciCam",,"/PilotCam.20230828_024108923.jpg",,"/BrowCam.20230828_024108923.jpg",,"/UserSelect.20230828_024108923.jpg",,"/SciCam.20230828_024108923.jpg","meters","0.00","meters","772.71","deg","197.58","ddeg","0.1227217","meters","9824599.95","meters","-4938923.90","ddeg","-1.4738124","deg","0.2","deg","-4.2","degC","4.28","degC","-999.99","degC","-999.99","degC","-999.99"
"64ec096295482d0019b26aec","2023-08-28T02:41:38.967Z","ASNAP","admin","",,,,,,,,,"meters","2.4","meters","772.357","deg","198.452","ddeg","44.56992638","ddeg","-125.14647574",,,,,,"PilotCam",,"BrowCam",,"UserSelect",,"SciCam",,"/PilotCam.20230828_024138967.jpg",,"/BrowCam.20230828_024138967.jpg",,"/UserSelect.20230828_024138967.jpg",,"/SciCam.20230828_024138967.jpg","meters","0.00","meters","772.39","deg","198.23","ddeg","0.1227223","meters","9824599.99","meters","-4938923.84","ddeg","-1.4738119","deg","-5.2","deg","1.7","degC","4.28","degC","-999.99","degC","-999.99","degC","-999.99"
"64ec096c95482d0019b26af0","2023-08-28T02:41:48.935Z","ROV Actions","guest","undervator","Unlatching from",,,,,,,,"meters","3.4","meters","771.325","deg","201.198","ddeg","44.56993815","ddeg","-125.14647166",,,,,,"PilotCam",,"BrowCam",,"UserSelect",,"SciCam",,"/PilotCam.20230828_024148935.jpg",,"/BrowCam.20230828_024148935.jpg",,"/UserSelect.20230828_024148935.jpg",,"/SciCam.20230828_024148935.jpg","meters","0.00","meters","771.32","deg","200.99","ddeg","0.1227354","meters","9824599.83","meters","-4938922.38","ddeg","-1.4738139","deg","-2.5","deg","-1.5","degC","4.43","degC","-999.99","degC","-999.99","degC","-999.99"
"64ec098195482d0019b26af4","2023-08-28T02:42:09.013Z","ASNAP","admin","",,,,,,,,,"meters","6.3","meters","768.665","deg","206.965","ddeg","44.56996889","ddeg","-125.14646985",,,,,,"PilotCam",,"BrowCam",,"UserSelect",,"SciCam",,"/PilotCam.20230828_024209013.jpg",,"/BrowCam.20230828_024209013.jpg",,"/UserSelect.20230828_024209013.jpg",,"/SciCam.20230828_024209013.jpg","meters","0.00","meters","768.71","deg","202.64","ddeg","0.1227700","meters","9824600.64","meters","-4938918.54","ddeg","-1.4738037","deg","-3.3","deg","-0.9","degC","4.20","degC","-999.99","degC","-999.99","degC","-999.99"
"64ec099f95482d0019b26af8","2023-08-28T02:42:39.082Z","ASNAP","admin","",,,,,,,,,"meters","5.7","meters","769.345","deg","224.483","ddeg","44.56999160","ddeg","-125.14652124",,,,,,"PilotCam",,"BrowCam",,"UserSelect",,"SciCam",,"/PilotCam.20230828_024239082.jpg",,"/BrowCam.20230828_024239082.jpg",,"/UserSelect.20230828_024239082.jpg",,"/SciCam.20230828_024239082.jpg","meters","0.00","meters","769.26","deg","224.35","ddeg","0.1227873","meters","9824597.78","meters","-4938916.62","ddeg","-1.4738397","deg","-2.6","deg","-0.3","degC","4.31","degC","-999.99","degC","-999.99","degC","-999.99"
"64ec09bd95482d0019b26afc","2023-08-28T02:43:09.102Z","ASNAP","admin","",,,,,,,,,"meters","3.9","meters","769.869","deg","220.788","ddeg","44.56998830","ddeg","-125.14659969",,,,,,"PilotCam",,"BrowCam",,"UserSelect",,"SciCam",,"/PilotCam.20230828_024309102.jpg",,"/BrowCam.20230828_024309102.jpg",,"/UserSelect.20230828_024309102.jpg",,"/SciCam.20230828_024309102.jpg","meters","0.00","meters","769.86","deg","220.28","ddeg","0.1227847","meters","9824592.81","meters","-4938916.90","ddeg","-1.4739023","deg","-2.2","deg","-0.8","degC","3.80","degC","-999.99","degC","-999.99","degC","-999.99"
"64ec09d795482d0019b26b00","2023-08-28T02:43:35.795Z","Biology Type","guest","rockfish",,,,,,,,"Fish","meters","3.8","meters","770.025","deg","180.521","ddeg","44.56995270","ddeg","-125.14663869",,,,,,"PilotCam",,"BrowCam",,"UserSelect",,"SciCam",,"/PilotCam.20230828_024335795.jpg",,"/BrowCam.20230828_024335795.jpg",,"/UserSelect.20230828_024335795.jpg",,"/SciCam.20230828_024335795.jpg","meters","0.00","meters","770.03","deg","180.26","ddeg","0.1227471","meters","9824590.83","meters","-4938921.08","ddeg","-1.4739272","deg","-2.8","deg","-1.3","degC","4.17","degC","-999.99","degC","-999.99","degC","-999.99"
"64ec09db95482d0019b26b04","2023-08-28T02:43:39.124Z","ASNAP","admin","",,,,,,,,,"meters","3.7","meters","770.182","deg","165.242","ddeg","44.56994606","ddeg","-125.14663878",,,,,,"PilotCam",,"BrowCam",,"UserSelect",,"SciCam",,"/PilotCam.20230828_024339124.jpg",,"/BrowCam.20230828_024339124.jpg",,"/UserSelect.20230828_024339124.jpg",,"/SciCam.20230828_024339124.jpg","meters","0.00","meters","770.17","deg","167.28","ddeg","0.1227424","meters","9824590.90","meters","-4938921.60","ddeg","-1.4739263","deg","-3.0","deg","-1.0","degC","4.35","degC","-999.99","degC","-999.99","degC","-999.99"
"64ec09f995482d0019b26b08","2023-08-28T02:44:09.194Z","ASNAP","admin","",,,,,,,,,"meters","2.3","meters","771.486","deg","168.924","ddeg","44.56990707","ddeg","-125.14660887",,,,,,"PilotCam",,"BrowCam",,"UserSelect",,"SciCam",,"/PilotCam.20230828_024409194.jpg",,"/BrowCam.20230828_024409194.jpg",,"/UserSelect.20230828_024409194.jpg",,"/SciCam.20230828_024409194.jpg","meters","0.00","meters","771.59","deg","168.52","ddeg","0.1227118","meters","9824592.22","meters","-4938925.01","ddeg","-1.4739097","deg","-3.0","deg","-0.8","degC","4.27","degC","-999.99","degC","-999.99","degC","-999.99"
"64ec0a1795482d0019b26b0c","2023-08-28T02:44:39.273Z","ASNAP","admin","",,,,,,,,,"meters","2.9","meters","771.483","deg","217.671","ddeg","44.56987647","ddeg","-125.14658918",,,,,,"PilotCam",,"BrowCam",,"UserSelect",,"SciCam",,"/PilotCam.20230828_024439273.jpg",,"/BrowCam.20230828_024439273.jpg",,"/UserSelect.20230828_024439273.jpg",,"/SciCam.20230828_024439273.jpg","meters","0.00","meters","771.50","deg","217.46","ddeg","0.1226660","meters","9824592.72","meters","-4938930.09","ddeg","-1.4739034","deg","-3.0","deg","-0.3","degC","4.20","degC","-999.99","degC","-999.99","degC","-999.99"
"64ec0a3595482d0019b26b10","2023-08-28T02:45:09.325Z","ASNAP","admin","",,,,,,,,,"meters","2.0","meters","772.453","deg","227.815","ddeg","44.56986599","ddeg","-125.14657509",,,,,,"PilotCam",,"BrowCam",,"UserSelect",,"SciCam",,"/PilotCam.20230828_024509325.jpg",,"/BrowCam.20230828_024509325.jpg",,"/UserSelect.20230828_024509325.jpg",,"/SciCam.20230828_024509325.jpg","meters","0.00","meters","772.47","deg","227.61","ddeg","0.1226541","meters","9824592.45","meters","-4938931.42","ddeg","-1.4739068","deg","-2.8","deg","-0.5","degC","4.29","degC","-999.99","degC","-999.99","degC","-999.99"
"64ec0a4895482d0019b26b14","2023-08-28T02:45:28.902Z","Biology Type","guest","",,,,,,,,"Hagfish","meters","2.0","meters","772.296","deg","282.043","ddeg","44.56986890","ddeg","-125.14656559",,,,,,"PilotCam",,"BrowCam",,"UserSelect",,"SciCam",,"/PilotCam.20230828_024528902.jpg",,"/BrowCam.20230828_024528902.jpg",,"/UserSelect.20230828_024528902.jpg",,"/SciCam.20230828_024528902.jpg","meters","0.00","meters","772.30","deg","281.83","ddeg","0.1226447","meters","9824592.55","meters","-4938932.46","ddeg","-1.4739056","deg","-3.4","deg","0.0","degC","4.15","degC","-999.99","degC","-999.99","degC","-999.99"
"64ec0a4d95482d0019b26b18","2023-08-28T02:45:33.355Z","Biology Type","guest","several rockfish",,,,,,,,"Fish","meters","1.8","meters","772.364","deg","292.574","ddeg","44.56987093","ddeg","-125.14656845",,,,,,"PilotCam",,"BrowCam",,"UserSelect",,"SciCam",,"/PilotCam.20230828_024533355.jpg",,"/BrowCam.20230828_024533355.jpg",,"/UserSelect.20230828_024533355.jpg",,"/SciCam.20230828_024533355.jpg","meters","0.00","meters","772.36","deg","292.34","ddeg","0.1226479","meters","9824592.27","meters","-4938932.11","ddeg","-1.4739091","deg","-3.7","deg","0.1","degC","4.09","degC","-999.99","degC","-999.99","degC","-999.99"
"64ec0a5395482d0019b26b1c","2023-08-28T02:45:39.378Z","ASNAP","admin","",,,,,,,,,"meters","1.9","meters","772.356","deg","288.893","ddeg","44.56987416","ddeg","-125.14657658",,,,,,"PilotCam",,"BrowCam",,"UserSelect",,"SciCam",,"/PilotCam.20230828_024539378.jpg",,"/BrowCam.20230828_024539378.jpg",,"/UserSelect.20230828_024539378.jpg",,"/SciCam.20230828_024539378.jpg","meters","0.00","meters","772.37","deg","288.64","ddeg","0.1226550","meters","9824591.98","meters","-4938931.32","ddeg","-1.4739128","deg","-3.4","deg","0.0","degC","4.19","degC","-999.99","degC","-999.99","degC","-999.99"
"64ec0a7195482d0019b26b20","2023-08-28T02:46:09.442Z","ASNAP","admin","",,,,,,,,,"meters","1.6","meters","772.262","deg","262.592","ddeg","44.56989560","ddeg","-125.14667275",,,,,,"PilotCam",,"BrowCam",,"UserSelect",,"SciCam",,"/PilotCam.20230828_024609442.jpg",,"/BrowCam.20230828_024609442.jpg",,"/UserSelect.20230828_024609442.jpg",,"/SciCam.20230828_024609442.jpg","meters","0.00","meters","772.26","deg","262.22","ddeg","0.1226857","meters","9824586.72","meters","-4938927.90","ddeg","-1.4739790","deg","-3.1","deg","-0.2","degC","4.12","degC","-999.99","degC","-999.99","degC","-999.99"
"64ec0a8f95482d0019b26b24","2023-08-28T02:46:39.472Z","ASNAP","admin","",,,,,,,,,"meters","2.0","meters","772.189","deg","256.243","ddeg","44.56991154","ddeg","-125.14673366",,,,,,"PilotCam",,"BrowCam",,"UserSelect",,"SciCam",,"/PilotCam.20230828_024639472.jpg",,"/BrowCam.20230828_024639472.jpg",,"/UserSelect.20230828_024639472.jpg",,"/SciCam.20230828_024639472.jpg","meters","0.00","meters","772.18","deg","255.90","ddeg","0.1226969","meters","9824584.13","meters","-4938926.66","ddeg","-1.4740116","deg","-3.5","deg","0.3","degC","4.51","degC","-999.99","degC","-999.99","degC","-999.99"
"64ec0aad95482d0019b26b28","2023-08-28T02:47:09.541Z","ASNAP","admin","",,,,,,,,,"meters","1.8","meters","772.211","deg","274.530","ddeg","44.56990417","ddeg","-125.14671849",,,,,,"PilotCam",,"BrowCam",,"UserSelect",,"SciCam",,"/PilotCam.20230828_024709541.jpg",,"/BrowCam.20230828_024709541.jpg",,"/UserSelect.20230828_024709541.jpg",,"/SciCam.20230828_024709541.jpg","meters","0.00","meters","772.20","deg","274.28","ddeg","0.1226918","meters","9824584.66","meters","-4938927.23","ddeg","-1.4740049","deg","-3.6","deg","-1.5","degC","4.17","degC","-999.99","degC","-999.99","degC","-999.99"
"64ec0acb95482d0019b26b2c","2023-08-28T02:47:39.583Z","ASNAP","admin","",,,,,,,,,"meters","2.1","meters","772.373","deg","319.895","ddeg","44.56987177","ddeg","-125.14673609",,,,,,"PilotCam",,"BrowCam",,"UserSelect",,"SciCam",,"/PilotCam.20230828_024739583.jpg",,"/BrowCam.20230828_024739583.jpg",,"/UserSelect.20230828_024739583.jpg",,"/SciCam.20230828_024739583.jpg","meters","0.00","meters","772.37","deg","319.67","ddeg","0.1226619","meters","9824581.81","meters","-4938930.55","ddeg","-1.4740408","deg","-3.7","deg","0.0","degC","4.09","degC","-999.99","degC","-999.99","degC","-999.99"
"64ec0ae995482d0019b26b30","2023-08-28T02:48:09.606Z","ASNAP","admin","",,,,,,,,,"meters","1.1","meters","772.954","deg","15.166","ddeg","44.56985808","ddeg","-125.14677518",,,,,,"PilotCam",,"BrowCam",,"UserSelect",,"SciCam",,"/PilotCam.20230828_024809606.jpg",,"/BrowCam.20230828_024809606.jpg",,"/UserSelect.20230828_024809606.jpg",,"/SciCam.20230828_024809606.jpg","meters","0.00","meters","772.95","deg","14.93","ddeg","0.1226685","meters","9824579.78","meters","-4938929.82","ddeg","-1.4740663","deg","-4.0","deg","-0.5","degC","4.23","degC","-999.99","degC","-999.99","degC","-999.99"
"64ec0b0795482d0019b26b34","2023-08-28T02:48:39.624Z","ASNAP","admin","",,,,,,,,,"meters","0.8","meters","773.047","deg","90.183","ddeg","44.56987220","ddeg","-125.14681827",,,,,,"PilotCam",,"BrowCam",,"UserSelect",,"SciCam",,"/PilotCam.20230828_024839624.jpg",,"/BrowCam.20230828_024839624.jpg",,"/UserSelect.20230828_024839624.jpg",,"/SciCam.20230828_024839624.jpg","meters","0.00","meters","773.05","deg","89.89","ddeg","0.1226975","meters","9824577.89","meters","-4938926.59","ddeg","-1.4740901","deg","-3.6","deg","-0.9","degC","4.30","degC","-999.99","degC","-999.99","degC","-999.99"
"64ec0b2395482d0019b26b38","2023-08-28T02:49:07.560Z","Biology Type","guest","",,,,,,,,"Seastar","meters","1.6","meters","772.484","deg","90.813","ddeg","44.56990505","ddeg","-125.14682614",,,,,,"PilotCam",,"BrowCam",,"UserSelect",,"SciCam",,"/PilotCam.20230828_024907560.jpg",,"/BrowCam.20230828_024907560.jpg",,"/UserSelect.20230828_024907560.jpg",,"/SciCam.20230828_024907560.jpg","meters","0.00","meters","772.48","deg","90.53","ddeg","0.1227297","meters","9824578.15","meters","-4938923.02","ddeg","-1.4740868","deg","-3.1","deg","-1.3","degC","4.15","degC","-999.99","degC","-999.99","degC","-999.99"
"64ec0b2595482d0019b26b3c","2023-08-28T02:49:09.650Z","ASNAP","admin","",,,,,,,,,"meters","1.7","meters","772.414","deg","88.698","ddeg","44.56990700","ddeg","-125.14682558",,,,,,"PilotCam",,"BrowCam",,"UserSelect",,"SciCam",,"/PilotCam.20230828_024909650.jpg",,"/BrowCam.20230828_024909650.jpg",,"/UserSelect.20230828_024909650.jpg",,"/SciCam.20230828_024909650.jpg","meters","0.00","meters","772.42","deg","88.43","ddeg","0.1227286","meters","9824578.10","meters","-4938923.14","ddeg","-1.4740875","deg","-3.9","deg","-1.7","degC","4.19","degC","-999.99","degC","-999.99","degC","-999.99"
"64ec0b4395482d0019b26b40","2023-08-28T02:49:39.694Z","ASNAP","admin","",,,,,,,,,"meters","2.3","meters","772.143","deg","69.556","ddeg","44.56992725","ddeg","-125.14682316",,,,,,"PilotCam",,"BrowCam",,"UserSelect",,"SciCam",,"/PilotCam.20230828_024939694.jpg",,"/BrowCam.20230828_024939694.jpg",,"/UserSelect.20230828_024939694.jpg",,"/SciCam.20230828_024939694.jpg","meters","0.00","meters","772.14","deg","69.30","ddeg","0.1227559","meters","9824577.85","meters","-4938920.10","ddeg","-1.4740906","deg","-3.8","deg","-0.8","degC","4.15","degC","-999.99","degC","-999.99","degC","-999.99"
"64ec0b6195482d0019b26b44","2023-08-28T02:50:09.733Z","ASNAP","admin","",,,,,,,,,"meters","3.5","meters","770.846","deg","67.216","ddeg","44.56992489","ddeg","-125.14681614",,,,,,"PilotCam",,"BrowCam",,"UserSelect",,"SciCam",,"/PilotCam.20230828_025009733.jpg",,"/BrowCam.20230828_025009733.jpg",,"/UserSelect.20230828_025009733.jpg",,"/SciCam.20230828_025009733.jpg","meters","0.00","meters","770.84","deg","67.02","ddeg","0.1227491","meters","9824578.19","meters","-4938920.86","ddeg","-1.4740863","deg","-3.9","deg","-1.1","degC","4.43","degC","-999.99","degC","-999.99","degC","-999.99"
"64ec0b7f95482d0019b26b48","2023-08-28T02:50:39.754Z","ASNAP","admin","",,,,,,,,,"meters","2.9","meters","771.664","deg","68.228","ddeg","44.56990045","ddeg","-125.14675968",,,,,,"PilotCam",,"BrowCam",,"UserSelect",,"SciCam",,"/PilotCam.20230828_025039754.jpg",,"/BrowCam.20230828_025039754.jpg",,"/UserSelect.20230828_025039754.jpg",,"/SciCam.20230828_025039754.jpg","meters","0.00","meters","771.67","deg","68.08","ddeg","0.1227230","meters","9824581.41","meters","-4938923.76","ddeg","-1.4740458","deg","-4.0","deg","-1.4","degC","4.18","degC","-999.99","degC","-999.99","degC","-999.99"
"64ec0b8a95482d0019b26b4c","2023-08-28T02:50:50.021Z","FREE_FORM","guest","documenting existing sites",,,,,,,,,"meters","2.9","meters","771.711","deg","66.617","ddeg","44.56989667","ddeg","-125.14673509",,,,,,"PilotCam",,"BrowCam",,"UserSelect",,"SciCam",,"/PilotCam.20230828_025050021.jpg",,"/BrowCam.20230828_025050021.jpg",,"/UserSelect.20230828_025050021.jpg",,"/SciCam.20230828_025050021.jpg","meters","0.00","meters","771.70","deg","66.35","ddeg","0.1227248","meters","9824583.01","meters","-4938923.56","ddeg","-1.4740257","deg","-3.8","deg","-1.2","degC","4.23","degC","-999.99","degC","-999.99","degC","-999.99"
"64ec0b9d95482d0019b26b50","2023-08-28T02:51:09.799Z","ASNAP","admin","",,,,,,,,,"meters","2.1","meters","772.389","deg","72.108","ddeg","44.56989979","ddeg","-125.14670781",,,,,,"PilotCam",,"BrowCam",,"UserSelect",,"SciCam",,"/PilotCam.20230828_025109799.jpg",,"/BrowCam.20230828_025109799.jpg",,"/UserSelect.20230828_025109799.jpg",,"/SciCam.20230828_025109799.jpg","meters","0.00","meters","772.44","deg","72.02","ddeg","0.1227297","meters","9824585.29","meters","-4938923.02","ddeg","-1.4739970","deg","-3.4","deg","-1.3","degC","4.26","degC","-999.99","degC","-999.99","degC","-999.99"
"64ec0bbb95482d0019b26b54","2023-08-28T02:51:39.836Z","ASNAP","admin","",,,,,,,,,"meters","2.4","meters","772.193","deg","117.517","ddeg","44.56989753","ddeg","-125.14668868",,,,,,"PilotCam",,"BrowCam",,"UserSelect",,"SciCam",,"/PilotCam.20230828_025139836.jpg",,"/BrowCam.20230828_025139836.jpg",,"/UserSelect.20230828_025139836.jpg",,"/SciCam.20230828_025139836.jpg","meters","0.00","meters","772.18","deg","117.31","ddeg","0.1227281","meters","9824586.34","meters","-4938923.19","ddeg","-1.4739837","deg","-3.2","deg","-0.9","degC","4.25","degC","-999.99","degC","-999.99","degC","-999.99"
"64ec0bd995482d0019b26b58","2023-08-28T02:52:09.906Z","ASNAP","admin","",,,,,,,,,"meters","2.3","meters","772.183","deg","72.760","ddeg","44.56987620","ddeg","-125.14666143",,,,,,"PilotCam",,"BrowCam",,"UserSelect",,"SciCam",,"/PilotCam.20230828_025209906.jpg",,"/BrowCam.20230828_025209906.jpg",,"/UserSelect.20230828_025209906.jpg",,"/SciCam.20230828_025209906.jpg","meters","0.00","meters","772.19","deg","72.68","ddeg","0.1227011","meters","9824587.44","meters","-4938926.19","ddeg","-1.4739699","deg","-3.7","deg","-2.0","degC","4.32","degC","-999.99","degC","-999.99","degC","-999.99"
"64ec0bf795482d0019b26b5c","2023-08-28T02:52:39.948Z","ASNAP","admin","",,,,,,,,,"meters","3.3","meters","771.161","deg","61.833","ddeg","44.56987186","ddeg","-125.14664273",,,,,,"PilotCam",,"BrowCam",,"UserSelect",,"SciCam",,"/PilotCam.20230828_025239948.jpg",,"/BrowCam.20230828_025239948.jpg",,"/UserSelect.20230828_025239948.jpg",,"/SciCam.20230828_025239948.jpg","meters","0.00","meters","771.14","deg","61.28","ddeg","0.1226965","meters","9824588.17","meters","-4938926.70","ddeg","-1.4739607","deg","-3.7","deg","-1.9","degC","4.13","degC","-999.99","degC","-999.99","degC","-999.99"
"64ec0c1695482d0019b26b60","2023-08-28T02:53:10.008Z","ASNAP","admin","",,,,,,,,,"meters","5.5","meters","769.067","deg","23.604","ddeg","44.56986543","ddeg","-125.14666360",,,,,,"PilotCam",,"BrowCam",,"UserSelect",,"SciCam",,"/PilotCam.20230828_025310008.jpg",,"/BrowCam.20230828_025310008.jpg",,"/UserSelect.20230828_025310008.jpg",,"/SciCam.20230828_025310008.jpg","meters","0.00","meters","769.03","deg","22.80","ddeg","0.1226764","meters","9824586.78","meters","-4938928.94","ddeg","-1.4739782","deg","-4.0","deg","-1.6","degC","4.12","degC","-999.99","degC","-999.99","degC","-999.99"
"64ec0c3495482d0019b26b64","2023-08-28T02:53:40.058Z","ASNAP","admin","",,,,,,,,,"meters","3.9","meters","770.638","deg","23.348","ddeg","44.56987097","ddeg","-125.14669412",,,,,,"PilotCam",,"BrowCam",,"UserSelect",,"SciCam",,"/PilotCam.20230828_025340058.jpg",,"/BrowCam.20230828_025340058.jpg",,"/UserSelect.20230828_025340058.jpg",,"/SciCam.20230828_025340058.jpg","meters","0.00","meters","770.68","deg","22.78","ddeg","0.1226888","meters","9824584.72","meters","-4938927.56","ddeg","-1.4740041","deg","-4.2","deg","-0.7","degC","4.35","degC","-999.99","degC","-999.99","degC","-999.99"
"64ec0c5295482d0019b26b68","2023-08-28T02:54:10.127Z","ASNAP","admin","",,,,,,,,,"meters","4.3","meters","770.156","deg","22.586","ddeg","44.56988011","ddeg","-125.14669139",,,,,,"PilotCam",,"BrowCam",,"UserSelect",,"SciCam",,"/PilotCam.20230828_025410127.jpg",,"/BrowCam.20230828_025410127.jpg",,"/UserSelect.20230828_025410127.jpg",,"/SciCam.20230828_025410127.jpg","meters","0.00","meters","770.17","deg","22.20","ddeg","0.1226947","meters","9824585.10","meters","-4938926.90","ddeg","-1.4739994","deg","-4.2","deg","-0.8","degC","4.25","degC","-999.99","degC","-999.99","degC","-999.99"
"64ec0c6c95482d0019b26b6c","2023-08-28T02:54:36.389Z","FREE_FORM","guest","surveying area to place instruments",,,,,,,,,"meters","4.5","meters","770.084","deg","23.414","ddeg","44.56987892","ddeg","-125.14669312",,,,,,"PilotCam",,"BrowCam",,"UserSelect",,"SciCam",,"/PilotCam.20230828_025436389.jpg",,"/BrowCam.20230828_025436389.jpg",,"/UserSelect.20230828_025436389.jpg",,"/SciCam.20230828_025436389.jpg","meters","0.00","meters","770.08","deg","23.07","ddeg","0.1226941","meters","9824585.15","meters","-4938926.97","ddeg","-1.4739987","deg","-4.1","deg","-0.7","degC","4.16","degC","-999.99","degC","-999.99","degC","-999.99"
"64ec0c7095482d0019b26b70","2023-08-28T02:54:40.173Z","ASNAP","admin","",,,,,,,,,"meters","4.4","meters","770.086","deg","23.474","ddeg","44.56987843","ddeg","-125.14669387",,,,,,"PilotCam",,"BrowCam",,"UserSelect",,"SciCam",,"/PilotCam.20230828_025440173.jpg",,"/BrowCam.20230828_025440173.jpg",,"/UserSelect.20230828_025440173.jpg",,"/SciCam.20230828_025440173.jpg","meters","0.00","meters","770.09","deg","23.22","ddeg","0.1226941","meters","9824585.14","meters","-4938926.97","ddeg","-1.4739989","deg","-4.1","deg","-0.7","degC","4.20","degC","-999.99","degC","-999.99","degC","-999.99"
"64ec0c8e95482d0019b26b74","2023-08-28T02:55:10.235Z","ASNAP","admin","",,,,,,,,,"meters","4.5","meters","770.076","deg","23.617","ddeg","44.56988562","ddeg","-125.14669429",,,,,,"PilotCam",,"BrowCam",,"UserSelect",,"SciCam",,"/PilotCam.20230828_025510235.jpg",,"/BrowCam.20230828_025510235.jpg",,"/UserSelect.20230828_025510235.jpg",,"/SciCam.20230828_025510235.jpg","meters","0.00","meters","770.07","deg","23.24","ddeg","0.1226942","meters","9824585.12","meters","-4938926.96","ddeg","-1.4739991","deg","-4.0","deg","-0.7","degC","4.33","degC","-999.99","degC","-999.99","degC","-999.99"
"64ec0cac95482d0019b26b78","2023-08-28T02:55:40.263Z","ASNAP","admin","",,,,,,,,,"meters","3.1","meters","771.201","deg","349.182","ddeg","44.56993112","ddeg","-125.14668845",,,,,,"PilotCam",,"BrowCam",,"UserSelect",,"SciCam",,"/PilotCam.20230828_025540263.jpg",,"/BrowCam.20230828_025540263.jpg",,"/UserSelect.20230828_025540263.jpg",,"/SciCam.20230828_025540263.jpg","meters","0.00","meters","771.15","deg","348.27","ddeg","0.1227435","meters","9824585.69","meters","-4938921.48","ddeg","-1.4739919","deg","-4.2","deg","0.2","degC","4.29","degC","-999.99","degC","-999.99","degC","-999.99"
"64ec0cca95482d0019b26b7c","2023-08-28T02:56:10.331Z","ASNAP","admin","",,,,,,,,,"meters","2.2","meters","772.123","deg","346.331","ddeg","44.56995583","ddeg","-125.14668956",,,,,,"PilotCam",,"BrowCam",,"UserSelect",,"SciCam",,"/PilotCam.20230828_025610331.jpg",,"/BrowCam.20230828_025610331.jpg",,"/UserSelect.20230828_025610331.jpg",,"/SciCam.20230828_025610331.jpg","meters","0.00","meters","772.10","deg","345.84","ddeg","0.1227529","meters","9824585.68","meters","-4938920.44","ddeg","-1.4739921","deg","-4.0","deg","-0.3","degC","4.18","degC","-999.99","degC","-999.99","degC","-999.99"
"64ec0ce895482d0019b26b80","2023-08-28T02:56:40.386Z","ASNAP","admin","",,,,,,,,,"meters","2.3","meters","772.089","deg","344.755","ddeg","44.56995350","ddeg","-125.14668589",,,,,,"PilotCam",,"BrowCam",,"UserSelect",,"SciCam",,"/PilotCam.20230828_025640386.jpg",,"/BrowCam.20230828_025640386.jpg",,"/UserSelect.20230828_025640386.jpg",,"/SciCam.20230828_025640386.jpg","meters","0.00","meters","772.09","deg","344.27","ddeg","0.1227547","meters","9824585.59","meters","-4938920.24","ddeg","-1.4739932","deg","-3.9","deg","-0.4","degC","4.18","degC","-999.99","degC","-999.99","degC","-999.99"
"64ec0d0695482d0019b26b84","2023-08-28T02:57:10.455Z","ASNAP","admin","",,,,,,,,,"meters","2.3","meters","772.111","deg","345.191","ddeg","44.56994870","ddeg","-125.14668552",,,,,,"PilotCam",,"BrowCam",,"UserSelect",,"SciCam",,"/PilotCam.20230828_025710455.jpg",,"/BrowCam.20230828_025710455.jpg",,"/UserSelect.20230828_025710455.jpg",,"/SciCam.20230828_025710455.jpg","meters","0.00","meters","772.11","deg","344.69","ddeg","0.1227541","meters","9824585.58","meters","-4938920.30","ddeg","-1.4739933","deg","-3.9","deg","-0.5","degC","4.08","degC","-999.99","degC","-999.99","degC","-999.99"
"64ec0d1995482d0019b26b88","2023-08-28T02:57:29.496Z","Biology Type","guest","",,,,,,,,"Hagfish","meters","2.2","meters","772.123","deg","345.696","ddeg","44.56995011","ddeg","-125.14668651",,,,,,"PilotCam",,"BrowCam",,"UserSelect",,"SciCam",,"/PilotCam.20230828_025729496.jpg",,"/BrowCam.20230828_025729496.jpg",,"/UserSelect.20230828_025729496.jpg",,"/SciCam.20230828_025729496.jpg","meters","0.00","meters","772.13","deg","345.13","ddeg","0.1227540","meters","9824585.57","meters","-4938920.31","ddeg","-1.4739934","deg","-3.9","deg","-0.3","degC","4.29","degC","-999.99","degC","-999.99","degC","-999.99"
"64ec0d2495482d0019b26b8c","2023-08-28T02:57:40.508Z","ASNAP","admin","",,,,,,,,,"meters","2.2","meters","772.110","deg","345.610","ddeg","44.56995142","ddeg","-125.14668562",,,,,,"PilotCam",,"BrowCam",,"UserSelect",,"SciCam",,"/PilotCam.20230828_025740508.jpg",,"/BrowCam.20230828_025740508.jpg",,"/UserSelect.20230828_025740508.jpg",,"/SciCam.20230828_025740508.jpg","meters","0.00","meters","772.11","deg","345.05","ddeg","0.1227541","meters","9824585.58","meters","-4938920.30","ddeg","-1.4739933","deg","-3.8","deg","-0.2","degC","4.05","degC","-999.99","degC","-999.99","degC","-999.99"
"64ec0d4295482d0019b26b90","2023-08-28T02:58:10.554Z","ASNAP","admin","",,,,,,,,,"meters","2.6","meters","771.867","deg","54.788","ddeg","44.56995517","ddeg","-125.14666401",,,,,,"PilotCam",,"BrowCam",,"UserSelect",,"SciCam",,"/PilotCam.20230828_025810554.jpg",,"/BrowCam.20230828_025810554.jpg",,"/UserSelect.20230828_025810554.jpg",,"/SciCam.20230828_025810554.jpg","meters","0.00","meters","771.86","deg","54.63","ddeg","0.1227729","meters","9824587.74","meters","-4938918.22","ddeg","-1.4739661","deg","-4.1","deg","-1.1","degC","4.18","degC","-999.99","degC","-999.99","degC","-999.99"
"64ec0d6095482d0019b26b94","2023-08-28T02:58:40.599Z","ASNAP","admin","",,,,,,,,,"meters","2.4","meters","771.719","deg","102.432","ddeg","44.56994947","ddeg","-125.14660936",,,,,,"PilotCam",,"BrowCam",,"UserSelect",,"SciCam",,"/PilotCam.20230828_025840599.jpg",,"/BrowCam.20230828_025840599.jpg",,"/UserSelect.20230828_025840599.jpg",,"/SciCam.20230828_025840599.jpg","meters","0.00","meters","771.72","deg","101.83","ddeg","0.1227726","meters","9824591.12","meters","-4938918.25","ddeg","-1.4739236","deg","-3.7","deg","-1.3","degC","4.26","degC","-999.99","degC","-999.99","degC","-999.99"
"64ec0d7e95482d0019b26b98","2023-08-28T02:59:10.643Z","ASNAP","admin","",,,,,,,,,"meters","1.9","meters","772.273","deg","103.231","ddeg","44.56992851","ddeg","-125.14653578",,,,,,"PilotCam",,"BrowCam",,"UserSelect",,"SciCam",,"/PilotCam.20230828_025910643.jpg",,"/BrowCam.20230828_025910643.jpg",,"/UserSelect.20230828_025910643.jpg",,"/SciCam.20230828_025910643.jpg","meters","0.00","meters","772.27","deg","102.60","ddeg","0.1227532","meters","9824595.42","meters","-4938920.41","ddeg","-1.4738694","deg","-4.0","deg","-1.5","degC","4.28","degC","-999.99","degC","-999.99","degC","-999.99"
"64ec0d9695482d0019b26b9c","2023-08-28T02:59:34.016Z","Biology Type","guest","",,,,,,,,"Crab","meters","1.4","meters","773.265","deg","105.452","ddeg","44.56992106","ddeg","-125.14649051",,,,,,"PilotCam",,"BrowCam",,"UserSelect",,"SciCam",,"/PilotCam.20230828_025934016.jpg",,"/BrowCam.20230828_025934016.jpg",,"/UserSelect.20230828_025934016.jpg",,"/SciCam.20230828_025934016.jpg","meters","0.00","meters","773.23","deg","105.26","ddeg","0.1227479","meters","9824598.29","meters","-4938920.99","ddeg","-1.4738333","deg","-3.0","deg","-0.9","degC","4.23","degC","-999.99","degC","-999.99","degC","-999.99"
"64ec0d9c95482d0019b26ba0","2023-08-28T02:59:40.693Z","ASNAP","admin","",,,,,,,,,"meters","1.1","meters","773.544","deg","105.981","ddeg","44.56992101","ddeg","-125.14648395",,,,,,"PilotCam",,"BrowCam",,"UserSelect",,"SciCam",,"/PilotCam.20230828_025940693.jpg",,"/BrowCam.20230828_025940693.jpg",,"/UserSelect.20230828_025940693.jpg",,"/SciCam.20230828_025940693.jpg","meters","0.00","meters","773.61","deg","105.40","ddeg","0.1227465","meters","9824598.72","meters","-4938921.15","ddeg","-1.4738279","deg","-3.1","deg","-2.4","degC","4.29","degC","-999.99","degC","-999.99","degC","-999.99"
"64ec0da395482d0019b26ba4","2023-08-28T02:59:47.366Z","Biology Type","guest","",,,,,,,,"Anemone","meters","0.8","meters","773.830","deg","105.661","ddeg","44.56992121","ddeg","-125.14647884",,,,,,"PilotCam",,"BrowCam",,"UserSelect",,"SciCam",,"/PilotCam.20230828_025947366.jpg",,"/BrowCam.20230828_025947366.jpg",,"/UserSelect.20230828_025947366.jpg",,"/SciCam.20230828_025947366.jpg","meters","0.00","meters","773.85","deg","104.96","ddeg","0.1227470","meters","9824599.11","meters","-4938921.09","ddeg","-1.4738230","deg","-3.4","deg","-1.7","degC","4.12","degC","-999.99","degC","-999.99","degC","-999.99"
"64ec0dba95482d0019b26ba8","2023-08-28T03:00:10.714Z","ASNAP","admin","",,,,,,,,,"meters","0.3","meters","774.157","deg","107.857","ddeg","44.56992309","ddeg","-125.14646687",,,,,,"PilotCam",,"BrowCam",,"UserSelect",,"SciCam",,"/PilotCam.20230828_030010714.jpg",,"/BrowCam.20230828_030010714.jpg",,"/UserSelect.20230828_030010714.jpg",,"/SciCam.20230828_030010714.jpg","meters","0.00","meters","774.17","deg","107.21","ddeg","3.6021964","meters","9892740.78","meters","-4552276.45","ddeg","-0.6160333","deg","2.6","deg","-2.0","degC","4.18","degC","-999.99","degC","-999.99","degC","-999.99"
