"id","ts","event_value","event_author","event_free_text","event_option.actions","event_option.filename","event_option.formation","event_option.milestone","event_option.new_watchstander","event_option.type","vehicleReNavData.altitude_uom","vehicleReNavData.altitude_value","vehicleReNavData.depth_uom","vehicleReNavData.depth_value","vehicleReNavData.heading_uom","vehicleReNavData.heading_value","vehicleReNavData.latitude_uom","vehicleReNavData.latitude_value","vehicleReNavData.longitude_uom","vehicleReNavData.longitude_value","vehicleReNavData.pitch_uom","vehicleReNavData.pitch_value","vehicleReNavData.roll_uom","vehicleReNavData.roll_value","vehicleRealtimeFramegrabberData.camera_name_2_uom","vehicleRealtimeFramegrabberData.camera_name_2_value","vehicleRealtimeFramegrabberData.camera_name_3_uom","vehicleRealtimeFramegrabberData.camera_name_3_value","vehicleRealtimeFramegrabberData.camera_name_4_uom","vehicleRealtimeFramegrabberData.camera_name_4_value","vehicleRealtimeFramegrabberData.camera_name_uom","vehicleRealtimeFramegrabberData.camera_name_value","vehicleRealtimeFramegrabberData.filename_2_uom","vehicleRealtimeFramegrabberData.filename_2_value","vehicleRealtimeFramegrabberData.filename_3_uom","vehicleRealtimeFramegrabberData.filename_3_value","vehicleRealtimeFramegrabberData.filename_4_uom","vehicleRealtimeFramegrabberData.filename_4_value","vehicleRealtimeFramegrabberData.filename_uom","vehicleRealtimeFramegrabberData.filename_value","vehicleRealtimeNavData.altitude_uom","vehicleRealtimeNavData.altitude_value","vehicleRealtimeNavData.depth_uom","vehicleRealtimeNavData.depth_value","vehicleRealtimeNavData.heading_uom","vehicleRealtimeNavData.heading_value","vehicleRealtimeNavData.latitude_uom","vehicleRealtimeNavData.latitude_value","vehicleRealtimeNavData.local_x_uom","vehicleRealtimeNavData.local_x_value","vehicleRealtimeNavData.local_y_uom","vehicleRealtimeNavData.local_y_value","vehicleRealtimeNavData.longitude_uom","vehicleRealtimeNavData.longitude_value","vehicleRealtimeNavData.pitch_uom","vehicleRealtimeNavData.pitch_value","vehicleRealtimeNavData.roll_uom","vehicleRealtimeNavData.roll_value","vehicleTemperatureProbe.probe1_temperature_uom","vehicleTemperatureProbe.probe1_temperature_value","vehicleTemperatureProbe.probe2_temperature_uom","vehicleTemperatureProbe.probe2_temperature_value","vehicleTemperatureProbe.probe3_temperature_uom","vehicleTemperatureProbe.probe3_temperature_value","vehicleTemperatureProbe.probe4_temperature_uom","vehicleTemperatureProbe.probe4_temperature_value"
"65019d4b19a182001b1d2cb3","2023-09-13T11:30:19.590Z","ASNAP","admin","",,,,,,,,,,,,,,,,,,,,,,"PilotCam",,"BrowCam",,"UserSelect",,"SciCam",,"/PilotCam.20230913_113019590.jpg",,"/BrowCam.20230913_113019590.jpg",,"/UserSelect.20230913_113019590.jpg",,"/SciCam.20230913_113019590.jpg","meters","0.00","meters","0.39","deg","67.20","ddeg","-19.0887743","meters","10757903.59","meters","-7225289.85","ddeg","8.6402158","deg","-0.7","deg","-0.8","degC","17.01","degC","-999.99","degC","-999.99","degC","-999.99"
"65019d6919a182001b1d2cb7","2023-09-13T11:30:49.624Z","ASNAP","admin","",,,,,,,,,,,,,,,,,,,,,,"PilotCam",,"BrowCam",,"UserSelect",,"SciCam",,"/PilotCam.20230913_113049624.jpg",,"/BrowCam.20230913_113049624.jpg",,"/UserSelect.20230913_113049624.jpg",,"/SciCam.20230913_113049624.jpg","meters","0.00","meters","0.39","deg","91.90","ddeg","-19.0887743","meters","10757903.59","meters","-7225289.85","ddeg","8.6402158","deg","-1.0","deg","-0.9","degC","16.97","degC","-999.99","degC","-999.99","degC","-999.99"
"65019d8719a182001b1d2cbb","2023-09-13T11:31:19.652Z","ASNAP","admin","",,,,,,,,,,,,,,,,,,,,,,"PilotCam",,"BrowCam",,"UserSelect",,"SciCam",,"/PilotCam.20230913_113119652.jpg",,"/BrowCam.20230913_113119652.jpg",,"/UserSelect.20230913_113119652.jpg",,"/SciCam.20230913_113119652.jpg","meters","0.00","meters","0.40","deg","74.52","ddeg","-19.0887743","meters","10757903.59","meters","-7225289.85","ddeg","8.6402158","deg","-1.3","deg","-1.2","degC","16.92","degC","-999.99","degC","-999.99","degC","-999.99"
"65019da519a182001b1d2cbf","2023-09-13T11:31:49.695Z","ASNAP","admin","",,,,,,,,,,,,,,,,,,,,,,"PilotCam",,"BrowCam",,"UserSelect",,"SciCam",,"/PilotCam.20230913_113149695.jpg",,"/BrowCam.20230913_113149695.jpg",,"/UserSelect.20230913_113149695.jpg",,"/SciCam.20230913_113149695.jpg","meters","0.00","meters","0.39","deg","74.61","ddeg","-19.0887743","meters","10757903.59","meters","-7225289.85","ddeg","8.6402158","deg","-0.3","deg","-1.1","degC","16.89","degC","-999.99","degC","-999.99","degC","-999.99"
"65019dc319a182001b1d2cc3","2023-09-13T11:32:19.740Z","ASNAP","admin","",,,,,,,,,,,,,,,,,,,,,,"PilotCam",,"BrowCam",,"UserSelect",,"SciCam",,"/PilotCam.20230913_113219740.jpg",,"/BrowCam.20230913_113219740.jpg",,"/UserSelect.20230913_113219740.jpg",,"/SciCam.20230913_113219740.jpg","meters","0.00","meters","0.46","deg","78.60","ddeg","-19.0887743","meters","10757903.59","meters","-7225289.85","ddeg","8.6402158","deg","-1.3","deg","-0.7","degC","16.85","degC","-999.99","degC","-999.99","degC","-999.99"
"65019de119a182001b1d2cc7","2023-09-13T11:32:49.785Z","ASNAP","admin","",,,,,,,,,,,,,,,,,,,,,,"PilotCam",,"BrowCam",,"UserSelect",,"SciCam",,"/PilotCam.20230913_113249785.jpg",,"/BrowCam.20230913_113249785.jpg",,"/UserSelect.20230913_113249785.jpg",,"/SciCam.20230913_113249785.jpg","meters","0.00","meters","0.45","deg","77.87","ddeg","-19.0887743","meters","10757903.59","meters","-7225289.85","ddeg","8.6402158","deg","-0.4","deg","-0.5","degC","16.88","degC","-999.99","degC","-999.99","degC","-999.99"
"65019dff19a182001b1d2ccb","2023-09-13T11:33:19.833Z","ASNAP","admin","",,,,,,,,,,,,,,,,,,,,,,"PilotCam",,"BrowCam",,"UserSelect",,"SciCam",,"/PilotCam.20230913_113319833.jpg",,"/BrowCam.20230913_113319833.jpg",,"/UserSelect.20230913_113319833.jpg",,"/SciCam.20230913_113319833.jpg","meters","0.00","meters","0.51","deg","76.26","ddeg","-19.0887743","meters","10757903.59","meters","-7225289.85","ddeg","8.6402158","deg","-0.6","deg","-1.0","degC","16.82","degC","-999.99","degC","-999.99","degC","-999.99"
"65019e1d19a182001b1d2ccf","2023-09-13T11:33:49.878Z","ASNAP","admin","",,,,,,,,,,,,,,,,,,,,,,"PilotCam",,"BrowCam",,"UserSelect",,"SciCam",,"/PilotCam.20230913_113349878.jpg",,"/BrowCam.20230913_113349878.jpg",,"/UserSelect.20230913_113349878.jpg",,"/SciCam.20230913_113349878.jpg","meters","0.00","meters","0.57","deg","77.20","ddeg","-19.0887743","meters","10757903.59","meters","-7225289.85","ddeg","8.6402158","deg","-2.0","deg","-0.3","degC","16.84","degC","-999.99","degC","-999.99","degC","-999.99"
"65019e2519a182001b1d2cd3","2023-09-13T11:33:57.842Z","ROV Actions","guest","Handed CTD","(Starboard) Manipulator in use",,,,,,,,,,,,,,,,,,,,,"PilotCam",,"BrowCam",,"UserSelect",,"SciCam",,"/PilotCam.20230913_113357842.jpg",,"/BrowCam.20230913_113357842.jpg",,"/UserSelect.20230913_113357842.jpg",,"/SciCam.20230913_113357842.jpg","meters","0.00","meters","0.47","deg","77.26","ddeg","-19.0887743","meters","10757903.59","meters","-7225289.85","ddeg","8.6402158","deg","1.0","deg","-0.0","degC","16.83","degC","-999.99","degC","-999.99","degC","-999.99"
"65019e3b19a182001b1d2cd7","2023-09-13T11:34:19.922Z","ASNAP","admin","",,,,,,,,,,,,,,,,,,,,,,"PilotCam",,"BrowCam",,"UserSelect",,"SciCam",,"/PilotCam.20230913_113419922.jpg",,"/BrowCam.20230913_113419922.jpg",,"/UserSelect.20230913_113419922.jpg",,"/SciCam.20230913_113419922.jpg","meters","0.00","meters","0.51","deg","77.27","ddeg","-19.0887743","meters","10757903.59","meters","-7225289.85","ddeg","8.6402158","deg","1.0","deg","-0.1","degC","16.80","degC","-999.99","degC","-999.99","degC","-999.99"
"65019e5919a182001b1d2cdb","2023-09-13T11:34:49.941Z","ASNAP","admin","",,,,,,,,,,,,,,,,,,,,,,"PilotCam",,"BrowCam",,"UserSelect",,"SciCam",,"/PilotCam.20230913_113449941.jpg",,"/BrowCam.20230913_113449941.jpg",,"/UserSelect.20230913_113449941.jpg",,"/SciCam.20230913_113449941.jpg","meters","0.00","meters","0.60","deg","78.37","ddeg","-19.0887743","meters","10757903.59","meters","-7225289.85","ddeg","8.6402158","deg","-0.9","deg","-1.3","degC","16.82","degC","-999.99","degC","-999.99","degC","-999.99"
"65019e7719a182001b1d2ce3","2023-09-13T11:35:19.984Z","ASNAP","admin","",,,,,,,,,,,,,,,,,,,,,,"PilotCam",,"BrowCam",,"UserSelect",,"SciCam",,"/PilotCam.20230913_113519984.jpg",,"/BrowCam.20230913_113519984.jpg",,"/UserSelect.20230913_113519984.jpg",,"/SciCam.20230913_113519984.jpg","meters","0.00","meters","0.60","deg","78.62","ddeg","-19.0887743","meters","10757903.59","meters","-7225289.85","ddeg","8.6402158","deg","-0.5","deg","-1.8","degC","16.83","degC","-999.99","degC","-999.99","degC","-999.99"
"65019e7b19a182001b1d2ce7","2023-09-13T11:35:23.962Z","FREE_FORM","guest","Straps off Jason",,,,,,,,,,,,,,,,,,,,,,"PilotCam",,"BrowCam",,"UserSelect",,"SciCam",,"/PilotCam.20230913_113523962.jpg",,"/BrowCam.20230913_113523962.jpg",,"/UserSelect.20230913_113523962.jpg",,"/SciCam.20230913_113523962.jpg","meters","0.00","meters","0.54","deg","80.15","ddeg","-19.0887743","meters","10757903.59","meters","-7225289.85","ddeg","8.6402158","deg","0.2","deg","0.5","degC","16.81","degC","-999.99","degC","-999.99","degC","-999.99"
"65019e9619a182001b1d2ceb","2023-09-13T11:35:50.026Z","ASNAP","admin","",,,,,,,,,,,,,,,,,,,,,,"PilotCam",,"BrowCam",,"UserSelect",,"SciCam",,"/PilotCam.20230913_113550026.jpg",,"/BrowCam.20230913_113550026.jpg",,"/UserSelect.20230913_113550026.jpg",,"/SciCam.20230913_113550026.jpg","meters","0.00","meters","0.68","deg","82.54","ddeg","-19.0887743","meters","10757903.59","meters","-7225289.85","ddeg","8.6402158","deg","-2.5","deg","-0.6","degC","16.84","degC","-999.99","degC","-999.99","degC","-999.99"
"65019eb419a182001b1d2cef","2023-09-13T11:36:20.070Z","ASNAP","admin","",,,,,,,,,,,,,,,,,,,,,,"PilotCam",,"BrowCam",,"UserSelect",,"SciCam",,"/PilotCam.20230913_113620070.jpg",,"/BrowCam.20230913_113620070.jpg",,"/UserSelect.20230913_113620070.jpg",,"/SciCam.20230913_113620070.jpg","meters","0.00","meters","0.60","deg","83.21","ddeg","-19.0887743","meters","10757903.59","meters","-7225289.85","ddeg","8.6402158","deg","1.4","deg","-0.6","degC","16.81","degC","-999.99","degC","-999.99","degC","-999.99"
"65019ed219a182001b1d2cf3","2023-09-13T11:36:50.139Z","ASNAP","admin","",,,,,,,,,,,,,,,,,,,,,,"PilotCam",,"BrowCam",,"UserSelect",,"SciCam",,"/PilotCam.20230913_113650139.jpg",,"/BrowCam.20230913_113650139.jpg",,"/UserSelect.20230913_113650139.jpg",,"/SciCam.20230913_113650139.jpg","meters","0.00","meters","0.69","deg","83.43","ddeg","-19.0887743","meters","10757903.59","meters","-7225289.85","ddeg","8.6402158","deg","-3.0","deg","-0.4","degC","16.81","degC","-999.99","degC","-999.99","degC","-999.99"
"65019ee719a182001b1d2cfb","2023-09-13T11:37:11.589Z","VEHICLE","guest","",,,,"Jason off deck",,,,,,,,,,,,,,,,,,"PilotCam",,"BrowCam",,"UserSelect",,"SciCam",,"/PilotCam.20230913_113711589.jpg",,"/BrowCam.20230913_113711589.jpg",,"/UserSelect.20230913_113711589.jpg",,"/SciCam.20230913_113711589.jpg","meters","0.00","meters","0.65","deg","84.28","ddeg","-19.0887743","meters","10757903.59","meters","-7225289.85","ddeg","8.6402158","deg","-0.9","deg","-1.4","degC","16.80","degC","-999.99","degC","-999.99","degC","-999.99"
"65019ef019a182001b1d2cff","2023-09-13T11:37:20.201Z","ASNAP","admin","",,,,,,,,,,,,,,,,,,,,,,"PilotCam",,"BrowCam",,"UserSelect",,"SciCam",,"/PilotCam.20230913_113720201.jpg",,"/BrowCam.20230913_113720201.jpg",,"/UserSelect.20230913_113720201.jpg",,"/SciCam.20230913_113720201.jpg","meters","0.00","meters","0.66","deg","85.25","ddeg","-19.0887743","meters","10757903.59","meters","-7225289.85","ddeg","8.6402158","deg","0.0","deg","-0.9","degC","16.81","degC","-999.99","degC","-999.99","degC","-999.99"
"65019f0e19a182001b1d2d03","2023-09-13T11:37:50.281Z","ASNAP","admin","",,,,,,,,,,,,,,,,,,,,,,"PilotCam",,"BrowCam",,,,"SciCam",,"/PilotCam.20230913_113750281.jpg",,"/BrowCam.20230913_113750281.jpg",,,,"/SciCam.20230913_113750281.jpg","meters","0.00","meters","0.67","deg","86.17","ddeg","-19.0887743","meters","10757903.59","meters","-7225289.85","ddeg","8.6402158","deg","0.2","deg","-2.0","degC","16.80","degC","-999.99","degC","-999.99","degC","-999.99"
"65019f2c19a182001b1d2d07","2023-09-13T11:38:20.362Z","ASNAP","admin","",,,,,,,,,,,,,,,,,,,,,,"PilotCam",,"BrowCam",,"UserSelect",,"SciCam",,"/PilotCam.20230913_113820362.jpg",,"/BrowCam.20230913_113820362.jpg",,"/UserSelect.20230913_113820362.jpg",,"/SciCam.20230913_113820362.jpg","meters","0.00","meters","0.66","deg","157.64","ddeg","-19.0887743","meters","10757903.59","meters","-7225289.85","ddeg","8.6402158","deg","1.1","deg","-0.4","degC","16.79","degC","-999.99","degC","-999.99","degC","-999.99"
"65019f4a19a182001b1d2d0b","2023-09-13T11:38:50.391Z","ASNAP","admin","",,,,,,,,,,,,,,,,,,,,,,"PilotCam",,"BrowCam",,"UserSelect",,"SciCam",,"/PilotCam.20230913_113850391.jpg",,"/BrowCam.20230913_113850391.jpg",,"/UserSelect.20230913_113850391.jpg",,"/SciCam.20230913_113850391.jpg","meters","0.00","meters","0.69","deg","189.86","ddeg","-19.0887743","meters","10757903.59","meters","-7225289.85","ddeg","8.6402158","deg","-0.6","deg","-0.3","degC","16.78","degC","-999.99","degC","-999.99","degC","-999.99"
"65019f6819a182001b1d2d0f","2023-09-13T11:39:20.436Z","ASNAP","admin","",,,,,,,"meters","320.9","meters","2.724","deg","189.300","ddeg","45.95438978","ddeg","-130.00933377",,,,,,"PilotCam",,"BrowCam",,"UserSelect",,"SciCam",,"/PilotCam.20230913_113920436.jpg",,"/BrowCam.20230913_113920436.jpg",,"/UserSelect.20230913_113920436.jpg",,"/SciCam.20230913_113920436.jpg","meters","0.00","meters","0.67","deg","189.29","ddeg","-19.0887743","meters","10757903.59","meters","-7225289.85","ddeg","8.6402158","deg","-0.2","deg","-0.0","degC","16.87","degC","-999.99","degC","-999.99","degC","-999.99"
"65019f8619a182001b1d2d13","2023-09-13T11:39:50.483Z","ASNAP","admin","",,,,,,,"meters","314.6","meters","2.724","deg","180.509","ddeg","45.95438978","ddeg","-130.00933377",,,,,,"PilotCam",,"BrowCam",,"UserSelect",,"SciCam",,"/PilotCam.20230913_113950483.jpg",,"/BrowCam.20230913_113950483.jpg",,"/UserSelect.20230913_113950483.jpg",,"/SciCam.20230913_113950483.jpg","meters","0.00","meters","0.67","deg","180.79","ddeg","-19.0887743","meters","10757903.59","meters","-7225289.85","ddeg","8.6402158","deg","-0.2","deg","-0.3","degC","16.79","degC","-999.99","degC","-999.99","degC","-999.99"
"65019f8e19a182001b1d2d17","2023-09-13T11:39:58.065Z","VEHICLE","guest","",,,,"Jason in water",,,"meters","313.0","meters","2.724","deg","181.462","ddeg","45.95438978","ddeg","-130.00933377",,,,,,"PilotCam",,"BrowCam",,"UserSelect",,"SciCam",,"/PilotCam.20230913_113958065.jpg",,"/BrowCam.20230913_113958065.jpg",,"/UserSelect.20230913_113958065.jpg",,"/SciCam.20230913_113958065.jpg","meters","0.00","meters","0.67","deg","180.84","ddeg","-19.0887743","meters","10757903.59","meters","-7225289.85","ddeg","8.6402158","deg","0.6","deg","-4.9","degC","16.77","degC","-999.99","degC","-999.99","degC","-999.99"
"65019fa419a182001b1d2d1b","2023-09-13T11:40:20.528Z","ASNAP","admin","",,,,,,,"meters","308.5","meters","2.724","deg","268.674","ddeg","45.95438978","ddeg","-130.00933377",,,,,,"PilotCam",,"BrowCam",,"UserSelect",,"SciCam",,"/PilotCam.20230913_114020528.jpg",,"/BrowCam.20230913_114020528.jpg",,"/UserSelect.20230913_114020528.jpg",,"/SciCam.20230913_114020528.jpg","meters","0.00","meters","1.29","deg","265.19","ddeg","-19.0887743","meters","10757903.59","meters","-7225289.85","ddeg","8.6402158","deg","-12.1","deg","12.0","degC","17.02","degC","-999.99","degC","-999.99","degC","-999.99"
"65019fc219a182001b1d2d1f","2023-09-13T11:40:50.573Z","ASNAP","admin","",,,,,,,"meters","302.4","meters","2.724","deg","265.985","ddeg","45.95438978","ddeg","-130.00933377",,,,,,"PilotCam",,"BrowCam",,"UserSelect",,"SciCam",,"/PilotCam.20230913_114050573.jpg",,"/BrowCam.20230913_114050573.jpg",,"/UserSelect.20230913_114050573.jpg",,"/SciCam.20230913_114050573.jpg","meters","0.00","meters","2.39","deg","266.48","ddeg","-19.0887743","meters","10757903.59","meters","-7225289.85","ddeg","8.6402158","deg","-6.5","deg","2.8","degC","17.41","degC","-999.99","degC","-999.99","degC","-999.99"
"65019fe019a182001b1d2d23","2023-09-13T11:41:20.616Z","ASNAP","admin","",,,,,,,"meters","296.4","meters","2.724","deg","267.404","ddeg","45.95438978","ddeg","-130.00933377",,,,,,"PilotCam",,"BrowCam",,"UserSelect",,"SciCam",,"/PilotCam.20230913_114120616.jpg",,"/BrowCam.20230913_114120616.jpg",,"/UserSelect.20230913_114120616.jpg",,"/SciCam.20230913_114120616.jpg","meters","0.00","meters","2.90","deg","268.10","ddeg","-19.0887743","meters","10757903.59","meters","-7225289.85","ddeg","8.6402158","deg","-5.0","deg","-3.2","degC","17.55","degC","-999.99","degC","-999.99","degC","-999.99"
"65019ffe19a182001b1d2d27","2023-09-13T11:41:50.661Z","ASNAP","admin","",,,,,,,"meters","290.5","meters","2.712","deg","267.012","ddeg","45.95438670","ddeg","-130.00934717",,,,,,"PilotCam",,"BrowCam",,"UserSelect",,"SciCam",,"/PilotCam.20230913_114150661.jpg",,"/BrowCam.20230913_114150661.jpg",,"/UserSelect.20230913_114150661.jpg",,"/SciCam.20230913_114150661.jpg","meters","0.00","meters","2.51","deg","267.10","ddeg","10.0798949","meters","10863426.46","meters","-3983221.40","ddeg","10.0003648","deg","-3.1","deg","2.7","degC","17.61","degC","-999.99","degC","-999.99","degC","-999.99"
"6501a01c19a182001b1d2d2b","2023-09-13T11:42:20.682Z","ASNAP","admin","",,,,,,,"meters","284.6","meters","2.405","deg","261.409","ddeg","45.95436817","ddeg","-130.00931085",,,,,,"PilotCam",,"BrowCam",,"UserSelect",,"SciCam",,"/PilotCam.20230913_114220682.jpg",,"/BrowCam.20230913_114220682.jpg",,"/UserSelect.20230913_114220682.jpg",,"/SciCam.20230913_114220682.jpg","meters","0.00","meters","2.28","deg","261.22","ddeg","10.0798949","meters","10863426.46","meters","-3983221.40","ddeg","10.0003648","deg","-5.8","deg","3.5","degC","17.44","degC","-999.99","degC","-999.99","degC","-999.99"
"6501a03a19a182001b1d2d2f","2023-09-13T11:42:50.725Z","ASNAP","admin","",,,,,,,"meters","278.9","meters","5.053","deg","261.030","ddeg","45.95436199","ddeg","-130.00929631",,,,,,"PilotCam",,"BrowCam",,"UserSelect",,"SciCam",,"/PilotCam.20230913_114250725.jpg",,"/BrowCam.20230913_114250725.jpg",,"/UserSelect.20230913_114250725.jpg",,"/SciCam.20230913_114250725.jpg","meters","0.00","meters","2.53","deg","261.56","ddeg","27.4162468","meters","10966356.02","meters","-2056303.20","ddeg","11.3270870","deg","-0.6","deg","-0.9","degC","17.60","degC","-999.99","degC","-999.99","degC","-999.99"
"6501a05819a182001b1d2d33","2023-09-13T11:43:20.769Z","ASNAP","admin","",,,,,,,"meters","273.2","meters","8.292","deg","262.981","ddeg","45.95434841","ddeg","-130.00925952",,,,,,"PilotCam",,"BrowCam",,"UserSelect",,"SciCam",,"/PilotCam.20230913_114320769.jpg",,"/BrowCam.20230913_114320769.jpg",,"/UserSelect.20230913_114320769.jpg",,"/SciCam.20230913_114320769.jpg","meters","0.00","meters","8.31","deg","263.39","ddeg","27.4162468","meters","10966356.02","meters","-2056303.20","ddeg","11.3270870","deg","-4.8","deg","0.4","degC","17.51","degC","-999.99","degC","-999.99","degC","-999.99"
"6501a06d19a182001b1d2d3b","2023-09-13T11:43:41.193Z","ROV Actions","guest","First Football on","First Football on",,,,,,"meters","269.3","meters","9.185","deg","263.664","ddeg","45.95436315","ddeg","-130.00926348",,,,,,"PilotCam",,"BrowCam",,"UserSelect",,"SciCam",,"/PilotCam.20230913_114341193.jpg",,"/BrowCam.20230913_114341193.jpg",,"/UserSelect.20230913_114341193.jpg",,"/SciCam.20230913_114341193.jpg","meters","0.00","meters","9.13","deg","263.94","ddeg","27.4162468","meters","10966356.02","meters","-2056303.20","ddeg","11.3270870","deg","-2.8","deg","-0.3","degC","17.44","degC","-999.99","degC","-999.99","degC","-999.99"
"6501a07619a182001b1d2d3f","2023-09-13T11:43:50.814Z","ASNAP","admin","",,,,,,,"meters","267.6","meters","11.105","deg","258.121","ddeg","45.95437015","ddeg","-130.00927707",,,,,,"PilotCam",,"BrowCam",,"UserSelect",,"SciCam",,"/PilotCam.20230913_114350814.jpg",,"/BrowCam.20230913_114350814.jpg",,"/UserSelect.20230913_114350814.jpg",,"/SciCam.20230913_114350814.jpg","meters","0.00","meters","11.25","deg","257.99","ddeg","27.4162468","meters","10966356.02","meters","-2056303.20","ddeg","11.3270870","deg","-2.8","deg","-1.4","degC","17.66","degC","-999.99","degC","-999.99","degC","-999.99"
"6501a09419a182001b1d2d43","2023-09-13T11:44:20.882Z","ASNAP","admin","",,,,,,,"meters","262.1","meters","14.637","deg","262.281","ddeg","45.95435570","ddeg","-130.00931554",,,,,,"PilotCam",,"BrowCam",,"UserSelect",,"SciCam",,"/PilotCam.20230913_114420882.jpg",,"/BrowCam.20230913_114420882.jpg",,"/UserSelect.20230913_114420882.jpg",,"/SciCam.20230913_114420882.jpg","meters","0.00","meters","14.89","deg","262.22","ddeg","27.4162468","meters","10966356.02","meters","-2056303.20","ddeg","11.3270870","deg","-3.7","deg","1.1","degC","17.63","degC","-999.99","degC","-999.99","degC","-999.99"
"6501a0b219a182001b1d2d47","2023-09-13T11:44:50.958Z","ASNAP","admin","",,,,,,,"meters","256.6","meters","14.649","deg","263.421","ddeg","45.95433634","ddeg","-130.00931517",,,,,,"PilotCam",,"BrowCam",,"UserSelect",,"SciCam",,"/PilotCam.20230913_114450958.jpg",,"/BrowCam.20230913_114450958.jpg",,"/UserSelect.20230913_114450958.jpg",,"/SciCam.20230913_114450958.jpg","meters","0.00","meters","14.64","deg","263.68","ddeg","27.4162468","meters","10966356.02","meters","-2056303.20","ddeg","11.3270870","deg","-3.6","deg","-0.6","degC","17.42","degC","-999.99","degC","-999.99","degC","-999.99"
"6501a0d119a182001b1d2d4b","2023-09-13T11:45:21.005Z","ASNAP","admin","",,,,,,,"meters","251.1","meters","14.627","deg","273.538","ddeg","45.95436265","ddeg","-130.00931118",,,,,,"PilotCam",,"BrowCam",,"UserSelect",,"SciCam",,"/PilotCam.20230913_114521005.jpg",,"/BrowCam.20230913_114521005.jpg",,"/UserSelect.20230913_114521005.jpg",,"/SciCam.20230913_114521005.jpg","meters","0.00","meters","14.61","deg","273.64","ddeg","27.4162468","meters","10966356.02","meters","-2056303.20","ddeg","11.3270870","deg","-4.8","deg","-1.2","degC","17.58","degC","-999.99","degC","-999.99","degC","-999.99"
"6501a0ef19a182001b1d2d4f","2023-09-13T11:45:51.022Z","ASNAP","admin","",,,,,,,"meters","245.8","meters","20.612","deg","268.049","ddeg","45.95434514","ddeg","-130.00932426",,,,,,"PilotCam",,"BrowCam",,"UserSelect",,"SciCam",,"/PilotCam.20230913_114551022.jpg",,"/BrowCam.20230913_114551022.jpg",,"/UserSelect.20230913_114551022.jpg",,"/SciCam.20230913_114551022.jpg","meters","0.00","meters","20.66","deg","267.93","ddeg","27.4162468","meters","10966356.02","meters","-2056303.20","ddeg","11.3270870","deg","-5.2","deg","-1.1","degC","17.83","degC","-999.99","degC","-999.99","degC","-999.99"
"6501a10d19a182001b1d2d53","2023-09-13T11:46:21.071Z","ASNAP","admin","",,,,,,,"meters","240.6","meters","19.281","deg","268.202","ddeg","45.95434847","ddeg","-130.00934900",,,,,,"PilotCam",,"BrowCam",,"UserSelect",,"SciCam",,"/PilotCam.20230913_114621071.jpg",,"/BrowCam.20230913_114621071.jpg",,"/UserSelect.20230913_114621071.jpg",,"/SciCam.20230913_114621071.jpg","meters","0.00","meters","19.27","deg","268.21","ddeg","27.4162468","meters","10966356.02","meters","-2056303.20","ddeg","11.3270870","deg","-5.0","deg","-1.2","degC","17.50","degC","-999.99","degC","-999.99","degC","-999.99"
"6501a12b19a182001b1d2d57","2023-09-13T11:46:51.142Z","ASNAP","admin","",,,,,,,"meters","235.4","meters","19.346","deg","270.138","ddeg","45.95433635","ddeg","-130.00939072",,,,,,"PilotCam",,"BrowCam",,"UserSelect",,"SciCam",,"/PilotCam.20230913_114651142.jpg",,"/BrowCam.20230913_114651142.jpg",,"/UserSelect.20230913_114651142.jpg",,"/SciCam.20230913_114651142.jpg","meters","0.00","meters","19.33","deg","269.97","ddeg","27.4162468","meters","10966356.02","meters","-2056303.20","ddeg","11.3270870","deg","-4.0","deg","-0.9","degC","17.59","degC","-999.99","degC","-999.99","degC","-999.99"
"6501a14919a182001b1d2d5b","2023-09-13T11:47:21.194Z","ASNAP","admin","",,,,,,,"meters","230.4","meters","21.561","deg","270.179","ddeg","45.95430897","ddeg","-130.00942121",,,,,,"PilotCam",,"BrowCam",,"UserSelect",,"SciCam",,"/PilotCam.20230913_114721194.jpg",,"/BrowCam.20230913_114721194.jpg",,"/UserSelect.20230913_114721194.jpg",,"/SciCam.20230913_114721194.jpg","meters","0.00","meters","21.58","deg","271.08","ddeg","27.4162468","meters","10966356.02","meters","-2056303.20","ddeg","11.3270870","deg","-5.4","deg","-1.4","degC","17.64","degC","-999.99","degC","-999.99","degC","-999.99"
"6501a16719a182001b1d2d5f","2023-09-13T11:47:51.236Z","ASNAP","admin","",,,,,,,"meters","225.4","meters","21.147","deg","267.499","ddeg","45.95431261","ddeg","-130.00943972",,,,,,"PilotCam",,"BrowCam",,"UserSelect",,"SciCam",,"/PilotCam.20230913_114751236.jpg",,"/BrowCam.20230913_114751236.jpg",,"/UserSelect.20230913_114751236.jpg",,"/SciCam.20230913_114751236.jpg","meters","0.00","meters","21.13","deg","267.38","ddeg","27.4162468","meters","10966356.02","meters","-2056303.20","ddeg","11.3270870","deg","-5.3","deg","-0.9","degC","17.46","degC","-999.99","degC","-999.99","degC","-999.99"
"6501a18519a182001b1d2d63","2023-09-13T11:48:21.277Z","ASNAP","admin","",,,,,,,"meters","220.5","meters","21.427","deg","270.549","ddeg","45.95430893","ddeg","-130.00945381",,,,,,"PilotCam",,"BrowCam",,"UserSelect",,"SciCam",,"/PilotCam.20230913_114821277.jpg",,"/BrowCam.20230913_114821277.jpg",,"/UserSelect.20230913_114821277.jpg",,"/SciCam.20230913_114821277.jpg","meters","0.00","meters","21.41","deg","270.39","ddeg","27.4162468","meters","10966356.02","meters","-2056303.20","ddeg","11.3270870","deg","-4.7","deg","-0.9","degC","17.53","degC","-999.99","degC","-999.99","degC","-999.99"
"6501a1a319a182001b1d2d67","2023-09-13T11:48:51.346Z","ASNAP","admin","",,,,,,,"meters","215.6","meters","24.966","deg","268.920","ddeg","45.95431492","ddeg","-130.00944628",,,,,,"PilotCam",,"BrowCam",,"UserSelect",,"SciCam",,"/PilotCam.20230913_114851346.jpg",,"/BrowCam.20230913_114851346.jpg",,"/UserSelect.20230913_114851346.jpg",,"/SciCam.20230913_114851346.jpg","meters","0.00","meters","24.92","deg","268.92","ddeg","27.4162468","meters","10966356.02","meters","-2056303.20","ddeg","11.3270870","deg","-4.1","deg","-0.8","degC","17.48","degC","-999.99","degC","-999.99","degC","-999.99"
"6501a1c119a182001b1d2d6b","2023-09-13T11:49:21.396Z","ASNAP","admin","",,,,,,,"meters","210.9","meters","25.332","deg","266.584","ddeg","45.95435089","ddeg","-130.00948025",,,,,,"PilotCam",,"BrowCam",,"UserSelect",,"SciCam",,"/PilotCam.20230913_114921396.jpg",,"/BrowCam.20230913_114921396.jpg",,"/UserSelect.20230913_114921396.jpg",,"/SciCam.20230913_114921396.jpg","meters","0.00","meters","25.32","deg","266.91","ddeg","27.4162468","meters","10966356.02","meters","-2056303.20","ddeg","11.3270870","deg","-4.0","deg","-1.2","degC","17.13","degC","-999.99","degC","-999.99","degC","-999.99"
"6501a1d719a182001b1d2d6f","2023-09-13T11:49:43.229Z","ROV Actions","guest","Last Football on","Last Football on",,,,,,"meters","207.4","meters","26.149","deg","266.742","ddeg","45.95434182","ddeg","-130.00953246",,,,,,"PilotCam",,"BrowCam",,"UserSelect",,"SciCam",,"/PilotCam.20230913_114943229.jpg",,"/BrowCam.20230913_114943229.jpg",,"/UserSelect.20230913_114943229.jpg",,"/SciCam.20230913_114943229.jpg","meters","0.00","meters","25.91","deg","267.02","ddeg","27.4162468","meters","10966356.02","meters","-2056303.20","ddeg","11.3270870","deg","-2.4","deg","-1.8","degC","16.83","degC","-999.99","degC","-999.99","degC","-999.99"
"6501a1df19a182001b1d2d73","2023-09-13T11:49:51.440Z","ASNAP","admin","",,,,,,,"meters","206.2","meters","29.837","deg","266.753","ddeg","45.95433297","ddeg","-130.00953653",,,,,,"PilotCam",,"BrowCam",,"UserSelect",,"SciCam",,"/PilotCam.20230913_114951440.jpg",,"/BrowCam.20230913_114951440.jpg",,"/UserSelect.20230913_114951440.jpg",,"/SciCam.20230913_114951440.jpg","meters","0.00","meters","29.58","deg","266.91","ddeg","27.4162468","meters","10966356.02","meters","-2056303.20","ddeg","11.3270870","deg","-0.6","deg","-1.3","degC","16.94","degC","-999.99","degC","-999.99","degC","-999.99"
"6501a1fd19a182001b1d2d77","2023-09-13T11:50:21.486Z","ASNAP","admin","",,,,,,,"meters","201.5","meters","40.738","deg","267.732","ddeg","45.95431582","ddeg","-130.00950081",,,,,,"PilotCam",,"BrowCam",,"UserSelect",,"SciCam",,"/PilotCam.20230913_115021486.jpg",,"/BrowCam.20230913_115021486.jpg",,"/UserSelect.20230913_115021486.jpg",,"/SciCam.20230913_115021486.jpg","meters","0.00","meters","40.53","deg","267.77","ddeg","27.4162468","meters","10966356.02","meters","-2056303.20","ddeg","11.3270870","deg","-4.1","deg","-0.1","degC","15.45","degC","-999.99","degC","-999.99","degC","-999.99"
"6501a21b19a182001b1d2d7b","2023-09-13T11:50:51.529Z","ASNAP","admin","",,,,,,,"meters","197.0","meters","51.422","deg","267.651","ddeg","45.95434300","ddeg","-130.00946618",,,,,,"PilotCam",,"BrowCam",,"UserSelect",,"SciCam",,"/PilotCam.20230913_115051529.jpg",,"/BrowCam.20230913_115051529.jpg",,"/UserSelect.20230913_115051529.jpg",,"/SciCam.20230913_115051529.jpg","meters","0.00","meters","51.31","deg","267.51","ddeg","27.4162468","meters","10966356.02","meters","-2056303.20","ddeg","11.3270870","deg","-5.1","deg","-1.4","degC","12.79","degC","-999.99","degC","-999.99","degC","-999.99"
"6501a23919a182001b1d2d7f","2023-09-13T11:51:21.574Z","ASNAP","admin","",,,,,,,"meters","192.5","meters","60.282","deg","269.300","ddeg","45.95436607","ddeg","-130.00941625",,,,,,"PilotCam",,"BrowCam",,"UserSelect",,"SciCam",,"/PilotCam.20230913_115121574.jpg",,"/BrowCam.20230913_115121574.jpg",,"/UserSelect.20230913_115121574.jpg",,"/SciCam.20230913_115121574.jpg","meters","0.00","meters","60.13","deg","269.31","ddeg","27.4162468","meters","10966356.02","meters","-2056303.20","ddeg","11.3270870","deg","-4.8","deg","-1.0","degC","10.53","degC","-999.99","degC","-999.99","degC","-999.99"
"6501a25719a182001b1d2d83","2023-09-13T11:51:51.600Z","ASNAP","admin","",,,,,,,"meters","188.1","meters","73.613","deg","267.788","ddeg","45.95435373","ddeg","-130.00938707",,,,,,"PilotCam",,"BrowCam",,"UserSelect",,"SciCam",,"/PilotCam.20230913_115151600.jpg",,"/BrowCam.20230913_115151600.jpg",,"/UserSelect.20230913_115151600.jpg",,"/SciCam.20230913_115151600.jpg","meters","0.00","meters","73.40","deg","268.06","ddeg","27.4162468","meters","10966356.02","meters","-2056303.20","ddeg","11.3270870","deg","-4.4","deg","-1.3","degC","8.96","degC","-999.99","degC","-999.99","degC","-999.99"
"6501a27519a182001b1d2d87","2023-09-13T11:52:21.645Z","ASNAP","admin","",,,,,,,"meters","183.7","meters","83.741","deg","269.110","ddeg","45.95434974","ddeg","-130.00936604",,,,,,"PilotCam",,"BrowCam",,"UserSelect",,"SciCam",,"/PilotCam.20230913_115221645.jpg",,"/BrowCam.20230913_115221645.jpg",,"/UserSelect.20230913_115221645.jpg",,"/SciCam.20230913_115221645.jpg","meters","0.00","meters","83.59","deg","269.13","ddeg","27.4162468","meters","10966356.02","meters","-2056303.20","ddeg","11.3270870","deg","-4.6","deg","-0.8","degC","7.97","degC","-999.99","degC","-999.99","degC","-999.99"
"6501a29319a182001b1d2d8b","2023-09-13T11:52:51.665Z","ASNAP","admin","",,,,,,,"meters","179.5","meters","92.518","deg","267.678","ddeg","45.95435934","ddeg","-130.00934459",,,,,,"PilotCam",,"BrowCam",,"UserSelect",,"SciCam",,"/PilotCam.20230913_115251665.jpg",,"/BrowCam.20230913_115251665.jpg",,"/UserSelect.20230913_115251665.jpg",,"/SciCam.20230913_115251665.jpg","meters","0.00","meters","92.50","deg","267.90","ddeg","27.4162468","meters","10966356.02","meters","-2056303.20","ddeg","11.3270870","deg","-4.8","deg","-1.2","degC","7.62","degC","-999.99","degC","-999.99","degC","-999.99"
"6501a2b119a182001b1d2d8f","2023-09-13T11:53:21.686Z","ASNAP","admin","",,,,,,,"meters","175.3","meters","96.998","deg","269.314","ddeg","45.95439931","ddeg","-130.00934061",,,,,,"PilotCam",,"BrowCam",,"UserSelect",,"SciCam",,"/PilotCam.20230913_115321686.jpg",,"/BrowCam.20230913_115321686.jpg",,"/UserSelect.20230913_115321686.jpg",,"/SciCam.20230913_115321686.jpg","meters","0.00","meters","96.84","deg","268.90","ddeg","27.4162468","meters","10966356.02","meters","-2056303.20","ddeg","11.3270870","deg","-4.9","deg","-1.3","degC","7.30","degC","-999.99","degC","-999.99","degC","-999.99"
"6501a2cf19a182001b1d2d93","2023-09-13T11:53:51.706Z","ASNAP","admin","",,,,,,,"meters","171.1","meters","107.297","deg","273.222","ddeg","45.95439833","ddeg","-130.00933106",,,,,,"PilotCam",,"BrowCam",,"UserSelect",,"SciCam",,"/PilotCam.20230913_115351706.jpg",,"/BrowCam.20230913_115351706.jpg",,"/UserSelect.20230913_115351706.jpg",,"/SciCam.20230913_115351706.jpg","meters","0.00","meters","107.18","deg","271.96","ddeg","27.4162468","meters","10966356.02","meters","-2056303.20","ddeg","11.3270870","deg","-5.1","deg","-1.0","degC","7.17","degC","-999.99","degC","-999.99","degC","-999.99"
"6501a2d919a182001b1d2d97","2023-09-13T11:54:01.997Z","Biology Type","guest","",,,,,,"Squid","meters","169.8","meters","108.068","deg","265.649","ddeg","45.95438918","ddeg","-130.00931873",,,,,,"PilotCam",,"BrowCam",,"UserSelect",,"SciCam",,"/PilotCam.20230913_115401997.jpg",,"/BrowCam.20230913_115401997.jpg",,"/UserSelect.20230913_115401997.jpg",,"/SciCam.20230913_115401997.jpg","meters","0.00","meters","108.06","deg","265.84","ddeg","27.4162468","meters","10966356.02","meters","-2056303.20","ddeg","11.3270870","deg","-4.1","deg","2.2","degC","7.28","degC","-999.99","degC","-999.99","degC","-999.99"
"6501a2ed19a182001b1d2d9b","2023-09-13T11:54:21.747Z","ASNAP","admin","",,,,,,,"meters","167.1","meters","116.709","deg","247.978","ddeg","45.95436730","ddeg","-130.00929935",,,,,,"PilotCam",,"BrowCam",,"UserSelect",,"SciCam",,"/PilotCam.20230913_115421747.jpg",,"/BrowCam.20230913_115421747.jpg",,"/UserSelect.20230913_115421747.jpg",,"/SciCam.20230913_115421747.jpg","meters","0.00","meters","116.45","deg","247.76","ddeg","27.4162468","meters","10966356.02","meters","-2056303.20","ddeg","11.3270870","deg","-4.8","deg","-1.2","degC","7.07","degC","-999.99","degC","-999.99","degC","-999.99"
"6501a30b19a182001b1d2d9f","2023-09-13T11:54:51.792Z","ASNAP","admin","",,,,,,,"meters","163.0","meters","127.273","deg","262.078","ddeg","45.95434660","ddeg","-130.00932121",,,,,,"PilotCam",,"BrowCam",,"UserSelect",,"SciCam",,"/PilotCam.20230913_115451792.jpg",,"/BrowCam.20230913_115451792.jpg",,"/UserSelect.20230913_115451792.jpg",,"/SciCam.20230913_115451792.jpg","meters","0.00","meters","127.24","deg","263.29","ddeg","27.4162468","meters","10966356.02","meters","-2056303.20","ddeg","11.3270870","deg","-4.5","deg","-0.5","degC","6.95","degC","-999.99","degC","-999.99","degC","-999.99"
"6501a31c19a182001b1d2da3","2023-09-13T11:55:08.040Z","FREE_FORM","guest","Putting Beacon on tether",,,,,,,"meters","160.8","meters","126.478","deg","263.642","ddeg","45.95434359","ddeg","-130.00933144",,,,,,"PilotCam",,"BrowCam",,"UserSelect",,"SciCam",,"/PilotCam.20230913_115508040.jpg",,"/BrowCam.20230913_115508040.jpg",,"/UserSelect.20230913_115508040.jpg",,"/SciCam.20230913_115508040.jpg","meters","0.00","meters","126.44","deg","263.63","ddeg","27.4162468","meters","10966356.02","meters","-2056303.20","ddeg","11.3270870","deg","-4.7","deg","-0.8","degC","6.98","degC","-999.99","degC","-999.99","degC","-999.99"
"6501a32919a182001b1d2da7","2023-09-13T11:55:21.810Z","ASNAP","admin","",,,,,,,"meters","159.1","meters","126.633","deg","263.834","ddeg","45.95434342","ddeg","-130.00934061",,,,,,"PilotCam",,"BrowCam",,"UserSelect",,"SciCam",,"/PilotCam.20230913_115521810.jpg",,"/BrowCam.20230913_115521810.jpg",,"/UserSelect.20230913_115521810.jpg",,"/SciCam.20230913_115521810.jpg","meters","0.00","meters","126.62","deg","263.84","ddeg","27.4162468","meters","10966356.02","meters","-2056303.20","ddeg","11.3270870","deg","-4.9","deg","-0.8","degC","6.90","degC","-999.99","degC","-999.99","degC","-999.99"
"6501a34719a182001b1d2dab","2023-09-13T11:55:51.851Z","ASNAP","admin","",,,,,,,"meters","155.2","meters","126.550","deg","262.999","ddeg","45.95435763","ddeg","-130.00934393",,,,,,"PilotCam",,"BrowCam",,"UserSelect",,"SciCam",,"/PilotCam.20230913_115551851.jpg",,"/BrowCam.20230913_115551851.jpg",,"/UserSelect.20230913_115551851.jpg",,"/SciCam.20230913_115551851.jpg","meters","0.00","meters","126.50","deg","263.04","ddeg","27.4162468","meters","10966356.02","meters","-2056303.20","ddeg","11.3270870","deg","-4.8","deg","-0.8","degC","6.87","degC","-999.99","degC","-999.99","degC","-999.99"
"6501a36519a182001b1d2daf","2023-09-13T11:56:21.896Z","ASNAP","admin","",,,,,,,"meters","151.4","meters","127.562","deg","264.044","ddeg","45.95438572","ddeg","-130.00932320",,,,,,"PilotCam",,"BrowCam",,"UserSelect",,"SciCam",,"/PilotCam.20230913_115621896.jpg",,"/BrowCam.20230913_115621896.jpg",,"/UserSelect.20230913_115621896.jpg",,"/SciCam.20230913_115621896.jpg","meters","0.00","meters","127.58","deg","264.03","ddeg","27.4162468","meters","10966356.02","meters","-2056303.20","ddeg","11.3270870","deg","-5.0","deg","-0.9","degC","6.85","degC","-999.99","degC","-999.99","degC","-999.99"
"6501a38319a182001b1d2db3","2023-09-13T11:56:51.912Z","ASNAP","admin","",,,,,,,"meters","147.7","meters","131.552","deg","262.940","ddeg","45.95441754","ddeg","-130.00931307",,,,,,"PilotCam",,"BrowCam",,"UserSelect",,"SciCam",,"/PilotCam.20230913_115651912.jpg",,"/BrowCam.20230913_115651912.jpg",,"/UserSelect.20230913_115651912.jpg",,"/SciCam.20230913_115651912.jpg","meters","0.00","meters","131.87","deg","263.00","ddeg","27.4162468","meters","10966356.02","meters","-2056303.20","ddeg","11.3270870","deg","-3.5","deg","-1.2","degC","6.70","degC","-999.99","degC","-999.99","degC","-999.99"
"6501a3a119a182001b1d2db7","2023-09-13T11:57:21.932Z","ASNAP","admin","",,,,,,,"meters","144.0","meters","143.117","deg","263.473","ddeg","45.95438792","ddeg","-130.00944508",,,,,,"PilotCam",,"BrowCam",,"UserSelect",,"SciCam",,"/PilotCam.20230913_115721932.jpg",,"/BrowCam.20230913_115721932.jpg",,"/UserSelect.20230913_115721932.jpg",,"/SciCam.20230913_115721932.jpg","meters","0.00","meters","143.39","deg","262.86","ddeg","27.4162468","meters","10966356.02","meters","-2056303.20","ddeg","11.3270870","deg","-2.9","deg","-0.7","degC","6.73","degC","-999.99","degC","-999.99","degC","-999.99"
"6501a3bf19a182001b1d2dbb","2023-09-13T11:57:51.959Z","ASNAP","admin","",,,,,,,"meters","140.4","meters","144.327","deg","263.530","ddeg","45.95434304","ddeg","-130.00950791",,,,,,"PilotCam",,"BrowCam",,"UserSelect",,"SciCam",,"/PilotCam.20230913_115751959.jpg",,"/BrowCam.20230913_115751959.jpg",,"/UserSelect.20230913_115751959.jpg",,"/SciCam.20230913_115751959.jpg","meters","0.00","meters","144.33","deg","263.53","ddeg","27.4162468","meters","10966356.02","meters","-2056303.20","ddeg","11.3270870","deg","-4.6","deg","-0.6","degC","6.66","degC","-999.99","degC","-999.99","degC","-999.99"
"6501a3dd19a182001b1d2dbf","2023-09-13T11:58:21.976Z","ASNAP","admin","",,,,,,,"meters","136.8","meters","152.213","deg","262.852","ddeg","45.95430580","ddeg","-130.00945717",,,,,,"PilotCam",,"BrowCam",,"UserSelect",,"SciCam",,"/PilotCam.20230913_115821976.jpg",,"/BrowCam.20230913_115821976.jpg",,"/UserSelect.20230913_115821976.jpg",,"/SciCam.20230913_115821976.jpg","meters","0.00","meters","152.57","deg","262.84","ddeg","27.4162468","meters","10966356.02","meters","-2056303.20","ddeg","11.3270870","deg","-4.4","deg","-1.0","degC","6.65","degC","-999.99","degC","-999.99","degC","-999.99"
"6501a3fc19a182001b1d2dc3","2023-09-13T11:58:52.018Z","ASNAP","admin","",,,,,,,"meters","133.2","meters","166.682","deg","263.369","ddeg","45.95427299","ddeg","-130.00941821",,,,,,"PilotCam",,"BrowCam",,"UserSelect",,"SciCam",,"/PilotCam.20230913_115852018.jpg",,"/BrowCam.20230913_115852018.jpg",,"/UserSelect.20230913_115852018.jpg",,"/SciCam.20230913_115852018.jpg","meters","0.00","meters","166.50","deg","263.34","ddeg","27.4162468","meters","10966356.02","meters","-2056303.20","ddeg","11.3270870","deg","-4.0","deg","-0.7","degC","6.52","degC","-999.99","degC","-999.99","degC","-999.99"
"6501a41a19a182001b1d2dc7","2023-09-13T11:59:22.087Z","ASNAP","admin","",,,,,,,"meters","129.8","meters","180.466","deg","263.140","ddeg","45.95424976","ddeg","-130.00942727",,,,,,"PilotCam",,"BrowCam",,"UserSelect",,"SciCam",,"/PilotCam.20230913_115922087.jpg",,"/BrowCam.20230913_115922087.jpg",,"/UserSelect.20230913_115922087.jpg",,"/SciCam.20230913_115922087.jpg","meters","0.00","meters","180.25","deg","263.14","ddeg","27.4162468","meters","10966356.02","meters","-2056303.20","ddeg","11.3270870","deg","-3.7","deg","-0.8","degC","6.39","degC","-999.99","degC","-999.99","degC","-999.99"
"6501a43819a182001b1d2dcb","2023-09-13T11:59:52.158Z","ASNAP","admin","",,,,,,,"meters","126.4","meters","193.277","deg","262.974","ddeg","45.95423336","ddeg","-130.00944843",,,,,,"PilotCam",,"BrowCam",,"UserSelect",,"SciCam",,"/PilotCam.20230913_115952158.jpg",,"/BrowCam.20230913_115952158.jpg",,"/UserSelect.20230913_115952158.jpg",,"/SciCam.20230913_115952158.jpg","meters","0.00","meters","193.06","deg","263.00","ddeg","27.4162468","meters","10966356.02","meters","-2056303.20","ddeg","11.3270870","deg","-3.2","deg","-0.8","degC","6.21","degC","-999.99","degC","-999.99","degC","-999.99"
"6501a45619a182001b1d2dcf","2023-09-13T12:00:22.199Z","ASNAP","admin","",,,,,,,"meters","123.1","meters","206.797","deg","263.460","ddeg","45.95421381","ddeg","-130.00947238",,,,,,"PilotCam",,"BrowCam",,"UserSelect",,"SciCam",,"/PilotCam.20230913_120022199.jpg",,"/BrowCam.20230913_120022199.jpg",,"/UserSelect.20230913_120022199.jpg",,"/SciCam.20230913_120022199.jpg","meters","0.00","meters","206.64","deg","263.46","ddeg","27.4162468","meters","10966356.02","meters","-2056303.20","ddeg","11.3270870","deg","-4.0","deg","-0.9","degC","6.10","degC","-999.99","degC","-999.99","degC","-999.99"
"6501a47119a182001b1d2dd3","2023-09-13T12:00:49.353Z","Biology Type","guest","Siphonifore?",,,,,,"Jelly","meters","120.2","meters","217.428","deg","263.410","ddeg","45.95420117","ddeg","-130.00949487",,,,,,"PilotCam",,"BrowCam",,"UserSelect",,"SciCam",,"/PilotCam.20230913_120049353.jpg",,"/BrowCam.20230913_120049353.jpg",,"/UserSelect.20230913_120049353.jpg",,"/SciCam.20230913_120049353.jpg","meters","0.00","meters","217.28","deg","263.42","ddeg","27.4162468","meters","10966356.02","meters","-2056303.20","ddeg","11.3270870","deg","-4.0","deg","-0.8","degC","5.84","degC","-999.99","degC","-999.99","degC","-999.99"
"6501a47419a182001b1d2dd7","2023-09-13T12:00:52.270Z","ASNAP","admin","",,,,,,,"meters","119.9","meters","218.590","deg","263.311","ddeg","45.95419980","ddeg","-130.00949793",,,,,,"PilotCam",,"BrowCam",,"UserSelect",,"SciCam",,"/PilotCam.20230913_120052270.jpg",,"/BrowCam.20230913_120052270.jpg",,"/UserSelect.20230913_120052270.jpg",,"/SciCam.20230913_120052270.jpg","meters","0.00","meters","218.44","deg","263.33","ddeg","27.4162468","meters","10966356.02","meters","-2056303.20","ddeg","11.3270870","deg","-3.9","deg","-0.8","degC","5.90","degC","-999.99","degC","-999.99","degC","-999.99"
"6501a49219a182001b1d2ddb","2023-09-13T12:01:22.349Z","ASNAP","admin","",,,,,,,"meters","116.7","meters","230.565","deg","263.570","ddeg","45.95419454","ddeg","-130.00951629",,,,,,"PilotCam",,"BrowCam",,"UserSelect",,"SciCam",,"/PilotCam.20230913_120122349.jpg",,"/BrowCam.20230913_120122349.jpg",,"/UserSelect.20230913_120122349.jpg",,"/SciCam.20230913_120122349.jpg","meters","0.00","meters","230.36","deg","263.57","ddeg","27.4162468","meters","10966356.02","meters","-2056303.20","ddeg","11.3270870","deg","-4.0","deg","-0.7","degC","5.65","degC","-999.99","degC","-999.99","degC","-999.99"
"6501a4b019a182001b1d2ddf","2023-09-13T12:01:52.398Z","ASNAP","admin","",,,,,,,"meters","113.5","meters","243.256","deg","263.400","ddeg","45.95419661","ddeg","-130.00951761",,,,,,"PilotCam",,"BrowCam",,"UserSelect",,"SciCam",,"/PilotCam.20230913_120152398.jpg",,"/BrowCam.20230913_120152398.jpg",,"/UserSelect.20230913_120152398.jpg",,"/SciCam.20230913_120152398.jpg","meters","0.00","meters","243.07","deg","263.40","ddeg","27.4162468","meters","10966356.02","meters","-2056303.20","ddeg","11.3270870","deg","-4.4","deg","-0.7","degC","5.64","degC","-999.99","degC","-999.99","degC","-999.99"
"6501a4ce19a182001b1d2de3","2023-09-13T12:02:22.413Z","ASNAP","admin","",,,,,,,"meters","110.5","meters","255.720","deg","263.380","ddeg","45.95419207","ddeg","-130.00953829",,,,,,"PilotCam",,"BrowCam",,"UserSelect",,"SciCam",,"/PilotCam.20230913_120222413.jpg",,"/BrowCam.20230913_120222413.jpg",,"/UserSelect.20230913_120222413.jpg",,"/SciCam.20230913_120222413.jpg","meters","0.00","meters","255.55","deg","263.38","ddeg","27.4162468","meters","10966356.02","meters","-2056303.20","ddeg","11.3270870","deg","-4.2","deg","-0.7","degC","5.61","degC","-999.99","degC","-999.99","degC","-999.99"
"6501a4ec19a182001b1d2de7","2023-09-13T12:02:52.458Z","ASNAP","admin","",,,,,,,"meters","107.5","meters","268.100","deg","263.420","ddeg","45.95418063","ddeg","-130.00957054",,,,,,"PilotCam",,"BrowCam",,"UserSelect",,"SciCam",,"/PilotCam.20230913_120252458.jpg",,"/BrowCam.20230913_120252458.jpg",,"/UserSelect.20230913_120252458.jpg",,"/SciCam.20230913_120252458.jpg","meters","0.00","meters","267.94","deg","263.42","ddeg","27.4162468","meters","10966356.02","meters","-2056303.20","ddeg","11.3270870","deg","-4.2","deg","-0.5","degC","5.38","degC","-999.99","degC","-999.99","degC","-999.99"
"6501a50a19a182001b1d2deb","2023-09-13T12:03:22.479Z","ASNAP","admin","",,,,,,,"meters","104.5","meters","280.720","deg","263.511","ddeg","45.95417976","ddeg","-130.00958138",,,,,,"PilotCam",,"BrowCam",,"UserSelect",,"SciCam",,"/PilotCam.20230913_120322479.jpg",,"/BrowCam.20230913_120322479.jpg",,"/UserSelect.20230913_120322479.jpg",,"/SciCam.20230913_120322479.jpg","meters","0.00","meters","280.53","deg","263.51","ddeg","27.4162468","meters","10966356.02","meters","-2056303.20","ddeg","11.3270870","deg","-4.4","deg","-0.8","degC","5.14","degC","-999.99","degC","-999.99","degC","-999.99"
"6501a52819a182001b1d2def","2023-09-13T12:03:52.521Z","ASNAP","admin","",,,,,,,"meters","101.6","meters","294.777","deg","263.521","ddeg","45.95419044","ddeg","-130.00957169",,,,,,"PilotCam",,"BrowCam",,"UserSelect",,"SciCam",,"/PilotCam.20230913_120352521.jpg",,"/BrowCam.20230913_120352521.jpg",,"/UserSelect.20230913_120352521.jpg",,"/SciCam.20230913_120352521.jpg","meters","0.00","meters","294.53","deg","263.50","ddeg","27.4162468","meters","10966356.02","meters","-2056303.20","ddeg","11.3270870","deg","-4.2","deg","-0.7","degC","5.23","degC","-999.99","degC","-999.99","degC","-999.99"
"6501a54619a182001b1d2df3","2023-09-13T12:04:22.562Z","ASNAP","admin","",,,,,,,"meters","98.8","meters","309.895","deg","263.048","ddeg","45.95419195","ddeg","-130.00957026",,,,,,"PilotCam",,"BrowCam",,"UserSelect",,"SciCam",,"/PilotCam.20230913_120422562.jpg",,"/BrowCam.20230913_120422562.jpg",,"/UserSelect.20230913_120422562.jpg",,"/SciCam.20230913_120422562.jpg","meters","0.00","meters","309.74","deg","263.06","ddeg","27.4162468","meters","10966356.02","meters","-2056303.20","ddeg","11.3270870","deg","-3.9","deg","-0.4","degC","5.19","degC","-999.99","degC","-999.99","degC","-999.99"
"6501a56419a182001b1d2df7","2023-09-13T12:04:52.608Z","ASNAP","admin","",,,,,,,"meters","96.0","meters","325.437","deg","263.267","ddeg","45.95418518","ddeg","-130.00959152",,,,,,"PilotCam",,"BrowCam",,"UserSelect",,"SciCam",,"/PilotCam.20230913_120452608.jpg",,"/BrowCam.20230913_120452608.jpg",,"/UserSelect.20230913_120452608.jpg",,"/SciCam.20230913_120452608.jpg","meters","0.00","meters","325.29","deg","263.25","ddeg","27.4162468","meters","10966356.02","meters","-2056303.20","ddeg","11.3270870","deg","-3.9","deg","-0.7","degC","5.07","degC","-999.99","degC","-999.99","degC","-999.99"
"6501a58219a182001b1d2dfb","2023-09-13T12:05:22.652Z","ASNAP","admin","",,,,,,,"meters","93.2","meters","340.914","deg","263.150","ddeg","45.95417870","ddeg","-130.00962626",,,,,,"PilotCam",,"BrowCam",,"UserSelect",,"SciCam",,"/PilotCam.20230913_120522652.jpg",,"/BrowCam.20230913_120522652.jpg",,"/UserSelect.20230913_120522652.jpg",,"/SciCam.20230913_120522652.jpg","meters","0.00","meters","340.73","deg","263.17","ddeg","27.4162468","meters","10966356.02","meters","-2056303.20","ddeg","11.3270870","deg","-3.8","deg","-0.7","degC","4.86","degC","-999.99","degC","-999.99","degC","-999.99"
"6501a5a019a182001b1d2dff","2023-09-13T12:05:52.672Z","ASNAP","admin","",,,,,,,"meters","90.6","meters","356.335","deg","263.052","ddeg","45.95417216","ddeg","-130.00963503",,,,,,"PilotCam",,"BrowCam",,"UserSelect",,"SciCam",,"/PilotCam.20230913_120552672.jpg",,"/BrowCam.20230913_120552672.jpg",,"/UserSelect.20230913_120552672.jpg",,"/SciCam.20230913_120552672.jpg","meters","0.00","meters","356.17","deg","263.02","ddeg","27.4162468","meters","10966356.02","meters","-2056303.20","ddeg","11.3270870","deg","-4.0","deg","-0.4","degC","4.82","degC","-999.99","degC","-999.99","degC","-999.99"
"6501a5be19a182001b1d2e03","2023-09-13T12:06:22.715Z","ASNAP","admin","",,,,,,,"meters","87.9","meters","371.260","deg","263.312","ddeg","45.95417001","ddeg","-130.00959855",,,,,,"PilotCam",,"BrowCam",,"UserSelect",,"SciCam",,"/PilotCam.20230913_120622715.jpg",,"/BrowCam.20230913_120622715.jpg",,"/UserSelect.20230913_120622715.jpg",,"/SciCam.20230913_120622715.jpg","meters","0.00","meters","371.13","deg","263.30","ddeg","27.4162468","meters","10966356.02","meters","-2056303.20","ddeg","11.3270870","deg","-4.6","deg","-0.9","degC","4.70","degC","-999.99","degC","-999.99","degC","-999.99"
"6501a5dc19a182001b1d2e07","2023-09-13T12:06:52.735Z","ASNAP","admin","",,,,,,,"meters","85.4","meters","385.731","deg","263.369","ddeg","45.95417078","ddeg","-130.00954675",,,,,,"PilotCam",,"BrowCam",,"UserSelect",,"SciCam",,"/PilotCam.20230913_120652735.jpg",,"/BrowCam.20230913_120652735.jpg",,"/UserSelect.20230913_120652735.jpg",,"/SciCam.20230913_120652735.jpg","meters","0.00","meters","385.60","deg","263.38","ddeg","27.4162468","meters","10966356.02","meters","-2056303.20","ddeg","11.3270870","deg","-4.3","deg","-0.7","degC","4.61","degC","-999.99","degC","-999.99","degC","-999.99"
"6501a5fa19a182001b1d2e0b","2023-09-13T12:07:22.780Z","ASNAP","admin","",,,,,,,"meters","82.8","meters","400.577","deg","262.930","ddeg","45.95416672","ddeg","-130.00953248",,,,,,"PilotCam",,"BrowCam",,"UserSelect",,"SciCam",,"/PilotCam.20230913_120722780.jpg",,"/BrowCam.20230913_120722780.jpg",,"/UserSelect.20230913_120722780.jpg",,"/SciCam.20230913_120722780.jpg","meters","0.00","meters","400.40","deg","262.93","ddeg","27.4162468","meters","10966356.02","meters","-2056303.20","ddeg","11.3270870","deg","-3.7","deg","-0.5","degC","4.59","degC","-999.99","degC","-999.99","degC","-999.99"
"6501a61819a182001b1d2e0f","2023-09-13T12:07:52.822Z","ASNAP","admin","",,,,,,,"meters","80.4","meters","415.632","deg","263.293","ddeg","45.95416219","ddeg","-130.00953488",,,,,,"PilotCam",,"BrowCam",,"UserSelect",,"SciCam",,"/PilotCam.20230913_120752822.jpg",,"/BrowCam.20230913_120752822.jpg",,"/UserSelect.20230913_120752822.jpg",,"/SciCam.20230913_120752822.jpg","meters","0.00","meters","416.00","deg","263.25","ddeg","27.4162468","meters","10966356.02","meters","-2056303.20","ddeg","11.3270870","deg","-4.0","deg","-0.6","degC","4.54","degC","-999.99","degC","-999.99","degC","-999.99"
"6501a63619a182001b1d2e13","2023-09-13T12:08:22.863Z","ASNAP","admin","",,,,,,,"meters","78.0","meters","430.341","deg","263.090","ddeg","45.95415586","ddeg","-130.00953070",,,,,,"PilotCam",,"BrowCam",,"UserSelect",,"SciCam",,"/PilotCam.20230913_120822863.jpg",,"/BrowCam.20230913_120822863.jpg",,"/UserSelect.20230913_120822863.jpg",,"/SciCam.20230913_120822863.jpg","meters","0.00","meters","430.68","deg","263.10","ddeg","27.4162468","meters","10966356.02","meters","-2056303.20","ddeg","11.3270870","deg","-3.9","deg","-0.6","degC","4.47","degC","-999.99","degC","-999.99","degC","-999.99"
"6501a65419a182001b1d2e17","2023-09-13T12:08:52.889Z","ASNAP","admin","",,,,,,,"meters","75.6","meters","444.779","deg","263.290","ddeg","45.95414873","ddeg","-130.00951343",,,,,,"PilotCam",,"BrowCam",,"UserSelect",,"SciCam",,"/PilotCam.20230913_120852889.jpg",,"/BrowCam.20230913_120852889.jpg",,"/UserSelect.20230913_120852889.jpg",,"/SciCam.20230913_120852889.jpg","meters","0.00","meters","445.13","deg","263.27","ddeg","27.4162468","meters","10966356.02","meters","-2056303.20","ddeg","11.3270870","deg","-4.2","deg","-0.9","degC","4.39","degC","-999.99","degC","-999.99","degC","-999.99"
"6501a67219a182001b1d2e1b","2023-09-13T12:09:22.936Z","ASNAP","admin","",,,,,,,"meters","73.3","meters","458.956","deg","263.451","ddeg","45.95414265","ddeg","-130.00949289",,,,,,"PilotCam",,"BrowCam",,"UserSelect",,"SciCam",,"/PilotCam.20230913_120922936.jpg",,"/BrowCam.20230913_120922936.jpg",,"/UserSelect.20230913_120922936.jpg",,"/SciCam.20230913_120922936.jpg","meters","0.00","meters","459.25","deg","263.41","ddeg","27.4162468","meters","10966356.02","meters","-2056303.20","ddeg","11.3270870","deg","-3.8","deg","-1.0","degC","4.35","degC","-999.99","degC","-999.99","degC","-999.99"
"6501a69019a182001b1d2e1f","2023-09-13T12:09:52.976Z","ASNAP","admin","",,,,,,,"meters","71.0","meters","472.764","deg","263.272","ddeg","45.95413533","ddeg","-130.00947787",,,,,,"PilotCam",,"BrowCam",,"UserSelect",,"SciCam",,"/PilotCam.20230913_120952976.jpg",,"/BrowCam.20230913_120952976.jpg",,"/UserSelect.20230913_120952976.jpg",,"/SciCam.20230913_120952976.jpg","meters","0.00","meters","473.06","deg","263.30","ddeg","27.4162468","meters","10966356.02","meters","-2056303.20","ddeg","11.3270870","deg","-4.1","deg","-0.5","degC","4.33","degC","-999.99","degC","-999.99","degC","-999.99"
"6501a6af19a182001b1d2e23","2023-09-13T12:10:23.002Z","ASNAP","admin","",,,,,,,"meters","68.7","meters","487.133","deg","263.500","ddeg","45.95412395","ddeg","-130.00944629",,,,,,"PilotCam",,"BrowCam",,"UserSelect",,"SciCam",,"/PilotCam.20230913_121023002.jpg",,"/BrowCam.20230913_121023002.jpg",,"/UserSelect.20230913_121023002.jpg",,"/SciCam.20230913_121023002.jpg","meters","0.00","meters","487.01","deg","263.50","ddeg","27.4162468","meters","10966356.02","meters","-2056303.20","ddeg","11.3270870","deg","-4.1","deg","-0.7","degC","4.32","degC","-999.99","degC","-999.99","degC","-999.99"
"6501a6cd19a182001b1d2e27","2023-09-13T12:10:53.069Z","ASNAP","admin","",,,,,,,"meters","66.6","meters","500.802","deg","263.399","ddeg","45.95411568","ddeg","-130.00940997",,,,,,"PilotCam",,"BrowCam",,"UserSelect",,"SciCam",,"/PilotCam.20230913_121053069.jpg",,"/BrowCam.20230913_121053069.jpg",,"/UserSelect.20230913_121053069.jpg",,"/SciCam.20230913_121053069.jpg","meters","0.00","meters","500.68","deg","263.37","ddeg","27.4162468","meters","10966356.02","meters","-2056303.20","ddeg","11.3270870","deg","-4.0","deg","-0.5","degC","4.24","degC","-999.99","degC","-999.99","degC","-999.99"
"6501a6eb19a182001b1d2e2b","2023-09-13T12:11:23.115Z","ASNAP","admin","",,,,,,,"meters","64.5","meters","514.338","deg","263.390","ddeg","45.95410573","ddeg","-130.00937676",,,,,,"PilotCam",,"BrowCam",,"UserSelect",,"SciCam",,"/PilotCam.20230913_121123115.jpg",,"/BrowCam.20230913_121123115.jpg",,"/UserSelect.20230913_121123115.jpg",,"/SciCam.20230913_121123115.jpg","meters","0.00","meters","514.16","deg","263.38","ddeg","27.4162468","meters","10966356.02","meters","-2056303.20","ddeg","11.3270870","deg","-4.1","deg","-0.7","degC","4.14","degC","-999.99","degC","-999.99","degC","-999.99"
"6501a70919a182001b1d2e2f","2023-09-13T12:11:53.158Z","ASNAP","admin","",,,,,,,"meters","62.4","meters","528.344","deg","263.119","ddeg","45.95409479","ddeg","-130.00934205",,,,,,"PilotCam",,"BrowCam",,"UserSelect",,"SciCam",,"/PilotCam.20230913_121153158.jpg",,"/BrowCam.20230913_121153158.jpg",,"/UserSelect.20230913_121153158.jpg",,"/SciCam.20230913_121153158.jpg","meters","0.00","meters","528.18","deg","263.10","ddeg","27.4162468","meters","10966356.02","meters","-2056303.20","ddeg","11.3270870","deg","-4.6","deg","-1.0","degC","3.98","degC","-999.99","degC","-999.99","degC","-999.99"
"6501a72719a182001b1d2e33","2023-09-13T12:12:23.199Z","ASNAP","admin","",,,,,,,"meters","60.4","meters","542.396","deg","262.981","ddeg","45.95408555","ddeg","-130.00931219",,,,,,"PilotCam",,"BrowCam",,"UserSelect",,"SciCam",,"/PilotCam.20230913_121223199.jpg",,"/BrowCam.20230913_121223199.jpg",,"/UserSelect.20230913_121223199.jpg",,"/SciCam.20230913_121223199.jpg","meters","0.00","meters","542.29","deg","262.98","ddeg","27.4162468","meters","10966356.02","meters","-2056303.20","ddeg","11.3270870","deg","-3.8","deg","-0.2","degC","4.11","degC","-999.99","degC","-999.99","degC","-999.99"
"6501a74519a182001b1d2e37","2023-09-13T12:12:53.251Z","ASNAP","admin","",,,,,,,"meters","58.4","meters","555.752","deg","263.331","ddeg","45.95407987","ddeg","-130.00928068",,,,,,"PilotCam",,"BrowCam",,"UserSelect",,"SciCam",,"/PilotCam.20230913_121253251.jpg",,"/BrowCam.20230913_121253251.jpg",,"/UserSelect.20230913_121253251.jpg",,"/SciCam.20230913_121253251.jpg","meters","0.00","meters","555.63","deg","263.34","ddeg","27.4162468","meters","10966356.02","meters","-2056303.20","ddeg","11.3270870","deg","-4.9","deg","-1.0","degC","4.07","degC","-999.99","degC","-999.99","degC","-999.99"
"6501a76319a182001b1d2e3b","2023-09-13T12:13:23.279Z","ASNAP","admin","",,,,,,,"meters","56.5","meters","569.635","deg","263.021","ddeg","45.95407325","ddeg","-130.00923625",,,,,,"PilotCam",,"BrowCam",,"UserSelect",,"SciCam",,"/PilotCam.20230913_121323279.jpg",,"/BrowCam.20230913_121323279.jpg",,"/UserSelect.20230913_121323279.jpg",,"/SciCam.20230913_121323279.jpg","meters","0.00","meters","569.48","deg","263.02","ddeg","27.4162468","meters","10966356.02","meters","-2056303.20","ddeg","11.3270870","deg","-4.1","deg","-0.3","degC","4.14","degC","-999.99","degC","-999.99","degC","-999.99"
"6501a78119a182001b1d2e3f","2023-09-13T12:13:53.326Z","ASNAP","admin","",,,,,,,"meters","54.6","meters","583.488","deg","263.169","ddeg","45.95406562","ddeg","-130.00920655",,,,,,"PilotCam",,"BrowCam",,"UserSelect",,"SciCam",,"/PilotCam.20230913_121353326.jpg",,"/BrowCam.20230913_121353326.jpg",,"/UserSelect.20230913_121353326.jpg",,"/SciCam.20230913_121353326.jpg","meters","0.00","meters","583.33","deg","263.17","ddeg","27.4162468","meters","10966356.02","meters","-2056303.20","ddeg","11.3270870","deg","-4.0","deg","-0.8","degC","3.99","degC","-999.99","degC","-999.99","degC","-999.99"
"6501a79f19a182001b1d2e43","2023-09-13T12:14:23.369Z","ASNAP","admin","",,,,,,,"meters","52.8","meters","597.400","deg","263.360","ddeg","45.95406232","ddeg","-130.00917489",,,,,,"PilotCam",,"BrowCam",,"UserSelect",,"SciCam",,"/PilotCam.20230913_121423369.jpg",,"/BrowCam.20230913_121423369.jpg",,"/UserSelect.20230913_121423369.jpg",,"/SciCam.20230913_121423369.jpg","meters","0.00","meters","597.26","deg","263.36","ddeg","27.4162468","meters","10966356.02","meters","-2056303.20","ddeg","11.3270870","deg","-4.2","deg","-0.8","degC","3.91","degC","-999.99","degC","-999.99","degC","-999.99"
"6501a7bd19a182001b1d2e47","2023-09-13T12:14:53.416Z","ASNAP","admin","",,,,,,,"meters","51.0","meters","611.169","deg","263.457","ddeg","45.95406734","ddeg","-130.00913542",,,,,,"PilotCam",,"BrowCam",,"UserSelect",,"SciCam",,"/PilotCam.20230913_121453416.jpg",,"/BrowCam.20230913_121453416.jpg",,"/UserSelect.20230913_121453416.jpg",,"/SciCam.20230913_121453416.jpg","meters","0.00","meters","611.05","deg","263.45","ddeg","27.4162468","meters","10966356.02","meters","-2056303.20","ddeg","11.3270870","deg","-4.1","deg","-0.7","degC","3.99","degC","-999.99","degC","-999.99","degC","-999.99"
