"id","ts","event_value","event_author","event_free_text","event_option.actions","event_option.filename","event_option.milestone","event_option.nav","event_option.new_watchstander","event_option.type","vehicleReNavData.altitude_uom","vehicleReNavData.altitude_value","vehicleReNavData.depth_uom","vehicleReNavData.depth_value","vehicleReNavData.heading_uom","vehicleReNavData.heading_value","vehicleReNavData.latitude_uom","vehicleReNavData.latitude_value","vehicleReNavData.longitude_uom","vehicleReNavData.longitude_value","vehicleReNavData.pitch_uom","vehicleReNavData.pitch_value","vehicleReNavData.roll_uom","vehicleReNavData.roll_value","vehicleRealtimeFramegrabberData.camera_name_2_uom","vehicleRealtimeFramegrabberData.camera_name_2_value","vehicleRealtimeFramegrabberData.camera_name_3_uom","vehicleRealtimeFramegrabberData.camera_name_3_value","vehicleRealtimeFramegrabberData.camera_name_4_uom","vehicleRealtimeFramegrabberData.camera_name_4_value","vehicleRealtimeFramegrabberData.camera_name_uom","vehicleRealtimeFramegrabberData.camera_name_value","vehicleRealtimeFramegrabberData.filename_2_uom","vehicleRealtimeFramegrabberData.filename_2_value","vehicleRealtimeFramegrabberData.filename_3_uom","vehicleRealtimeFramegrabberData.filename_3_value","vehicleRealtimeFramegrabberData.filename_4_uom","vehicleRealtimeFramegrabberData.filename_4_value","vehicleRealtimeFramegrabberData.filename_uom","vehicleRealtimeFramegrabberData.filename_value","vehicleRealtimeNavData.altitude_uom","vehicleRealtimeNavData.altitude_value","vehicleRealtimeNavData.depth_uom","vehicleRealtimeNavData.depth_value","vehicleRealtimeNavData.heading_uom","vehicleRealtimeNavData.heading_value","vehicleRealtimeNavData.latitude_uom","vehicleRealtimeNavData.latitude_value","vehicleRealtimeNavData.local_x_uom","vehicleRealtimeNavData.local_x_value","vehicleRealtimeNavData.local_y_uom","vehicleRealtimeNavData.local_y_value","vehicleRealtimeNavData.longitude_uom","vehicleRealtimeNavData.longitude_value","vehicleRealtimeNavData.pitch_uom","vehicleRealtimeNavData.pitch_value","vehicleRealtimeNavData.roll_uom","vehicleRealtimeNavData.roll_value","vehicleTemperatureProbe.probe1_temperature_uom","vehicleTemperatureProbe.probe1_temperature_value","vehicleTemperatureProbe.probe2_temperature_uom","vehicleTemperatureProbe.probe2_temperature_value","vehicleTemperatureProbe.probe3_temperature_uom","vehicleTemperatureProbe.probe3_temperature_value","vehicleTemperatureProbe.probe4_temperature_uom","vehicleTemperatureProbe.probe4_temperature_value"
"64e498c295482d0019b1e21b","2023-08-22T11:15:14.837Z","ASNAP","admin","",,,,,,,,,,,,,,,,,,,,,,"PilotCam",,"BrowCam",,"UserSelect",,"SciCam",,"/PilotCam.20230822_111514837.jpg",,"/BrowCam.20230822_111514837.jpg",,"/UserSelect.20230822_111514837.jpg",,"/SciCam.20230822_111514837.jpg","meters","0.00","meters","0.42","deg","176.56","ddeg","44.6336784","meters","0.00","meters","0.00","ddeg","-124.3080789","deg","0.0","deg","-1.4","degC","10.80","degC","-999.99","degC","-999.99","degC","-999.99"
"64e498e095482d0019b1e21f","2023-08-22T11:15:44.884Z","ASNAP","admin","",,,,,,,,,,,,,,,,,,,,,,"PilotCam",,"BrowCam",,"UserSelect",,"SciCam",,"/PilotCam.20230822_111544884.jpg",,"/BrowCam.20230822_111544884.jpg",,"/UserSelect.20230822_111544884.jpg",,"/SciCam.20230822_111544884.jpg","meters","0.00","meters","0.43","deg","176.85","ddeg","44.6336784","meters","0.00","meters","0.00","ddeg","-124.3080789","deg","0.4","deg","-2.0","degC","10.76","degC","-999.99","degC","-999.99","degC","-999.99"
"64e498fe95482d0019b1e223","2023-08-22T11:16:14.930Z","ASNAP","admin","",,,,,,,,,,,,,,,,,,,,,,"PilotCam",,"BrowCam",,"UserSelect",,"SciCam",,"/PilotCam.20230822_111614930.jpg",,"/BrowCam.20230822_111614930.jpg",,"/UserSelect.20230822_111614930.jpg",,"/SciCam.20230822_111614930.jpg","meters","0.00","meters","0.44","deg","176.62","ddeg","44.6336784","meters","0.00","meters","0.00","ddeg","-124.3080789","deg","0.2","deg","-2.3","degC","10.77","degC","-999.99","degC","-999.99","degC","-999.99"
"64e4991c95482d0019b1e227","2023-08-22T11:16:44.975Z","ASNAP","admin","",,,,,,,,,,,,,,,,,,,,,,"PilotCam",,"BrowCam",,"UserSelect",,"SciCam",,"/PilotCam.20230822_111644975.jpg",,"/BrowCam.20230822_111644975.jpg",,"/UserSelect.20230822_111644975.jpg",,"/SciCam.20230822_111644975.jpg","meters","0.00","meters","0.43","deg","174.23","ddeg","44.6336784","meters","0.00","meters","0.00","ddeg","-124.3080789","deg","0.3","deg","-2.0","degC","10.78","degC","-999.99","degC","-999.99","degC","-999.99"
"64e4993a95482d0019b1e22b","2023-08-22T11:17:14.997Z","ASNAP","admin","",,,,,,,,,,,,,,,,,,,,,,"PilotCam",,"BrowCam",,"UserSelect",,"SciCam",,"/PilotCam.20230822_111714997.jpg",,"/BrowCam.20230822_111714997.jpg",,"/UserSelect.20230822_111714997.jpg",,"/SciCam.20230822_111714997.jpg","meters","0.00","meters","0.43","deg","174.23","ddeg","44.6336784","meters","0.00","meters","0.00","ddeg","-124.3080789","deg","0.2","deg","-2.2","degC","10.78","degC","-999.99","degC","-999.99","degC","-999.99"
"64e4995995482d0019b1e22f","2023-08-22T11:17:45.038Z","ASNAP","admin","",,,,,,,,,,,,,,,,,,,,,,"PilotCam",,"BrowCam",,"UserSelect",,"SciCam",,"/PilotCam.20230822_111745038.jpg",,"/BrowCam.20230822_111745038.jpg",,"/UserSelect.20230822_111745038.jpg",,"/SciCam.20230822_111745038.jpg","meters","0.00","meters","0.41","deg","175.79","ddeg","44.6336784","meters","0.00","meters","0.00","ddeg","-124.3080789","deg","0.9","deg","-1.4","degC","10.80","degC","-999.99","degC","-999.99","degC","-999.99"
"64e4997795482d0019b1e233","2023-08-22T11:18:15.065Z","ASNAP","admin","",,,,,,,,,,,,,,,,,,,,,,"PilotCam",,"BrowCam",,"UserSelect",,"SciCam",,"/PilotCam.20230822_111815065.jpg",,"/BrowCam.20230822_111815065.jpg",,"/UserSelect.20230822_111815065.jpg",,"/SciCam.20230822_111815065.jpg","meters","0.00","meters","0.44","deg","174.54","ddeg","44.6336784","meters","0.00","meters","0.00","ddeg","-124.3080789","deg","0.0","deg","-2.5","degC","10.81","degC","-999.99","degC","-999.99","degC","-999.99"
"64e4999595482d0019b1e237","2023-08-22T11:18:45.108Z","ASNAP","admin","",,,,,,,,,,,,,,,,,,,,,,"PilotCam",,"BrowCam",,"UserSelect",,"SciCam",,"/PilotCam.20230822_111845108.jpg",,"/BrowCam.20230822_111845108.jpg",,"/UserSelect.20230822_111845108.jpg",,"/SciCam.20230822_111845108.jpg","meters","0.00","meters","0.42","deg","174.53","ddeg","44.6336784","meters","0.00","meters","0.00","ddeg","-124.3080789","deg","0.2","deg","-2.1","degC","10.75","degC","-999.99","degC","-999.99","degC","-999.99"
"64e499b395482d0019b1e23b","2023-08-22T11:19:15.168Z","ASNAP","admin","",,,,,,,,,,,,,,,,,,,,,,"PilotCam",,"BrowCam",,"UserSelect",,"SciCam",,"/PilotCam.20230822_111915168.jpg",,"/BrowCam.20230822_111915168.jpg",,"/UserSelect.20230822_111915168.jpg",,"/SciCam.20230822_111915168.jpg","meters","0.00","meters","0.42","deg","174.59","ddeg","44.6336784","meters","0.00","meters","0.00","ddeg","-124.3080789","deg","0.3","deg","-1.8","degC","10.79","degC","-999.99","degC","-999.99","degC","-999.99"
"64e499d195482d0019b1e23f","2023-08-22T11:19:45.213Z","ASNAP","admin","",,,,,,,,,,,,,,,,,,,,,,"PilotCam",,"BrowCam",,"UserSelect",,"SciCam",,"/PilotCam.20230822_111945213.jpg",,"/BrowCam.20230822_111945213.jpg",,"/UserSelect.20230822_111945213.jpg",,"/SciCam.20230822_111945213.jpg","meters","0.00","meters","0.43","deg","175.04","ddeg","44.6336784","meters","0.00","meters","0.00","ddeg","-124.3080789","deg","0.3","deg","-1.8","degC","10.77","degC","-999.99","degC","-999.99","degC","-999.99"
"64e499ef95482d0019b1e243","2023-08-22T11:20:15.273Z","ASNAP","admin","",,,,,,,,,,,,,,,,,,,,,,"PilotCam",,"BrowCam",,"UserSelect",,"SciCam",,"/PilotCam.20230822_112015273.jpg",,"/BrowCam.20230822_112015273.jpg",,"/UserSelect.20230822_112015273.jpg",,"/SciCam.20230822_112015273.jpg","meters","0.00","meters","0.43","deg","175.08","ddeg","44.6336784","meters","0.00","meters","0.00","ddeg","-124.3080789","deg","0.6","deg","-1.2","degC","10.77","degC","-999.99","degC","-999.99","degC","-999.99"
"64e49a0d95482d0019b1e247","2023-08-22T11:20:45.314Z","ASNAP","admin","",,,,,,,,,,,,,,,,,,,,,,"PilotCam",,"BrowCam",,"UserSelect",,"SciCam",,"/PilotCam.20230822_112045314.jpg",,"/BrowCam.20230822_112045314.jpg",,"/UserSelect.20230822_112045314.jpg",,"/SciCam.20230822_112045314.jpg","meters","0.00","meters","0.43","deg","175.38","ddeg","44.6336784","meters","0.00","meters","0.00","ddeg","-124.3080789","deg","-0.5","deg","-2.0","degC","10.82","degC","-999.99","degC","-999.99","degC","-999.99"
"64e49a2b95482d0019b1e24b","2023-08-22T11:21:15.335Z","ASNAP","admin","",,,,,,,,,,,,,,,,,,,,,,"PilotCam",,"BrowCam",,"UserSelect",,"SciCam",,"/PilotCam.20230822_112115335.jpg",,"/BrowCam.20230822_112115335.jpg",,"/UserSelect.20230822_112115335.jpg",,"/SciCam.20230822_112115335.jpg","meters","0.00","meters","0.44","deg","174.44","ddeg","44.6336784","meters","0.00","meters","0.00","ddeg","-124.3080789","deg","0.1","deg","-1.4","degC","10.79","degC","-999.99","degC","-999.99","degC","-999.99"
"64e49a4995482d0019b1e24f","2023-08-22T11:21:45.400Z","ASNAP","admin","",,,,,,,,,,,,,,,,,,,,,,"PilotCam",,"BrowCam",,"UserSelect",,"SciCam",,"/PilotCam.20230822_112145400.jpg",,"/BrowCam.20230822_112145400.jpg",,"/UserSelect.20230822_112145400.jpg",,"/SciCam.20230822_112145400.jpg","meters","0.00","meters","0.45","deg","174.83","ddeg","44.6336784","meters","0.00","meters","0.00","ddeg","-124.3080789","deg","-0.9","deg","-2.4","degC","10.77","degC","-999.99","degC","-999.99","degC","-999.99"
"64e49a6795482d0019b1e253","2023-08-22T11:22:15.449Z","ASNAP","admin","",,,,,,,,,,,,,,,,,,,,,,"PilotCam",,"BrowCam",,"UserSelect",,"SciCam",,"/PilotCam.20230822_112215449.jpg",,"/BrowCam.20230822_112215449.jpg",,"/UserSelect.20230822_112215449.jpg",,"/SciCam.20230822_112215449.jpg","meters","0.00","meters","0.44","deg","175.11","ddeg","44.6336784","meters","0.00","meters","0.00","ddeg","-124.3080789","deg","0.5","deg","-1.4","degC","10.79","degC","-999.99","degC","-999.99","degC","-999.99"
"64e49a8595482d0019b1e257","2023-08-22T11:22:45.502Z","ASNAP","admin","",,,,,,,,,,,,,,,,,,,,,,"PilotCam",,"BrowCam",,"UserSelect",,"SciCam",,"/PilotCam.20230822_112245502.jpg",,"/BrowCam.20230822_112245502.jpg",,"/UserSelect.20230822_112245502.jpg",,"/SciCam.20230822_112245502.jpg","meters","0.00","meters","0.44","deg","174.80","ddeg","44.6336784","meters","0.00","meters","0.00","ddeg","-124.3080789","deg","-0.3","deg","-1.6","degC","10.78","degC","-999.99","degC","-999.99","degC","-999.99"
"64e49aa395482d0019b1e25b","2023-08-22T11:23:15.523Z","ASNAP","admin","",,,,,,,,,,,,,,,,,,,,,,"PilotCam",,"BrowCam",,"UserSelect",,"SciCam",,"/PilotCam.20230822_112315523.jpg",,"/BrowCam.20230822_112315523.jpg",,"/UserSelect.20230822_112315523.jpg",,"/SciCam.20230822_112315523.jpg","meters","0.00","meters","0.46","deg","174.47","ddeg","44.6336784","meters","0.00","meters","0.00","ddeg","-124.3080789","deg","-0.0","deg","-2.1","degC","10.81","degC","-999.99","degC","-999.99","degC","-999.99"
"64e49ac195482d0019b1e25f","2023-08-22T11:23:45.565Z","ASNAP","admin","",,,,,,,,,,,,,,,,,,,,,,"PilotCam",,"BrowCam",,"UserSelect",,"SciCam",,"/PilotCam.20230822_112345565.jpg",,"/BrowCam.20230822_112345565.jpg",,"/UserSelect.20230822_112345565.jpg",,"/SciCam.20230822_112345565.jpg","meters","0.00","meters","0.44","deg","174.20","ddeg","44.6336784","meters","0.00","meters","0.00","ddeg","-124.3080789","deg","0.1","deg","-1.3","degC","10.73","degC","-999.99","degC","-999.99","degC","-999.99"
"64e49adf95482d0019b1e263","2023-08-22T11:24:15.607Z","ASNAP","admin","",,,,,,,,,,,,,,,,,,,,,,"PilotCam",,"BrowCam",,"UserSelect",,"SciCam",,"/PilotCam.20230822_112415607.jpg",,"/BrowCam.20230822_112415607.jpg",,"/UserSelect.20230822_112415607.jpg",,"/SciCam.20230822_112415607.jpg","meters","0.00","meters","0.45","deg","175.22","ddeg","44.6336784","meters","0.00","meters","0.00","ddeg","-124.3080789","deg","0.1","deg","-1.6","degC","10.78","degC","-999.99","degC","-999.99","degC","-999.99"
"64e49afd95482d0019b1e267","2023-08-22T11:24:45.648Z","ASNAP","admin","",,,,,,,,,,,,,,,,,,,,,,"PilotCam",,"BrowCam",,"UserSelect",,"SciCam",,"/PilotCam.20230822_112445648.jpg",,"/BrowCam.20230822_112445648.jpg",,"/UserSelect.20230822_112445648.jpg",,"/SciCam.20230822_112445648.jpg","meters","0.00","meters","0.45","deg","175.31","ddeg","44.6336784","meters","0.00","meters","0.00","ddeg","-124.3080789","deg","0.1","deg","-1.4","degC","10.80","degC","-999.99","degC","-999.99","degC","-999.99"
"64e49b1b95482d0019b1e26b","2023-08-22T11:25:15.692Z","ASNAP","admin","",,,,,,,,,,,,,,,,,,,,,,"PilotCam",,"BrowCam",,"UserSelect",,"SciCam",,"/PilotCam.20230822_112515692.jpg",,"/BrowCam.20230822_112515692.jpg",,"/UserSelect.20230822_112515692.jpg",,"/SciCam.20230822_112515692.jpg","meters","0.00","meters","0.46","deg","174.79","ddeg","44.6336784","meters","0.00","meters","0.00","ddeg","-124.3080789","deg","0.2","deg","-1.2","degC","10.81","degC","-999.99","degC","-999.99","degC","-999.99"
"64e49b3995482d0019b1e26f","2023-08-22T11:25:45.737Z","ASNAP","admin","",,,,,,,,,,,,,,,,,,,,,,"PilotCam",,"BrowCam",,"UserSelect",,"SciCam",,"/PilotCam.20230822_112545737.jpg",,"/BrowCam.20230822_112545737.jpg",,"/UserSelect.20230822_112545737.jpg",,"/SciCam.20230822_112545737.jpg","meters","0.00","meters","0.44","deg","175.11","ddeg","44.6336784","meters","0.00","meters","0.00","ddeg","-124.3080789","deg","0.1","deg","-1.1","degC","10.80","degC","-999.99","degC","-999.99","degC","-999.99"
"64e49b5795482d0019b1e273","2023-08-22T11:26:15.758Z","ASNAP","admin","",,,,,,,,,,,,,,,,,,,,,,"PilotCam",,"BrowCam",,"UserSelect",,"SciCam",,"/PilotCam.20230822_112615758.jpg",,"/BrowCam.20230822_112615758.jpg",,"/UserSelect.20230822_112615758.jpg",,"/SciCam.20230822_112615758.jpg","meters","0.00","meters","0.44","deg","175.36","ddeg","44.6336784","meters","0.00","meters","0.00","ddeg","-124.3080789","deg","-0.0","deg","-1.8","degC","10.80","degC","-999.99","degC","-999.99","degC","-999.99"
"64e49b7595482d0019b1e277","2023-08-22T11:26:45.803Z","ASNAP","admin","",,,,,,,,,,,,,,,,,,,,,,"PilotCam",,"BrowCam",,"UserSelect",,"SciCam",,"/PilotCam.20230822_112645803.jpg",,"/BrowCam.20230822_112645803.jpg",,"/UserSelect.20230822_112645803.jpg",,"/SciCam.20230822_112645803.jpg","meters","0.00","meters","0.44","deg","175.60","ddeg","44.6336784","meters","0.00","meters","0.00","ddeg","-124.3080789","deg","0.3","deg","-2.3","degC","10.76","degC","-999.99","degC","-999.99","degC","-999.99"
"64e49b9395482d0019b1e27b","2023-08-22T11:27:15.819Z","ASNAP","admin","",,,,,,,,,,,,,,,,,,,,,,"PilotCam",,"BrowCam",,"UserSelect",,"SciCam",,"/PilotCam.20230822_112715819.jpg",,"/BrowCam.20230822_112715819.jpg",,"/UserSelect.20230822_112715819.jpg",,"/SciCam.20230822_112715819.jpg","meters","0.00","meters","0.44","deg","175.54","ddeg","44.6336784","meters","0.00","meters","0.00","ddeg","-124.3080789","deg","0.4","deg","-2.0","degC","10.78","degC","-999.99","degC","-999.99","degC","-999.99"
"64e49bb195482d0019b1e27f","2023-08-22T11:27:45.864Z","ASNAP","admin","",,,,,,,,,,,,,,,,,,,,,,"PilotCam",,"BrowCam",,"UserSelect",,"SciCam",,"/PilotCam.20230822_112745864.jpg",,"/BrowCam.20230822_112745864.jpg",,"/UserSelect.20230822_112745864.jpg",,"/SciCam.20230822_112745864.jpg","meters","0.00","meters","0.43","deg","175.46","ddeg","44.6336784","meters","0.00","meters","0.00","ddeg","-124.3080789","deg","0.5","deg","-1.7","degC","10.83","degC","-999.99","degC","-999.99","degC","-999.99"
"64e49bcf95482d0019b1e283","2023-08-22T11:28:15.908Z","ASNAP","admin","",,,,,,,,,,,,,,,,,,,,,,"PilotCam",,"BrowCam",,"UserSelect",,"SciCam",,"/PilotCam.20230822_112815908.jpg",,"/BrowCam.20230822_112815908.jpg",,"/UserSelect.20230822_112815908.jpg",,"/SciCam.20230822_112815908.jpg","meters","0.00","meters","0.43","deg","175.69","ddeg","44.6336784","meters","0.00","meters","0.00","ddeg","-124.3080789","deg","0.3","deg","-2.0","degC","10.79","degC","-999.99","degC","-999.99","degC","-999.99"
"64e49bed95482d0019b1e287","2023-08-22T11:28:45.953Z","ASNAP","admin","",,,,,,,,,,,,,,,,,,,,,,"PilotCam",,"BrowCam",,"UserSelect",,"SciCam",,"/PilotCam.20230822_112845953.jpg",,"/BrowCam.20230822_112845953.jpg",,"/UserSelect.20230822_112845953.jpg",,"/SciCam.20230822_112845953.jpg","meters","0.00","meters","0.44","deg","175.14","ddeg","44.6336784","meters","0.00","meters","0.00","ddeg","-124.3080789","deg","0.1","deg","-2.2","degC","10.82","degC","-999.99","degC","-999.99","degC","-999.99"
"64e49c0b95482d0019b1e28b","2023-08-22T11:29:15.979Z","ASNAP","admin","",,,,,,,,,,,,,,,,,,,,,,"PilotCam",,"BrowCam",,"UserSelect",,"SciCam",,"/PilotCam.20230822_112915979.jpg",,"/BrowCam.20230822_112915979.jpg",,"/UserSelect.20230822_112915979.jpg",,"/SciCam.20230822_112915979.jpg","meters","0.00","meters","0.44","deg","175.16","ddeg","44.6336784","meters","0.00","meters","0.00","ddeg","-124.3080789","deg","0.1","deg","-2.2","degC","10.85","degC","-999.99","degC","-999.99","degC","-999.99"
"64e49c2a95482d0019b1e28f","2023-08-22T11:29:46.016Z","ASNAP","admin","",,,,,,,,,,,,,,,,,,,,,,"PilotCam",,"BrowCam",,"UserSelect",,"SciCam",,"/PilotCam.20230822_112946016.jpg",,"/BrowCam.20230822_112946016.jpg",,"/UserSelect.20230822_112946016.jpg",,"/SciCam.20230822_112946016.jpg","meters","0.00","meters","0.44","deg","175.27","ddeg","44.6336784","meters","0.00","meters","0.00","ddeg","-124.3080789","deg","-0.5","deg","-1.9","degC","10.82","degC","-999.99","degC","-999.99","degC","-999.99"
"64e49c4895482d0019b1e293","2023-08-22T11:30:16.033Z","ASNAP","admin","",,,,,,,,,,,,,,,,,,,,,,"PilotCam",,"BrowCam",,"UserSelect",,"SciCam",,"/PilotCam.20230822_113016033.jpg",,"/BrowCam.20230822_113016033.jpg",,"/UserSelect.20230822_113016033.jpg",,"/SciCam.20230822_113016033.jpg","meters","0.00","meters","0.45","deg","175.26","ddeg","44.6336784","meters","0.00","meters","0.00","ddeg","-124.3080789","deg","0.8","deg","-1.1","degC","10.86","degC","-999.99","degC","-999.99","degC","-999.99"
"64e49c6695482d0019b1e297","2023-08-22T11:30:46.060Z","ASNAP","admin","",,,,,,,,,,,,,,,,,,,,,,"PilotCam",,"BrowCam",,"UserSelect",,"SciCam",,"/PilotCam.20230822_113046060.jpg",,"/BrowCam.20230822_113046060.jpg",,"/UserSelect.20230822_113046060.jpg",,"/SciCam.20230822_113046060.jpg","meters","0.00","meters","0.43","deg","175.50","ddeg","44.6336784","meters","0.00","meters","0.00","ddeg","-124.3080789","deg","-0.1","deg","-2.0","degC","10.88","degC","-999.99","degC","-999.99","degC","-999.99"
"64e49c8495482d0019b1e29b","2023-08-22T11:31:16.105Z","ASNAP","admin","",,,,,,,,,,,,,,,,,,,,,,"PilotCam",,"BrowCam",,"UserSelect",,"SciCam",,"/PilotCam.20230822_113116105.jpg",,"/BrowCam.20230822_113116105.jpg",,"/UserSelect.20230822_113116105.jpg",,"/SciCam.20230822_113116105.jpg","meters","0.00","meters","0.44","deg","175.10","ddeg","44.6336784","meters","0.00","meters","0.00","ddeg","-124.3080789","deg","0.5","deg","-1.5","degC","10.84","degC","-999.99","degC","-999.99","degC","-999.99"
"64e49ca295482d0019b1e29f","2023-08-22T11:31:46.142Z","ASNAP","admin","",,,,,,,,,,,,,,,,,,,,,,"PilotCam",,"BrowCam",,"UserSelect",,"SciCam",,"/PilotCam.20230822_113146142.jpg",,"/BrowCam.20230822_113146142.jpg",,"/UserSelect.20230822_113146142.jpg",,"/SciCam.20230822_113146142.jpg","meters","0.00","meters","0.44","deg","175.66","ddeg","44.6336784","meters","0.00","meters","0.00","ddeg","-124.3080789","deg","0.2","deg","-1.5","degC","10.86","degC","-999.99","degC","-999.99","degC","-999.99"
"64e49cc095482d0019b1e2a3","2023-08-22T11:32:16.197Z","ASNAP","admin","",,,,,,,,,,,,,,,,,,,,,,"PilotCam",,"BrowCam",,"UserSelect",,"SciCam",,"/PilotCam.20230822_113216197.jpg",,"/BrowCam.20230822_113216197.jpg",,"/UserSelect.20230822_113216197.jpg",,"/SciCam.20230822_113216197.jpg","meters","0.00","meters","0.45","deg","175.52","ddeg","44.6336784","meters","0.00","meters","0.00","ddeg","-124.3080789","deg","-0.0","deg","-1.9","degC","10.87","degC","-999.99","degC","-999.99","degC","-999.99"
"64e49cde95482d0019b1e2a7","2023-08-22T11:32:46.266Z","ASNAP","admin","",,,,,,,,,,,,,,,,,,,,,,"PilotCam",,"BrowCam",,"UserSelect",,"SciCam",,"/PilotCam.20230822_113246266.jpg",,"/BrowCam.20230822_113246266.jpg",,"/UserSelect.20230822_113246266.jpg",,"/SciCam.20230822_113246266.jpg","meters","0.00","meters","0.46","deg","174.99","ddeg","44.6336784","meters","0.00","meters","0.00","ddeg","-124.3080789","deg","-0.9","deg","-2.6","degC","10.85","degC","-999.99","degC","-999.99","degC","-999.99"
"64e49cfc95482d0019b1e2ab","2023-08-22T11:33:16.330Z","ASNAP","admin","",,,,,,,,,,,,,,,,,,,,,,"PilotCam",,"BrowCam",,"UserSelect",,"SciCam",,"/PilotCam.20230822_113316330.jpg",,"/BrowCam.20230822_113316330.jpg",,"/UserSelect.20230822_113316330.jpg",,"/SciCam.20230822_113316330.jpg","meters","0.00","meters","0.45","deg","175.77","ddeg","44.6336784","meters","0.00","meters","0.00","ddeg","-124.3080789","deg","-0.3","deg","-1.9","degC","10.90","degC","-999.99","degC","-999.99","degC","-999.99"
"64e49d1a95482d0019b1e2af","2023-08-22T11:33:46.374Z","ASNAP","admin","",,,,,,,,,,,,,,,,,,,,,,"PilotCam",,"BrowCam",,"UserSelect",,"SciCam",,"/PilotCam.20230822_113346374.jpg",,"/BrowCam.20230822_113346374.jpg",,"/UserSelect.20230822_113346374.jpg",,"/SciCam.20230822_113346374.jpg","meters","0.00","meters","0.44","deg","175.04","ddeg","44.6336784","meters","0.00","meters","0.00","ddeg","-124.3080789","deg","0.2","deg","-2.0","degC","10.85","degC","-999.99","degC","-999.99","degC","-999.99"
"64e49d3895482d0019b1e2b3","2023-08-22T11:34:16.429Z","ASNAP","admin","",,,,,,,,,,,,,,,,,,,,,,"PilotCam",,"BrowCam",,"UserSelect",,"SciCam",,"/PilotCam.20230822_113416429.jpg",,"/BrowCam.20230822_113416429.jpg",,"/UserSelect.20230822_113416429.jpg",,"/SciCam.20230822_113416429.jpg","meters","0.00","meters","0.44","deg","176.52","ddeg","44.6336784","meters","0.00","meters","0.00","ddeg","-124.3080789","deg","0.2","deg","-1.5","degC","10.90","degC","-999.99","degC","-999.99","degC","-999.99"
"64e49d5695482d0019b1e2b7","2023-08-22T11:34:46.472Z","ASNAP","admin","",,,,,,,,,,,,,,,,,,,,,,"PilotCam",,"BrowCam",,"UserSelect",,"SciCam",,"/PilotCam.20230822_113446472.jpg",,"/BrowCam.20230822_113446472.jpg",,"/UserSelect.20230822_113446472.jpg",,"/SciCam.20230822_113446472.jpg","meters","0.00","meters","0.45","deg","176.99","ddeg","44.6336784","meters","0.00","meters","0.00","ddeg","-124.3080789","deg","-0.2","deg","-1.8","degC","10.93","degC","-999.99","degC","-999.99","degC","-999.99"
"64e49d7495482d0019b1e2bb","2023-08-22T11:35:16.519Z","ASNAP","admin","",,,,,,,,,,,,,,,,,,,,,,"PilotCam",,"BrowCam",,"UserSelect",,"SciCam",,"/PilotCam.20230822_113516519.jpg",,"/BrowCam.20230822_113516519.jpg",,"/UserSelect.20230822_113516519.jpg",,"/SciCam.20230822_113516519.jpg","meters","0.00","meters","0.45","deg","177.55","ddeg","44.6336784","meters","0.00","meters","0.00","ddeg","-124.3080789","deg","0.2","deg","-1.6","degC","10.92","degC","-999.99","degC","-999.99","degC","-999.99"
"64e49d9295482d0019b1e2bf","2023-08-22T11:35:46.565Z","ASNAP","admin","",,,,,,,,,,,,,,,,,,,,,,"PilotCam",,"BrowCam",,"UserSelect",,"SciCam",,"/PilotCam.20230822_113546565.jpg",,"/BrowCam.20230822_113546565.jpg",,"/UserSelect.20230822_113546565.jpg",,"/SciCam.20230822_113546565.jpg","meters","0.00","meters","0.44","deg","176.59","ddeg","44.6336784","meters","0.00","meters","0.00","ddeg","-124.3080789","deg","0.0","deg","-1.6","degC","10.89","degC","-999.99","degC","-999.99","degC","-999.99"
"64e49db095482d0019b1e2c3","2023-08-22T11:36:16.604Z","ASNAP","admin","",,,,,,,,,,,,,,,,,,,,,,"PilotCam",,"BrowCam",,"UserSelect",,"SciCam",,"/PilotCam.20230822_113616604.jpg",,"/BrowCam.20230822_113616604.jpg",,"/UserSelect.20230822_113616604.jpg",,"/SciCam.20230822_113616604.jpg","meters","0.00","meters","0.45","deg","176.60","ddeg","44.6336784","meters","0.00","meters","0.00","ddeg","-124.3080789","deg","0.5","deg","-2.0","degC","10.91","degC","-999.99","degC","-999.99","degC","-999.99"
"64e49dce95482d0019b1e2c7","2023-08-22T11:36:46.624Z","ASNAP","admin","",,,,,,,,,,,,,,,,,,,,,,"PilotCam",,"BrowCam",,"UserSelect",,"SciCam",,"/PilotCam.20230822_113646624.jpg",,"/BrowCam.20230822_113646624.jpg",,"/UserSelect.20230822_113646624.jpg",,"/SciCam.20230822_113646624.jpg","meters","0.00","meters","0.45","deg","177.26","ddeg","44.6336784","meters","0.00","meters","0.00","ddeg","-124.3080789","deg","-0.0","deg","-2.1","degC","10.94","degC","-999.99","degC","-999.99","degC","-999.99"
"64e49dec95482d0019b1e2cb","2023-08-22T11:37:16.668Z","ASNAP","admin","",,,,,,,,,,,,,,,,,,,,,,"PilotCam",,"BrowCam",,"UserSelect",,"SciCam",,"/PilotCam.20230822_113716668.jpg",,"/BrowCam.20230822_113716668.jpg",,"/UserSelect.20230822_113716668.jpg",,"/SciCam.20230822_113716668.jpg","meters","0.00","meters","0.44","deg","177.64","ddeg","44.6336784","meters","0.00","meters","0.00","ddeg","-124.3080789","deg","0.7","deg","-2.2","degC","10.92","degC","-999.99","degC","-999.99","degC","-999.99"
"64e49e0a95482d0019b1e2cf","2023-08-22T11:37:46.709Z","ASNAP","admin","",,,,,,,,,,,,,,,,,,,,,,"PilotCam",,"BrowCam",,"UserSelect",,"SciCam",,"/PilotCam.20230822_113746709.jpg",,"/BrowCam.20230822_113746709.jpg",,"/UserSelect.20230822_113746709.jpg",,"/SciCam.20230822_113746709.jpg","meters","0.00","meters","0.46","deg","143.88","ddeg","44.6336784","meters","0.00","meters","0.00","ddeg","-124.3080789","deg","0.2","deg","-2.0","degC","10.95","degC","-999.99","degC","-999.99","degC","-999.99"
"64e49e2895482d0019b1e2d3","2023-08-22T11:38:16.726Z","ASNAP","admin","",,,,,,,,,,,,,,,,,,,,,,"PilotCam",,"BrowCam",,"UserSelect",,"SciCam",,"/PilotCam.20230822_113816726.jpg",,"/BrowCam.20230822_113816726.jpg",,"/UserSelect.20230822_113816726.jpg",,"/SciCam.20230822_113816726.jpg","meters","0.00","meters","0.47","deg","70.49","ddeg","44.6336784","meters","0.00","meters","0.00","ddeg","-124.3080789","deg","-0.6","deg","-0.9","degC","10.94","degC","-999.99","degC","-999.99","degC","-999.99"
"64e49e4695482d0019b1e2d7","2023-08-22T11:38:46.744Z","ASNAP","admin","",,,,,,,,,,,,,,,,,,,,,,"PilotCam",,"BrowCam",,"UserSelect",,"SciCam",,"/PilotCam.20230822_113846744.jpg",,"/BrowCam.20230822_113846744.jpg",,"/UserSelect.20230822_113846744.jpg",,"/SciCam.20230822_113846744.jpg","meters","0.00","meters","0.46","deg","53.22","ddeg","44.6336784","meters","0.00","meters","0.00","ddeg","-124.3080789","deg","-0.8","deg","-1.2","degC","10.94","degC","-999.99","degC","-999.99","degC","-999.99"
"64e49e6495482d0019b1e2db","2023-08-22T11:39:16.788Z","ASNAP","admin","",,,,,,,,,,,,,,,,,,,,,,"PilotCam",,"BrowCam",,"UserSelect",,"SciCam",,"/PilotCam.20230822_113916788.jpg",,"/BrowCam.20230822_113916788.jpg",,"/UserSelect.20230822_113916788.jpg",,"/SciCam.20230822_113916788.jpg","meters","0.00","meters","0.47","deg","51.73","ddeg","44.6336784","meters","0.00","meters","0.00","ddeg","-124.3080789","deg","-1.2","deg","-1.1","degC","10.97","degC","-999.99","degC","-999.99","degC","-999.99"
"64e49e7995482d0019b1e2df","2023-08-22T11:39:37.722Z","ROV Actions","guest","benthic box","Latching to",,,,,,,,,,,,,,,,,,,,,"PilotCam",,"BrowCam",,"UserSelect",,"SciCam",,"/PilotCam.20230822_113937722.jpg",,"/BrowCam.20230822_113937722.jpg",,"/UserSelect.20230822_113937722.jpg",,"/SciCam.20230822_113937722.jpg","meters","0.00","meters","0.50","deg","51.21","ddeg","44.6336784","meters","0.00","meters","0.00","ddeg","-124.3080789","deg","-2.1","deg","-1.1","degC","11.00","degC","-999.99","degC","-999.99","degC","-999.99"
"64e49e8295482d0019b1e2e3","2023-08-22T11:39:46.833Z","ASNAP","admin","",,,,,,,,,,,,,,,,,,,,,,"PilotCam",,"BrowCam",,"UserSelect",,"SciCam",,"/PilotCam.20230822_113946833.jpg",,"/BrowCam.20230822_113946833.jpg",,"/UserSelect.20230822_113946833.jpg",,"/SciCam.20230822_113946833.jpg","meters","0.00","meters","0.47","deg","51.88","ddeg","44.6336784","meters","0.00","meters","0.00","ddeg","-124.3080789","deg","-1.3","deg","-1.0","degC","10.98","degC","-999.99","degC","-999.99","degC","-999.99"
"64e49ea095482d0019b1e2e7","2023-08-22T11:40:16.878Z","ASNAP","admin","",,,,,,,,,,,,,,,,,,,,,,"PilotCam",,"BrowCam",,"UserSelect",,"SciCam",,"/PilotCam.20230822_114016878.jpg",,"/BrowCam.20230822_114016878.jpg",,"/UserSelect.20230822_114016878.jpg",,"/SciCam.20230822_114016878.jpg","meters","0.00","meters","0.48","deg","51.17","ddeg","44.6336784","meters","0.00","meters","0.00","ddeg","-124.3080789","deg","-1.1","deg","-1.4","degC","10.97","degC","-999.99","degC","-999.99","degC","-999.99"
"64e49ebe95482d0019b1e2eb","2023-08-22T11:40:46.944Z","ASNAP","admin","",,,,,,,,,,,,,,,,,,,,,,"PilotCam",,"BrowCam",,"UserSelect",,"SciCam",,"/PilotCam.20230822_114046944.jpg",,"/BrowCam.20230822_114046944.jpg",,"/UserSelect.20230822_114046944.jpg",,"/SciCam.20230822_114046944.jpg","meters","0.00","meters","0.46","deg","51.81","ddeg","44.6336784","meters","0.00","meters","0.00","ddeg","-124.3080789","deg","-1.4","deg","0.2","degC","10.98","degC","-999.99","degC","-999.99","degC","-999.99"
"64e49ecf95482d0019b1e2f3","2023-08-22T11:41:03.301Z","NAV","guest","",,,,"Ship moving",,,,,,,,,,,,,,,,,,"PilotCam",,"BrowCam",,"UserSelect",,"SciCam",,"/PilotCam.20230822_114103301.jpg",,"/BrowCam.20230822_114103301.jpg",,"/UserSelect.20230822_114103301.jpg",,"/SciCam.20230822_114103301.jpg","meters","0.00","meters","0.47","deg","51.58","ddeg","44.6336784","meters","0.00","meters","0.00","ddeg","-124.3080789","deg","-1.5","deg","-0.6","degC","10.97","degC","-999.99","degC","-999.99","degC","-999.99"
"64e49ed595482d0019b1e2f7","2023-08-22T11:41:09.545Z","WATCH_CHANGE","guest","Took over at 10:49 UTC",,,,,"Joanne",,,,,,,,,,,,,,,,,"PilotCam",,"BrowCam",,"UserSelect",,"SciCam",,"/PilotCam.20230822_114109545.jpg",,"/BrowCam.20230822_114109545.jpg",,"/UserSelect.20230822_114109545.jpg",,"/SciCam.20230822_114109545.jpg","meters","0.00","meters","0.42","deg","51.78","ddeg","44.6336784","meters","0.00","meters","0.00","ddeg","-124.3080789","deg","0.0","deg","-0.8","degC","10.99","degC","-999.99","degC","-999.99","degC","-999.99"
"64e49edc95482d0019b1e2fb","2023-08-22T11:41:16.985Z","ASNAP","admin","",,,,,,,,,,,,,,,,,,,,,,"PilotCam",,"BrowCam",,"UserSelect",,"SciCam",,"/PilotCam.20230822_114116985.jpg",,"/BrowCam.20230822_114116985.jpg",,"/UserSelect.20230822_114116985.jpg",,"/SciCam.20230822_114116985.jpg","meters","0.00","meters","0.47","deg","51.36","ddeg","44.6336784","meters","0.00","meters","0.00","ddeg","-124.3080789","deg","-0.9","deg","-1.3","degC","11.00","degC","-999.99","degC","-999.99","degC","-999.99"
"64e49efb95482d0019b1e2ff","2023-08-22T11:41:47.028Z","ASNAP","admin","",,,,,,,,,,,,,,,,,,,,,,"PilotCam",,"BrowCam",,"UserSelect",,"SciCam",,"/PilotCam.20230822_114147028.jpg",,"/BrowCam.20230822_114147028.jpg",,"/UserSelect.20230822_114147028.jpg",,"/SciCam.20230822_114147028.jpg","meters","0.00","meters","0.46","deg","52.43","ddeg","44.6336784","meters","0.00","meters","0.00","ddeg","-124.3080789","deg","-1.2","deg","-1.0","degC","10.96","degC","-999.99","degC","-999.99","degC","-999.99"
"64e49f1995482d0019b1e303","2023-08-22T11:42:17.048Z","ASNAP","admin","",,,,,,,,,,,,,,,,,,,,,,"PilotCam",,"BrowCam",,"UserSelect",,"SciCam",,"/PilotCam.20230822_114217048.jpg",,"/BrowCam.20230822_114217048.jpg",,"/UserSelect.20230822_114217048.jpg",,"/SciCam.20230822_114217048.jpg","meters","0.00","meters","0.47","deg","51.01","ddeg","44.6336784","meters","0.00","meters","0.00","ddeg","-124.3080789","deg","-1.3","deg","-0.9","degC","10.94","degC","-999.99","degC","-999.99","degC","-999.99"
"64e49f3395482d0019b1e307","2023-08-22T11:42:43.878Z","NAV","guest","Target reached",,,,"Navigator target",,,,,,,,,,,,,,,,,,"PilotCam",,"BrowCam",,"UserSelect",,"SciCam",,"/PilotCam.20230822_114243878.jpg",,"/BrowCam.20230822_114243878.jpg",,"/UserSelect.20230822_114243878.jpg",,"/SciCam.20230822_114243878.jpg","meters","0.00","meters","0.49","deg","51.88","ddeg","44.6336784","meters","0.00","meters","0.00","ddeg","-124.3080789","deg","-1.6","deg","-0.9","degC","10.96","degC","-999.99","degC","-999.99","degC","-999.99"
"64e49f3795482d0019b1e30b","2023-08-22T11:42:47.088Z","ASNAP","admin","",,,,,,,,,,,,,,,,,,,,,,"PilotCam",,"BrowCam",,"UserSelect",,"SciCam",,"/PilotCam.20230822_114247088.jpg",,"/BrowCam.20230822_114247088.jpg",,"/UserSelect.20230822_114247088.jpg",,"/SciCam.20230822_114247088.jpg","meters","0.00","meters","0.46","deg","51.49","ddeg","44.6336784","meters","0.00","meters","0.00","ddeg","-124.3080789","deg","-0.9","deg","-0.8","degC","10.95","degC","-999.99","degC","-999.99","degC","-999.99"
"64e49f3f95482d0019b1e30f","2023-08-22T11:42:55.585Z","VEHICLE","guest","Launching",,,"Other",,,,,,,,,,,,,,,,,,,"PilotCam",,"BrowCam",,"UserSelect",,"SciCam",,"/PilotCam.20230822_114255585.jpg",,"/BrowCam.20230822_114255585.jpg",,"/UserSelect.20230822_114255585.jpg",,"/SciCam.20230822_114255585.jpg","meters","0.00","meters","0.46","deg","51.74","ddeg","44.6336784","meters","0.00","meters","0.00","ddeg","-124.3080789","deg","-0.7","deg","-1.0","degC","10.94","degC","-999.99","degC","-999.99","degC","-999.99"
"64e49f5595482d0019b1e313","2023-08-22T11:43:17.140Z","ASNAP","admin","",,,,,,,,,,,,,,,,,,,,,,"PilotCam",,"BrowCam",,"UserSelect",,"SciCam",,"/PilotCam.20230822_114317140.jpg",,"/BrowCam.20230822_114317140.jpg",,"/UserSelect.20230822_114317140.jpg",,"/SciCam.20230822_114317140.jpg","meters","0.00","meters","0.46","deg","53.31","ddeg","44.6336784","meters","0.00","meters","0.00","ddeg","-124.3080789","deg","0.0","deg","-0.1","degC","10.98","degC","-999.99","degC","-999.99","degC","-999.99"
"64e49f7395482d0019b1e317","2023-08-22T11:43:47.209Z","ASNAP","admin","",,,,,,,,,,,,,,,,,,,,,,"PilotCam",,"BrowCam",,"UserSelect",,"SciCam",,"/PilotCam.20230822_114347209.jpg",,"/BrowCam.20230822_114347209.jpg",,"/UserSelect.20230822_114347209.jpg",,"/SciCam.20230822_114347209.jpg","meters","0.00","meters","0.45","deg","161.31","ddeg","44.6336784","meters","0.00","meters","0.00","ddeg","-124.3080789","deg","-0.2","deg","-1.1","degC","10.98","degC","-999.99","degC","-999.99","degC","-999.99"
"64e49f9195482d0019b1e31b","2023-08-22T11:44:17.274Z","ASNAP","admin","",,,,,,,,,,,,,,,,,,,,,,"PilotCam",,"BrowCam",,"UserSelect",,"SciCam",,"/PilotCam.20230822_114417274.jpg",,"/BrowCam.20230822_114417274.jpg",,"/UserSelect.20230822_114417274.jpg",,"/SciCam.20230822_114417274.jpg","meters","0.00","meters","0.46","deg","162.25","ddeg","44.6336784","meters","0.00","meters","0.00","ddeg","-124.3080789","deg","-0.6","deg","-0.8","degC","10.94","degC","-999.99","degC","-999.99","degC","-999.99"
"64e49faf95482d0019b1e31f","2023-08-22T11:44:47.294Z","ASNAP","admin","",,,,,,,,,,,,,,,,,,,,,,"PilotCam",,"BrowCam",,"UserSelect",,"SciCam",,"/PilotCam.20230822_114447294.jpg",,"/BrowCam.20230822_114447294.jpg",,"/UserSelect.20230822_114447294.jpg",,"/SciCam.20230822_114447294.jpg","meters","0.00","meters","0.45","deg","163.00","ddeg","44.6336784","meters","0.00","meters","0.00","ddeg","-124.3080789","deg","-1.9","deg","0.2","degC","10.99","degC","-999.99","degC","-999.99","degC","-999.99"
"64e49fcd95482d0019b1e323","2023-08-22T11:45:17.345Z","ASNAP","admin","",,,,,,,"meters","-0.6","meters","12.467","deg","165.171","ddeg","44.63707214","ddeg","-124.30580426",,,,,,"PilotCam",,"BrowCam",,"UserSelect",,"SciCam",,"/PilotCam.20230822_114517345.jpg",,"/BrowCam.20230822_114517345.jpg",,"/UserSelect.20230822_114517345.jpg",,"/SciCam.20230822_114517345.jpg","meters","0.00","meters","0.46","deg","164.53","ddeg","44.6336784","meters","0.00","meters","0.00","ddeg","-124.3080789","deg","-1.2","deg","-1.5","degC","10.97","degC","-999.99","degC","-999.99","degC","-999.99"
"64e49fd995482d0019b1e327","2023-08-22T11:45:29.778Z","VEHICLE","guest","",,,"Jason in water",,,,"meters","-0.6","meters","12.467","deg","182.314","ddeg","44.63707214","ddeg","-124.30580426",,,,,,"PilotCam",,"BrowCam",,"UserSelect",,"SciCam",,"/PilotCam.20230822_114529778.jpg",,"/BrowCam.20230822_114529778.jpg",,"/UserSelect.20230822_114529778.jpg",,"/SciCam.20230822_114529778.jpg","meters","0.00","meters","0.85","deg","182.33","ddeg","44.6336784","meters","0.00","meters","0.00","ddeg","-124.3080789","deg","0.9","deg","1.0","degC","10.91","degC","-999.99","degC","-999.99","degC","-999.99"
"64e49feb95482d0019b1e32b","2023-08-22T11:45:47.395Z","ASNAP","admin","",,,,,,,"meters","-0.5","meters","12.467","deg","220.597","ddeg","44.63707214","ddeg","-124.30580426",,,,,,"PilotCam",,"BrowCam",,"UserSelect",,"SciCam",,"/PilotCam.20230822_114547395.jpg",,"/BrowCam.20230822_114547395.jpg",,"/UserSelect.20230822_114547395.jpg",,"/SciCam.20230822_114547395.jpg","meters","0.00","meters","4.42","deg","218.93","ddeg","44.6336784","meters","0.00","meters","0.00","ddeg","-124.3080789","deg","-2.8","deg","-0.1","degC","10.17","degC","-999.99","degC","-999.99","degC","-999.99"
"64e4a00995482d0019b1e32f","2023-08-22T11:46:17.441Z","ASNAP","admin","",,,,,,,"meters","-0.5","meters","12.467","deg","236.910","ddeg","44.63707214","ddeg","-124.30580426",,,,,,"PilotCam",,"BrowCam",,"UserSelect",,"SciCam",,"/PilotCam.20230822_114617441.jpg",,"/BrowCam.20230822_114617441.jpg",,"/UserSelect.20230822_114617441.jpg",,"/SciCam.20230822_114617441.jpg","meters","0.00","meters","11.11","deg","236.04","ddeg","44.6336784","meters","0.00","meters","0.00","ddeg","-124.3080789","deg","-1.2","deg","0.0","degC","10.14","degC","-999.99","degC","-999.99","degC","-999.99"
"64e4a02795482d0019b1e333","2023-08-22T11:46:47.462Z","ASNAP","admin","",,,,,,,"meters","-0.4","meters","19.071","deg","236.689","ddeg","44.63705524","ddeg","-124.30580504",,,,,,"PilotCam",,"BrowCam",,"UserSelect",,"SciCam",,"/PilotCam.20230822_114647462.jpg",,"/BrowCam.20230822_114647462.jpg",,"/UserSelect.20230822_114647462.jpg",,"/SciCam.20230822_114647462.jpg","meters","0.00","meters","18.62","deg","235.71","ddeg","44.6336784","meters","0.00","meters","0.00","ddeg","-124.3080789","deg","-1.7","deg","-0.3","degC","9.73","degC","-999.99","degC","-999.99","degC","-999.99"
"64e4a04595482d0019b1e337","2023-08-22T11:47:17.506Z","ASNAP","admin","",,,,,,,"meters","-0.3","meters","22.940","deg","237.251","ddeg","44.63705593","ddeg","-124.30580467",,,,,,"PilotCam",,"BrowCam",,"UserSelect",,"SciCam",,"/PilotCam.20230822_114717506.jpg",,"/BrowCam.20230822_114717506.jpg",,"/UserSelect.20230822_114717506.jpg",,"/SciCam.20230822_114717506.jpg","meters","0.00","meters","23.08","deg","236.51","ddeg","44.6336784","meters","0.00","meters","0.00","ddeg","-124.3080789","deg","0.2","deg","0.3","degC","9.78","degC","-999.99","degC","-999.99","degC","-999.99"
"64e4a06395482d0019b1e33b","2023-08-22T11:47:47.526Z","ASNAP","admin","",,,,,,,"meters","-0.2","meters","24.421","deg","236.971","ddeg","44.63706341","ddeg","-124.30576563",,,,,,"PilotCam",,"BrowCam",,"UserSelect",,"SciCam",,"/PilotCam.20230822_114747526.jpg",,"/BrowCam.20230822_114747526.jpg",,"/UserSelect.20230822_114747526.jpg",,"/SciCam.20230822_114747526.jpg","meters","0.00","meters","24.38","deg","236.16","ddeg","44.6336784","meters","0.00","meters","0.00","ddeg","-124.3080789","deg","0.0","deg","-0.5","degC","9.68","degC","-999.99","degC","-999.99","degC","-999.99"
"64e4a07c95482d0019b1e33f","2023-08-22T11:48:12.262Z","ROV Actions","guest","orange","First Football on",,,,,,"meters","-0.2","meters","24.615","deg","235.570","ddeg","44.63706541","ddeg","-124.30573837",,,,,,"PilotCam",,"BrowCam",,"UserSelect",,"SciCam",,"/PilotCam.20230822_114812262.jpg",,"/BrowCam.20230822_114812262.jpg",,"/UserSelect.20230822_114812262.jpg",,"/SciCam.20230822_114812262.jpg","meters","0.00","meters","24.56","deg","234.71","ddeg","44.6336784","meters","0.00","meters","0.00","ddeg","-124.3080789","deg","-0.5","deg","-0.0","degC","9.57","degC","-999.99","degC","-999.99","degC","-999.99"
"64e4a08195482d0019b1e343","2023-08-22T11:48:17.561Z","ASNAP","admin","",,,,,,,"meters","-0.2","meters","24.901","deg","235.652","ddeg","44.63706696","ddeg","-124.30573803",,,,,,"PilotCam",,"BrowCam",,"UserSelect",,"SciCam",,"/PilotCam.20230822_114817561.jpg",,"/BrowCam.20230822_114817561.jpg",,"/UserSelect.20230822_114817561.jpg",,"/SciCam.20230822_114817561.jpg","meters","0.00","meters","25.07","deg","234.56","ddeg","44.6336784","meters","0.00","meters","0.00","ddeg","-124.3080789","deg","-0.9","deg","2.0","degC","9.85","degC","-999.99","degC","-999.99","degC","-999.99"
"64e4a09f95482d0019b1e347","2023-08-22T11:48:47.602Z","ASNAP","admin","",,,,,,,"meters","-0.1","meters","27.497","deg","236.610","ddeg","44.63707820","ddeg","-124.30574771",,,,,,"PilotCam",,"BrowCam",,"UserSelect",,"SciCam",,"/PilotCam.20230822_114847602.jpg",,"/BrowCam.20230822_114847602.jpg",,"/UserSelect.20230822_114847602.jpg",,"/SciCam.20230822_114847602.jpg","meters","0.00","meters","27.58","deg","235.73","ddeg","44.6336784","meters","0.00","meters","0.00","ddeg","-124.3080789","deg","-0.6","deg","0.6","degC","9.73","degC","-999.99","degC","-999.99","degC","-999.99"
"64e4a0bd95482d0019b1e34b","2023-08-22T11:49:17.650Z","ASNAP","admin","",,,,,,,"meters","-0.0","meters","28.092","deg","237.959","ddeg","44.63707678","ddeg","-124.30573946",,,,,,"PilotCam",,"BrowCam",,"UserSelect",,"SciCam",,"/PilotCam.20230822_114917650.jpg",,"/BrowCam.20230822_114917650.jpg",,"/UserSelect.20230822_114917650.jpg",,"/SciCam.20230822_114917650.jpg","meters","0.00","meters","28.18","deg","237.07","ddeg","44.6336784","meters","0.00","meters","0.00","ddeg","-124.3080789","deg","-1.4","deg","-0.5","degC","9.76","degC","-999.99","degC","-999.99","degC","-999.99"
"64e4a0db95482d0019b1e34f","2023-08-22T11:49:47.687Z","ASNAP","admin","",,,,,,,"meters","0.0","meters","30.258","deg","236.229","ddeg","44.63707037","ddeg","-124.30573713",,,,,,"PilotCam",,"BrowCam",,"UserSelect",,"SciCam",,"/PilotCam.20230822_114947687.jpg",,"/BrowCam.20230822_114947687.jpg",,"/UserSelect.20230822_114947687.jpg",,"/SciCam.20230822_114947687.jpg","meters","0.00","meters","30.26","deg","235.35","ddeg","44.6336784","meters","0.00","meters","0.00","ddeg","-124.3080789","deg","-1.2","deg","-0.4","degC","9.62","degC","-999.99","degC","-999.99","degC","-999.99"
"64e4a0f995482d0019b1e353","2023-08-22T11:50:17.714Z","ASNAP","admin","",,,,,,,"meters","0.1","meters","32.975","deg","236.579","ddeg","44.63707059","ddeg","-124.30574269",,,,,,"PilotCam",,"BrowCam",,"UserSelect",,"SciCam",,"/PilotCam.20230822_115017714.jpg",,"/BrowCam.20230822_115017714.jpg",,"/UserSelect.20230822_115017714.jpg",,"/SciCam.20230822_115017714.jpg","meters","0.00","meters","32.75","deg","235.73","ddeg","44.6336784","meters","0.00","meters","0.00","ddeg","-124.3080789","deg","-1.1","deg","-1.1","degC","9.63","degC","-999.99","degC","-999.99","degC","-999.99"
"64e4a11795482d0019b1e357","2023-08-22T11:50:47.758Z","ASNAP","admin","",,,,,,,"meters","0.2","meters","35.104","deg","236.980","ddeg","44.63708004","ddeg","-124.30574101",,,,,,"PilotCam",,"BrowCam",,"UserSelect",,"SciCam",,"/PilotCam.20230822_115047758.jpg",,"/BrowCam.20230822_115047758.jpg",,"/UserSelect.20230822_115047758.jpg",,"/SciCam.20230822_115047758.jpg","meters","0.00","meters","35.08","deg","236.16","ddeg","44.6336784","meters","0.00","meters","0.00","ddeg","-124.3080789","deg","-1.4","deg","-1.2","degC","9.02","degC","-999.99","degC","-999.99","degC","-999.99"
"64e4a13595482d0019b1e35b","2023-08-22T11:51:17.775Z","ASNAP","admin","",,,,,,,"meters","0.2","meters","37.684","deg","236.210","ddeg","44.63708458","ddeg","-124.30574508",,,,,,"PilotCam",,"BrowCam",,"UserSelect",,"SciCam",,"/PilotCam.20230822_115117775.jpg",,"/BrowCam.20230822_115117775.jpg",,"/UserSelect.20230822_115117775.jpg",,"/SciCam.20230822_115117775.jpg","meters","0.00","meters","37.85","deg","235.36","ddeg","44.6336784","meters","0.00","meters","0.00","ddeg","-124.3080789","deg","-1.8","deg","-1.7","degC","8.94","degC","-999.99","degC","-999.99","degC","-999.99"
"64e4a15395482d0019b1e35f","2023-08-22T11:51:47.821Z","ASNAP","admin","",,,,,,,"meters","0.3","meters","40.283","deg","237.180","ddeg","44.63707525","ddeg","-124.30576052",,,,,,"PilotCam",,"BrowCam",,"UserSelect",,"SciCam",,"/PilotCam.20230822_115147821.jpg",,"/BrowCam.20230822_115147821.jpg",,"/UserSelect.20230822_115147821.jpg",,"/SciCam.20230822_115147821.jpg","meters","0.00","meters","40.35","deg","236.37","ddeg","44.6336784","meters","0.00","meters","0.00","ddeg","-124.3080789","deg","-1.6","deg","-1.2","degC","8.50","degC","-999.99","degC","-999.99","degC","-999.99"
"64e4a17195482d0019b1e363","2023-08-22T11:52:17.865Z","ASNAP","admin","",,,,,,,"meters","0.3","meters","42.399","deg","236.790","ddeg","44.63706993","ddeg","-124.30576989",,,,,,"PilotCam",,"BrowCam",,"UserSelect",,"SciCam",,"/PilotCam.20230822_115217865.jpg",,"/BrowCam.20230822_115217865.jpg",,"/UserSelect.20230822_115217865.jpg",,"/SciCam.20230822_115217865.jpg","meters","0.00","meters","42.51","deg","235.95","ddeg","44.6336784","meters","0.00","meters","0.00","ddeg","-124.3080789","deg","-1.3","deg","-1.0","degC","8.18","degC","-999.99","degC","-999.99","degC","-999.99"
"64e4a18f95482d0019b1e367","2023-08-22T11:52:47.910Z","ASNAP","admin","",,,,,,,"meters","0.4","meters","44.769","deg","236.599","ddeg","44.63707316","ddeg","-124.30576028",,,,,,"PilotCam",,"BrowCam",,"UserSelect",,"SciCam",,"/PilotCam.20230822_115247910.jpg",,"/BrowCam.20230822_115247910.jpg",,"/UserSelect.20230822_115247910.jpg",,"/SciCam.20230822_115247910.jpg","meters","0.00","meters","44.65","deg","235.89","ddeg","44.6336784","meters","0.00","meters","0.00","ddeg","-124.3080789","deg","-1.5","deg","-1.0","degC","8.37","degC","-999.99","degC","-999.99","degC","-999.99"
"64e4a1aa95482d0019b1e36b","2023-08-22T11:53:14.746Z","ROV Actions","guest","n/a","Last Football on",,,,,,"meters","0.4","meters","45.576","deg","236.550","ddeg","44.63707691","ddeg","-124.30576718",,,,,,"PilotCam",,"BrowCam",,"UserSelect",,"SciCam",,"/PilotCam.20230822_115314746.jpg",,"/BrowCam.20230822_115314746.jpg",,"/UserSelect.20230822_115314746.jpg",,"/SciCam.20230822_115314746.jpg","meters","0.00","meters","45.62","deg","235.81","ddeg","44.6336784","meters","0.00","meters","0.00","ddeg","-124.3080789","deg","-2.8","deg","-0.1","degC","8.27","degC","-999.99","degC","-999.99","degC","-999.99"
"64e4a1ad95482d0019b1e36f","2023-08-22T11:53:17.944Z","ASNAP","admin","",,,,,,,"meters","0.4","meters","45.572","deg","236.671","ddeg","44.63707752","ddeg","-124.30577015",,,,,,"PilotCam",,"BrowCam",,"UserSelect",,"SciCam",,"/PilotCam.20230822_115317944.jpg",,"/BrowCam.20230822_115317944.jpg",,"/UserSelect.20230822_115317944.jpg",,"/SciCam.20230822_115317944.jpg","meters","0.00","meters","45.74","deg","235.82","ddeg","44.6336784","meters","0.00","meters","0.00","ddeg","-124.3080789","deg","-2.5","deg","-0.4","degC","8.19","degC","-999.99","degC","-999.99","degC","-999.99"
"64e4a1cb95482d0019b1e373","2023-08-22T11:53:47.965Z","ASNAP","admin","",,,,,,,"meters","0.5","meters","51.357","deg","235.730","ddeg","44.63708324","ddeg","-124.30580431",,,,,,"PilotCam",,"BrowCam",,"UserSelect",,"SciCam",,"/PilotCam.20230822_115347965.jpg",,"/BrowCam.20230822_115347965.jpg",,"/UserSelect.20230822_115347965.jpg",,"/SciCam.20230822_115347965.jpg","meters","0.00","meters","51.27","deg","235.05","ddeg","44.6336784","meters","0.00","meters","0.00","ddeg","-124.3080789","deg","-1.6","deg","-1.6","degC","8.27","degC","-999.99","degC","-999.99","degC","-999.99"
"64e4a1e995482d0019b1e377","2023-08-22T11:54:17.992Z","ASNAP","admin","",,,,,,,"meters","0.5","meters","58.146","deg","236.950","ddeg","44.63708125","ddeg","-124.30580163",,,,,,"PilotCam",,"BrowCam",,"UserSelect",,"SciCam",,"/PilotCam.20230822_115417992.jpg",,"/BrowCam.20230822_115417992.jpg",,"/UserSelect.20230822_115417992.jpg",,"/SciCam.20230822_115417992.jpg","meters","0.00","meters","58.12","deg","236.25","ddeg","44.6336784","meters","0.00","meters","0.00","ddeg","-124.3080789","deg","-1.7","deg","-1.2","degC","8.10","degC","-999.99","degC","-999.99","degC","-999.99"
"64e4a20895482d0019b1e37b","2023-08-22T11:54:48.036Z","ASNAP","admin","",,,,,,,"meters","0.6","meters","62.601","deg","236.810","ddeg","44.63707726","ddeg","-124.30578891",,,,,,"PilotCam",,"BrowCam",,"UserSelect",,"SciCam",,"/PilotCam.20230822_115448036.jpg",,"/BrowCam.20230822_115448036.jpg",,"/UserSelect.20230822_115448036.jpg",,"/SciCam.20230822_115448036.jpg","meters","0.00","meters","62.56","deg","236.15","ddeg","-6.9922845","meters","10373440.81","meters","-5736865.57","ddeg","6.4221934","deg","-1.7","deg","-0.9","degC","8.09","degC","-999.99","degC","-999.99","degC","-999.99"
"64e4a22695482d0019b1e37f","2023-08-22T11:55:18.078Z","ASNAP","admin","",,,,,,,"meters","0.6","meters","62.697","deg","236.300","ddeg","44.63707782","ddeg","-124.30579395",,,,,,"PilotCam",,"BrowCam",,"UserSelect",,"SciCam",,"/PilotCam.20230822_115518078.jpg",,"/BrowCam.20230822_115518078.jpg",,"/UserSelect.20230822_115518078.jpg",,"/SciCam.20230822_115518078.jpg","meters","0.00","meters","62.46","deg","235.64","ddeg","-6.9922833","meters","10373440.67","meters","-5736865.43","ddeg","6.4221916","deg","-1.5","deg","-0.9","degC","7.71","degC","-999.99","degC","-999.99","degC","-999.99"
"64e4a24495482d0019b1e383","2023-08-22T11:55:48.126Z","ASNAP","admin","",,,,,,,"meters","0.7","meters","68.290","deg","235.661","ddeg","44.63708245","ddeg","-124.30580430",,,,,,"PilotCam",,"BrowCam",,"UserSelect",,"SciCam",,"/PilotCam.20230822_115548126.jpg",,"/BrowCam.20230822_115548126.jpg",,"/UserSelect.20230822_115548126.jpg",,"/SciCam.20230822_115548126.jpg","meters","0.00","meters","68.92","deg","235.15","ddeg","-6.9922328","meters","10373445.94","meters","-5736859.82","ddeg","6.4222581","deg","-1.9","deg","-0.8","degC","7.71","degC","-999.99","degC","-999.99","degC","-999.99"
"64e4a26295482d0019b1e387","2023-08-22T11:56:18.157Z","ASNAP","admin","",,,,,,,"meters","0.7","meters","71.351","deg","262.700","ddeg","44.63709755","ddeg","-124.30580597",,,,,,"PilotCam",,"BrowCam",,"UserSelect",,"SciCam",,"/PilotCam.20230822_115618157.jpg",,"/BrowCam.20230822_115618157.jpg",,"/UserSelect.20230822_115618157.jpg",,"/SciCam.20230822_115618157.jpg","meters","0.00","meters","71.41","deg","262.40","ddeg","-6.9922009","meters","10373448.23","meters","-5736856.28","ddeg","6.4222869","deg","-2.3","deg","-0.9","degC","7.97","degC","-999.99","degC","-999.99","degC","-999.99"
"64e4a28095482d0019b1e38b","2023-08-22T11:56:48.215Z","ASNAP","admin","",,,,,,,"meters","0.8","meters","71.286","deg","346.694","ddeg","44.63711330","ddeg","-124.30578499",,,,,,"PilotCam",,"BrowCam",,"UserSelect",,"SciCam",,"/PilotCam.20230822_115648215.jpg",,"/BrowCam.20230822_115648215.jpg",,"/UserSelect.20230822_115648215.jpg",,"/SciCam.20230822_115648215.jpg","meters","0.00","meters","71.29","deg","345.46","ddeg","-6.9921711","meters","10373448.48","meters","-5736852.97","ddeg","6.4222901","deg","-2.1","deg","-1.1","degC","7.95","degC","-999.99","degC","-999.99","degC","-999.99"
"64e4a29e95482d0019b1e38f","2023-08-22T11:57:18.237Z","ASNAP","admin","",,,,,,,"meters","0.8","meters","71.266","deg","4.500","ddeg","44.63711328","ddeg","-124.30576764",,,,,,"PilotCam",,"BrowCam",,"UserSelect",,"SciCam",,"/PilotCam.20230822_115718237.jpg",,"/BrowCam.20230822_115718237.jpg",,"/UserSelect.20230822_115718237.jpg",,"/SciCam.20230822_115718237.jpg","meters","0.00","meters","71.31","deg","4.07","ddeg","-6.9921678","meters","10373449.15","meters","-5736852.60","ddeg","6.4222985","deg","-1.8","deg","-0.9","degC","7.72","degC","-999.99","degC","-999.99","degC","-999.99"
"64e4a2bc95482d0019b1e393","2023-08-22T11:57:48.268Z","ASNAP","admin","",,,,,,,"meters","0.9","meters","71.299","deg","4.340","ddeg","44.63710383","ddeg","-124.30576209",,,,,,"PilotCam",,"BrowCam",,"UserSelect",,"SciCam",,"/PilotCam.20230822_115748268.jpg",,"/BrowCam.20230822_115748268.jpg",,"/UserSelect.20230822_115748268.jpg",,"/SciCam.20230822_115748268.jpg","meters","0.00","meters","71.36","deg","3.93","ddeg","-6.9921770","meters","10373449.37","meters","-5736853.62","ddeg","6.4223013","deg","-2.2","deg","-0.9","degC","7.56","degC","-999.99","degC","-999.99","degC","-999.99"
"64e4a2da95482d0019b1e397","2023-08-22T11:58:18.312Z","ASNAP","admin","",,,,,,,"meters","0.9","meters","71.311","deg","4.260","ddeg","44.63709432","ddeg","-124.30575058",,,,,,"PilotCam",,"BrowCam",,"UserSelect",,"SciCam",,"/PilotCam.20230822_115818312.jpg",,"/BrowCam.20230822_115818312.jpg",,"/UserSelect.20230822_115818312.jpg",,"/SciCam.20230822_115818312.jpg","meters","0.00","meters","71.30","deg","3.91","ddeg","-6.9921814","meters","10373449.78","meters","-5736854.11","ddeg","6.4223065","deg","-1.9","deg","-1.0","degC","7.82","degC","-999.99","degC","-999.99","degC","-999.99"
"64e4a2f895482d0019b1e39b","2023-08-22T11:58:48.332Z","ASNAP","admin","",,,,,,,"meters","0.9","meters","71.280","deg","4.260","ddeg","44.63708715","ddeg","-124.30574630",,,,,,"PilotCam",,"BrowCam",,"UserSelect",,"SciCam",,"/PilotCam.20230822_115848332.jpg",,"/BrowCam.20230822_115848332.jpg",,"/UserSelect.20230822_115848332.jpg",,"/SciCam.20230822_115848332.jpg","meters","0.00","meters","71.22","deg","3.95","ddeg","-6.9921897","meters","10373449.85","meters","-5736855.03","ddeg","6.4223073","deg","-1.9","deg","-1.1","degC","7.86","degC","-999.99","degC","-999.99","degC","-999.99"
"64e4a31695482d0019b1e39f","2023-08-22T11:59:18.401Z","ASNAP","admin","",,,,,,,"meters","1.0","meters","71.248","deg","10.744","ddeg","44.63708355","ddeg","-124.30574502",,,,,,"PilotCam",,"BrowCam",,"UserSelect",,"SciCam",,"/PilotCam.20230822_115918401.jpg",,"/BrowCam.20230822_115918401.jpg",,"/UserSelect.20230822_115918401.jpg",,"/SciCam.20230822_115918401.jpg","meters","0.00","meters","71.15","deg","7.94","ddeg","-6.9921899","meters","10373449.93","meters","-5736855.05","ddeg","6.4223083","deg","-1.8","deg","-1.1","degC","7.99","degC","-999.99","degC","-999.99","degC","-999.99"
"64e4a33495482d0019b1e3a3","2023-08-22T11:59:48.474Z","ASNAP","admin","",,,,,,,"meters","1.0","meters","71.313","deg","25.106","ddeg","44.63708269","ddeg","-124.30573772",,,,,,"PilotCam",,"BrowCam",,"UserSelect",,"SciCam",,"/PilotCam.20230822_115948474.jpg",,"/BrowCam.20230822_115948474.jpg",,"/UserSelect.20230822_115948474.jpg",,"/SciCam.20230822_115948474.jpg","meters","0.00","meters","71.45","deg","24.51","ddeg","-6.9921925","meters","10373450.23","meters","-5736855.34","ddeg","6.4223121","deg","-2.1","deg","-1.4","degC","7.78","degC","-999.99","degC","-999.99","degC","-999.99"
"64e4a35295482d0019b1e3a7","2023-08-22T12:00:18.502Z","ASNAP","admin","",,,,,,,"meters","1.0","meters","71.329","deg","19.774","ddeg","44.63709496","ddeg","-124.30573765",,,,,,"PilotCam",,"BrowCam",,"UserSelect",,"SciCam",,"/PilotCam.20230822_120018502.jpg",,"/BrowCam.20230822_120018502.jpg",,"/UserSelect.20230822_120018502.jpg",,"/SciCam.20230822_120018502.jpg","meters","0.00","meters","71.33","deg","14.93","ddeg","-6.9921859","meters","10373450.20","meters","-5736854.61","ddeg","6.4223117","deg","-2.3","deg","-1.6","degC","7.65","degC","-999.99","degC","-999.99","degC","-999.99"
"64e4a37095482d0019b1e3ab","2023-08-22T12:00:48.544Z","ASNAP","admin","",,,,,,,"meters","1.1","meters","71.338","deg","358.301","ddeg","44.63711104","ddeg","-124.30574866",,,,,,"PilotCam",,"BrowCam",,"UserSelect",,"SciCam",,"/PilotCam.20230822_120048544.jpg",,"/BrowCam.20230822_120048544.jpg",,"/UserSelect.20230822_120048544.jpg",,"/SciCam.20230822_120048544.jpg","meters","0.00","meters","71.44","deg","358.07","ddeg","-6.9921810","meters","10373449.70","meters","-5736854.06","ddeg","6.4223054","deg","-1.9","deg","-1.3","degC","7.63","degC","-999.99","degC","-999.99","degC","-999.99"
"64e4a38e95482d0019b1e3af","2023-08-22T12:01:18.563Z","ASNAP","admin","",,,,,,,"meters","1.1","meters","72.014","deg","358.170","ddeg","44.63711059","ddeg","-124.30575744",,,,,,"PilotCam",,"BrowCam",,"UserSelect",,"SciCam",,"/PilotCam.20230822_120118563.jpg",,"/BrowCam.20230822_120118563.jpg",,"/UserSelect.20230822_120118563.jpg",,"/SciCam.20230822_120118563.jpg","meters","0.00","meters","71.86","deg","357.92","ddeg","-6.9921852","meters","10373449.45","meters","-5736854.53","ddeg","6.4223023","deg","-1.8","deg","-1.1","degC","7.93","degC","-999.99","degC","-999.99","degC","-999.99"
"64e4a3ac95482d0019b1e3b6","2023-08-22T12:01:48.582Z","ASNAP","admin","",,,,,,,"meters","1.1","meters","73.778","deg","6.169","ddeg","44.63710197","ddeg","-124.30574881",,,,,,"PilotCam",,"BrowCam",,"UserSelect",,"SciCam",,"/PilotCam.20230822_120148582.jpg",,"/BrowCam.20230822_120148582.jpg",,"/UserSelect.20230822_120148582.jpg",,"/SciCam.20230822_120148582.jpg","meters","0.00","meters","73.85","deg","5.86","ddeg","-6.9922192","meters","10373450.01","meters","-5736858.31","ddeg","6.4223094","deg","-2.2","deg","-1.1","degC","7.84","degC","-999.99","degC","-999.99","degC","-999.99"
"64e4a3ca95482d0019b1e3bb","2023-08-22T12:02:18.622Z","ASNAP","admin","",,,,,,,"meters","1.2","meters","73.659","deg","6.559","ddeg","44.63709524","ddeg","-124.30573636",,,,,,"PilotCam",,"BrowCam",,"UserSelect",,"SciCam",,"/PilotCam.20230822_120218622.jpg",,"/BrowCam.20230822_120218622.jpg",,"/UserSelect.20230822_120218622.jpg",,"/SciCam.20230822_120218622.jpg","meters","0.00","meters","73.66","deg","6.33","ddeg","-6.9922212","meters","10373450.48","meters","-5736858.53","ddeg","6.4223153","deg","-2.0","deg","-1.3","degC","7.48","degC","-999.99","degC","-999.99","degC","-999.99"
"64e4a3e895482d0019b1e3bf","2023-08-22T12:02:48.664Z","ASNAP","admin","",,,,,,,"meters","1.2","meters","73.637","deg","39.920","ddeg","44.63709245","ddeg","-124.30572796",,,,,,"PilotCam",,"BrowCam",,"UserSelect",,"SciCam",,"/PilotCam.20230822_120248664.jpg",,"/BrowCam.20230822_120248664.jpg",,"/UserSelect.20230822_120248664.jpg",,"/SciCam.20230822_120248664.jpg","meters","0.00","meters","73.63","deg","36.85","ddeg","-6.9922258","meters","10373451.39","meters","-5736859.04","ddeg","6.4223267","deg","-2.2","deg","-1.2","degC","7.69","degC","-999.99","degC","-999.99","degC","-999.99"
"64e4a40695482d0019b1e3c3","2023-08-22T12:03:18.708Z","ASNAP","admin","",,,,,,,"meters","1.2","meters","73.684","deg","8.390","ddeg","44.63709983","ddeg","-124.30572092",,,,,,"PilotCam",,"BrowCam",,"UserSelect",,"SciCam",,"/PilotCam.20230822_120318708.jpg",,"/BrowCam.20230822_120318708.jpg",,"/UserSelect.20230822_120318708.jpg",,"/SciCam.20230822_120318708.jpg","meters","0.00","meters","73.68","deg","8.16","ddeg","-6.9922185","meters","10373451.04","meters","-5736858.23","ddeg","6.4223223","deg","-2.0","deg","-1.5","degC","7.55","degC","-999.99","degC","-999.99","degC","-999.99"
"64e4a40d95482d0019b1e3c7","2023-08-22T12:03:25.353Z","NAV","guest","Jason taking control of the vessel",,,,"Ship moving",,,"meters","1.2","meters","73.731","deg","8.210","ddeg","44.63710118","ddeg","-124.30572131",,,,,,"PilotCam",,"BrowCam",,"UserSelect",,"SciCam",,"/PilotCam.20230822_120325353.jpg",,"/BrowCam.20230822_120325353.jpg",,"/UserSelect.20230822_120325353.jpg",,"/SciCam.20230822_120325353.jpg","meters","0.00","meters","73.74","deg","7.97","ddeg","-6.9922165","meters","10373451.13","meters","-5736858.01","ddeg","6.4223235","deg","-2.0","deg","-1.5","degC","7.88","degC","-999.99","degC","-999.99","degC","-999.99"
"64e4a42495482d0019b1e3cb","2023-08-22T12:03:48.729Z","ASNAP","admin","",,,,,,,"meters","1.2","meters","73.636","deg","8.240","ddeg","44.63710256","ddeg","-124.30573092",,,,,,"PilotCam",,"BrowCam",,"UserSelect",,"SciCam",,"/PilotCam.20230822_120348729.jpg",,"/BrowCam.20230822_120348729.jpg",,"/UserSelect.20230822_120348729.jpg",,"/SciCam.20230822_120348729.jpg","meters","0.00","meters","73.67","deg","7.99","ddeg","-6.9922187","meters","10373450.65","meters","-5736858.25","ddeg","6.4223174","deg","-2.1","deg","-1.5","degC","7.63","degC","-999.99","degC","-999.99","degC","-999.99"
