Date/Time (UTC),vehicleRealtimeNavData.latitude (ddeg),vehicleRealtimeNavData.longitude (ddeg),event_value,event_free_text,event_author,event_option.milestone,event_option.actions,event_option.filename,event_option.type,event_option.event_comment,event_option.dummy_plug,event_option.cabled_plug,event_option.location,event_option.dive_#/summary,event_option.highlights,event_option.formation,event_option.sample_description,event_option.new_watchstander,vehicleRealtimeNavData.local_x (meters),vehicleRealtimeNavData.local_y (meters),vehicleRealtimeNavData.roll (deg),vehicleRealtimeNavData.pitch (deg),vehicleRealtimeNavData.heading (deg),vehicleRealtimeNavData.depth (meters),vehicleRealtimeNavData.altitude (meters),vehicleRealtimeFramegrabberData.camera_name_1,vehicleRealtimeFramegrabberData.filename_1,vehicleRealtimeFramegrabberData.camera_name_2,vehicleRealtimeFramegrabberData.filename_2,vehicleRealtimeFramegrabberData.camera_name_3,vehicleRealtimeFramegrabberData.filename_3,vehicleRealtimeFramegrabberData.camera_name_4,vehicleRealtimeFramegrabberData.filename_4,vehicleReNavData.pitch (deg),vehicleReNavData.roll (deg),vehicleTemperatureProbe.probe1_temperature (degC),vehicleTemperatureProbe.probe2_temperature (degC),vehicleTemperatureProbe.probe3_temperature (degC),vehicleTemperatureProbe.probe4_temperature (degC),id
"2024-08-31T23:52:02.327Z","45.9166423","-130.0250068","ASNAP","","admin","","","","","","","","","","","","","","-0.53","-2.71","-1.8","-3.0","183.59","0.98","0.58","SciCam","/SciCam.20240831_235202327.jpg","PilotCam","/PilotCam.20240831_235202327.jpg","BrowCam","/BrowCam.20240831_235202327.jpg","UserSelect","/UserSelect.20240831_235202327.jpg","","","-999.99","17.42","-999.99","-999.99","66d3aca2f9835f001a80638f"
"2024-08-31T23:52:03.913Z","45.9166425","-130.0250067","VEHICLE"," ","guest","Jason off deck","","","","","","","","","","","","","-0.52","-2.69","-0.1","-4.6","183.77","0.99","0.58","SciCam","/SciCam.20240831_235203913.jpg","PilotCam","/PilotCam.20240831_235203913.jpg","BrowCam","/BrowCam.20240831_235203913.jpg","UserSelect","/UserSelect.20240831_235203913.jpg","","","-999.99","17.43","-999.99","-999.99","66d3aca3f9835f001a806393"
"2024-08-31T23:52:17.360Z","45.9166423","-130.0250067","ASNAP","","admin","","","","","","","","","","","","","","-0.52","-2.71","0.4","-2.7","183.80","0.99","0.58","SciCam","/SciCam.20240831_235217360.jpg","PilotCam","/PilotCam.20240831_235217360.jpg","BrowCam","/BrowCam.20240831_235217360.jpg","UserSelect","/UserSelect.20240831_235217360.jpg","","","-999.99","17.43","-999.99","-999.99","66d3acb1f9835f001a806397"
"2024-08-31T23:52:32.395Z","45.9166422","-130.0250067","ASNAP","","admin","","","","","","","","","","","","","","-0.52","-2.72","0.4","-1.5","183.85","0.99","0.58","SciCam","/SciCam.20240831_235232395.jpg","PilotCam","/PilotCam.20240831_235232395.jpg","BrowCam","/BrowCam.20240831_235232395.jpg","UserSelect","/UserSelect.20240831_235232395.jpg","","","-999.99","17.44","-999.99","-999.99","66d3acc0f9835f001a80639b"
"2024-08-31T23:52:47.431Z","45.9166422","-130.0250071","ASNAP","","admin","","","","","","","","","","","","","","-0.55","-2.72","1.0","-0.5","184.89","0.95","0.58","SciCam","/SciCam.20240831_235247431.jpg","PilotCam","/PilotCam.20240831_235247431.jpg","BrowCam","/BrowCam.20240831_235247431.jpg","UserSelect","/UserSelect.20240831_235247431.jpg","","","-999.99","17.44","-999.99","-999.99","66d3accff9835f001a80639f"
"2024-08-31T23:53:02.467Z","45.9166542","-130.0250220","ASNAP","","admin","","","","","","","","","","","","","","-1.71","-1.39","-0.1","-2.0","227.49","0.98","0.58","SciCam","/SciCam.20240831_235302467.jpg","PilotCam","/PilotCam.20240831_235302467.jpg","BrowCam","/BrowCam.20240831_235302467.jpg","UserSelect","/UserSelect.20240831_235302467.jpg","","","-999.99","17.47","-999.99","-999.99","66d3acdef9835f001a8063a3"
"2024-08-31T23:53:17.501Z","45.9166651","-130.0250254","ASNAP","","admin","","","","","","","","","","","","","","-1.97","-0.17","-1.7","-2.3","252.57","0.98","0.58","SciCam","/SciCam.20240831_235317501.jpg","PilotCam","/PilotCam.20240831_235317501.jpg","BrowCam","/BrowCam.20240831_235317501.jpg","UserSelect","/UserSelect.20240831_235317501.jpg","","","-999.99","17.47","-999.99","-999.99","66d3acedf9835f001a8063a7"
"2024-08-31T23:53:32.533Z","45.9166645","-130.0250254","ASNAP","","admin","","","","","","","","","","","","","","-1.97","-0.24","0.0","-0.4","251.62","0.96","0.58","SciCam","/SciCam.20240831_235332533.jpg","PilotCam","/PilotCam.20240831_235332533.jpg","BrowCam","/BrowCam.20240831_235332533.jpg","UserSelect","/UserSelect.20240831_235332533.jpg","","","-999.99","17.46","-999.99","-999.99","66d3acfcf9835f001a8063ab"
"2024-08-31T23:53:47.568Z","45.9166649","-130.0250254","ASNAP","","admin","","","","","","","","","","","","","","-1.97","-0.20","0.1","-1.3","252.33","0.97","0.58","SciCam","/SciCam.20240831_235347568.jpg","PilotCam","/PilotCam.20240831_235347568.jpg","BrowCam","/BrowCam.20240831_235347568.jpg","UserSelect","/UserSelect.20240831_235347568.jpg","","","-999.99","17.45","-999.99","-999.99","66d3ad0bf9835f001a8063af"
"2024-08-31T23:54:02.602Z","45.9166652","-130.0250254","ASNAP","","admin","","","","","","","","","","","","","","-1.97","-0.16","-0.6","-2.0","253.11","0.99","0.58","SciCam","/SciCam.20240831_235402602.jpg","PilotCam","/PilotCam.20240831_235402602.jpg","BrowCam","/BrowCam.20240831_235402602.jpg","UserSelect","/UserSelect.20240831_235402602.jpg","","","-999.99","17.44","-999.99","-999.99","66d3ad1af9835f001a8063b3"
"2024-08-31T23:54:17.636Z","45.9166650","-130.0250254","ASNAP","","admin","","","","","","","","","","","","","","-1.97","-0.19","-1.9","-1.9","252.21","1.00","0.58","SciCam","/SciCam.20240831_235417636.jpg","PilotCam","/PilotCam.20240831_235417636.jpg","BrowCam","/BrowCam.20240831_235417636.jpg","UserSelect","/UserSelect.20240831_235417636.jpg","","","-999.99","17.44","-999.99","-999.99","66d3ad29f9835f001a8063b7"
"2024-08-31T23:54:32.671Z","45.9166620","-130.0250250","ASNAP","","admin","","","","","","","","","","","","","","-1.94","-0.52","0.5","-1.2","245.85","0.95","0.58","SciCam","/SciCam.20240831_235432671.jpg","PilotCam","/PilotCam.20240831_235432671.jpg","BrowCam","/BrowCam.20240831_235432671.jpg","UserSelect","/UserSelect.20240831_235432671.jpg","","","-999.99","17.43","-999.99","-999.99","66d3ad38f9835f001a8063bb"
"2024-08-31T23:54:47.706Z","45.9166494","-130.0250187","ASNAP","","admin","","","","","","","","","","","","","","-1.45","-1.92","0.8","-0.4","213.57","0.98","0.58","SciCam","/SciCam.20240831_235447706.jpg","PilotCam","/PilotCam.20240831_235447706.jpg","BrowCam","/BrowCam.20240831_235447706.jpg","UserSelect","/UserSelect.20240831_235447706.jpg","","","-999.99","17.42","-999.99","-999.99","66d3ad47f9835f001a8063bf"
"2024-08-31T23:55:02.738Z","45.9166420","-130.0250070","ASNAP","","admin","","","","","","","","","","","","","","-0.54","-2.74","0.9","0.2","184.45","0.95","0.58","SciCam","/SciCam.20240831_235502738.jpg","PilotCam","/PilotCam.20240831_235502738.jpg","BrowCam","/BrowCam.20240831_235502738.jpg","UserSelect","/UserSelect.20240831_235502738.jpg","","","-999.99","17.42","-999.99","-999.99","66d3ad56f9835f001a8063c3"
"2024-08-31T23:55:17.772Z","45.9166421","-130.0250068","ASNAP","","admin","","","","","","","","","","","","","","-0.53","-2.73","0.4","-1.2","184.09","0.92","0.58","SciCam","/SciCam.20240831_235517772.jpg","PilotCam","/PilotCam.20240831_235517772.jpg","BrowCam","/BrowCam.20240831_235517772.jpg","UserSelect","/UserSelect.20240831_235517772.jpg","","","-999.99","17.40","-999.99","-999.99","66d3ad65f9835f001a8063c7"
"2024-08-31T23:55:32.806Z","45.9166423","-130.0250071","ASNAP","","admin","","","","","","","","","","","","","","-0.55","-2.71","-0.7","-2.0","184.41","0.97","0.58","SciCam","/SciCam.20240831_235532806.jpg","PilotCam","/PilotCam.20240831_235532806.jpg","BrowCam","/BrowCam.20240831_235532806.jpg","UserSelect","/UserSelect.20240831_235532806.jpg","","","-999.99","17.41","-999.99","-999.99","66d3ad74f9835f001a8063cb"
"2024-08-31T23:55:47.840Z","45.9166421","-130.0250067","ASNAP","","admin","","","","","","","","","","","","","","-0.52","-2.73","-0.3","-2.0","183.60","0.97","0.58","SciCam","/SciCam.20240831_235547840.jpg","PilotCam","/PilotCam.20240831_235547840.jpg","BrowCam","/BrowCam.20240831_235547840.jpg","UserSelect","/UserSelect.20240831_235547840.jpg","","","-999.99","17.40","-999.99","-999.99","66d3ad83f9835f001a8063cf"
"2024-08-31T23:56:02.870Z","45.9166417","-130.0250057","ASNAP","","admin","","","","","","","","","","","","","","-0.44","-2.77","-1.0","-0.8","181.05","1.01","0.58","SciCam","/SciCam.20240831_235602870.jpg","PilotCam","/PilotCam.20240831_235602870.jpg","BrowCam","/BrowCam.20240831_235602870.jpg","UserSelect","/UserSelect.20240831_235602870.jpg","","","-999.99","17.38","-999.99","-999.99","66d3ad92f9835f001a8063d3"
"2024-08-31T23:56:09.873Z","45.9166417","-130.0250057","ROV Actions","Undervator with Chadwick CTD","guest","","Latching to","","","","","","","","","","","","-0.44","-2.78","0.0","-0.8","181.17","0.98","0.58","SciCam","/SciCam.20240831_235609873.jpg","PilotCam","/PilotCam.20240831_235609873.jpg","BrowCam","/BrowCam.20240831_235609873.jpg","UserSelect","/UserSelect.20240831_235609873.jpg","","","-999.99","17.39","-999.99","-999.99","66d3ad99f9835f001a8063db"
"2024-08-31T23:56:17.903Z","45.9166419","-130.0250058","ASNAP","","admin","","","","","","","","","","","","","","-0.45","-2.75","-0.5","-2.4","181.58","0.99","0.58","SciCam","/SciCam.20240831_235617903.jpg","PilotCam","/PilotCam.20240831_235617903.jpg","BrowCam","/BrowCam.20240831_235617903.jpg","UserSelect","/UserSelect.20240831_235617903.jpg","","","-999.99","17.41","-999.99","-999.99","66d3ada1f9835f001a8063df"
"2024-08-31T23:56:32.936Z","45.9166419","-130.0250063","ASNAP","","admin","","","","","","","","","","","","","","-0.49","-2.75","-0.6","-0.5","182.63","0.97","0.58","SciCam","/SciCam.20240831_235632936.jpg","PilotCam","/PilotCam.20240831_235632936.jpg","BrowCam","/BrowCam.20240831_235632936.jpg","UserSelect","/UserSelect.20240831_235632936.jpg","","","-999.99","17.41","-999.99","-999.99","66d3adb0f9835f001a8063e3"
"2024-08-31T23:56:47.969Z","45.9166429","-130.0250093","ASNAP","","admin","","","","","","","","","","","","","","-0.72","-2.64","-0.1","-0.3","190.30","0.95","0.58","SciCam","/SciCam.20240831_235647969.jpg","PilotCam","/PilotCam.20240831_235647969.jpg","BrowCam","/BrowCam.20240831_235647969.jpg","UserSelect","/UserSelect.20240831_235647969.jpg","","","-999.99","17.41","-999.99","-999.99","66d3adbff9835f001a8063e7"
"2024-08-31T23:56:52.905Z","45.9166459","-130.0250148","VEHICLE","UFO is powered","guest","Other","","","","","","","","","","","","","-1.15","-2.31","-0.0","0.4","203.68","0.93","0.58","SciCam","/SciCam.20240831_235652905.jpg","PilotCam","/PilotCam.20240831_235652905.jpg","BrowCam","/BrowCam.20240831_235652905.jpg","UserSelect","/UserSelect.20240831_235652905.jpg","","","-999.99","17.43","-999.99","-999.99","66d3adc4f9835f001a8063eb"
"2024-08-31T23:57:03.002Z","45.9166550","-130.0250226","ASNAP","","admin","","","","","","","","","","","","","","-1.75","-1.30","0.4","-0.8","230.96","0.95","0.58","SciCam","/SciCam.20240831_235703002.jpg","PilotCam","/PilotCam.20240831_235703002.jpg","BrowCam","/BrowCam.20240831_235703002.jpg","UserSelect","/UserSelect.20240831_235703002.jpg","","","-999.99","17.43","-999.99","-999.99","66d3adcff9835f001a8063ef"
"2024-08-31T23:57:18.036Z","45.9166779","-130.0250235","ASNAP","","admin","","","","","","","","","","","","","","-1.82","1.25","-1.6","0.0","281.29","1.00","0.58","SciCam","/SciCam.20240831_235718036.jpg","PilotCam","/PilotCam.20240831_235718036.jpg","BrowCam","/BrowCam.20240831_235718036.jpg","UserSelect","/UserSelect.20240831_235718036.jpg","","","-999.99","17.43","-999.99","-999.99","66d3addef9835f001a8063f3"
"2024-08-31T23:57:33.068Z","45.9166774","-130.0250233","ASNAP","","admin","","","","","","","","","","","","","","-1.81","1.19","-1.2","-3.4","280.13","0.98","0.58","SciCam","/SciCam.20240831_235733068.jpg","PilotCam","/PilotCam.20240831_235733068.jpg","BrowCam","/BrowCam.20240831_235733068.jpg","UserSelect","/UserSelect.20240831_235733068.jpg","","","-999.99","17.41","-999.99","-999.99","66d3adedf9835f001a8063f7"
"2024-08-31T23:57:48.087Z","45.9166774","-130.0250233","ASNAP","","admin","","","","","","","","","","","","","","-1.81","1.19","-0.2","-1.9","280.50","1.00","0.58","SciCam","/SciCam.20240831_235748087.jpg","PilotCam","/PilotCam.20240831_235748087.jpg","BrowCam","/BrowCam.20240831_235748087.jpg","UserSelect","/UserSelect.20240831_235748087.jpg","","","-999.99","17.41","-999.99","-999.99","66d3adfcf9835f001a8063fb"
"2024-08-31T23:58:03.121Z","45.9166772","-130.0250233","ASNAP","","admin","","","","","","","","","","","","","","-1.81","1.17","-0.9","-3.9","279.92","0.98","0.58","SciCam","/SciCam.20240831_235803121.jpg","PilotCam","/PilotCam.20240831_235803121.jpg","BrowCam","/BrowCam.20240831_235803121.jpg","UserSelect","/UserSelect.20240831_235803121.jpg","","","-999.99","17.41","-999.99","-999.99","66d3ae0bf9835f001a8063ff"
"2024-08-31T23:58:18.155Z","45.9166778","-130.0250232","ASNAP","","admin","","","","","","","","","","","","","","-1.80","1.24","-1.8","-2.2","281.22","1.02","0.58","SciCam","/SciCam.20240831_235818155.jpg","PilotCam","/PilotCam.20240831_235818155.jpg","BrowCam","/BrowCam.20240831_235818155.jpg","UserSelect","/UserSelect.20240831_235818155.jpg","","","-999.99","17.39","-999.99","-999.99","66d3ae1af9835f001a806403"
"2024-08-31T23:58:33.187Z","45.9166626","-130.0250254","ASNAP","","admin","","","","","","","","","","","","","","-1.97","-0.45","-2.2","0.9","247.10","0.94","0.58","SciCam","/SciCam.20240831_235833187.jpg","PilotCam","/PilotCam.20240831_235833187.jpg","BrowCam","/BrowCam.20240831_235833187.jpg","UserSelect","/UserSelect.20240831_235833187.jpg","","","-999.99","17.42","-999.99","-999.99","66d3ae29f9835f001a806407"
"2024-08-31T23:58:37.707Z","45.9166631","-130.0250253","VEHICLE","","guest","Jason in water","","","","","","","","","","","","","-1.96","-0.40","-1.6","-0.1","248.10","0.94","0.58","SciCam","/SciCam.20240831_235837707.jpg","PilotCam","/PilotCam.20240831_235837707.jpg","BrowCam","/BrowCam.20240831_235837707.jpg","UserSelect","/UserSelect.20240831_235837707.jpg","","","-999.99","17.40","-999.99","-999.99","66d3ae2df9835f001a80640b"
"2024-08-31T23:58:48.220Z","45.9166801","-130.0250218","ASNAP","","admin","","","","","","","","","","","","","","-1.69","1.49","-0.7","-4.2","286.70","4.10","0.58","SciCam","/SciCam.20240831_235848220.jpg","PilotCam","/PilotCam.20240831_235848220.jpg","BrowCam","/BrowCam.20240831_235848220.jpg","UserSelect","/UserSelect.20240831_235848220.jpg","","","-999.99","17.57","-999.99","-999.99","66d3ae38f9835f001a80640f"
"2024-08-31T23:59:03.254Z","45.9166756","-130.0250240","ASNAP","","admin","","","","","","","","","","","","","","-1.86","0.99","1.6","-2.4","276.65","8.06","0.58","SciCam","/SciCam.20240831_235903254.jpg","PilotCam","/PilotCam.20240831_235903254.jpg","BrowCam","/BrowCam.20240831_235903254.jpg","UserSelect","/UserSelect.20240831_235903254.jpg","","","-999.99","17.83","-999.99","-999.99","66d3ae47f9835f001a806413"
"2024-08-31T23:59:10.590Z","45.9166760","-130.0250240","VEHICLE","Grounds are good","guest","Other","","","","","","","","","","","","","-1.86","1.04","1.1","-2.1","277.36","10.24","0.58","SciCam","/SciCam.20240831_235910590.jpg","PilotCam","/PilotCam.20240831_235910590.jpg","BrowCam","/BrowCam.20240831_235910590.jpg","UserSelect","/UserSelect.20240831_235910590.jpg","","","-999.99","18.11","-999.99","-999.99","66d3ae4ef9835f001a806417"
"2024-08-31T23:59:18.271Z","45.9166760","-130.0250236","ASNAP","","admin","","","","","","","","","","","","","","-1.83","1.04","-0.2","-2.5","277.48","13.47","0.58","SciCam","/SciCam.20240831_235918271.jpg","PilotCam","/PilotCam.20240831_235918271.jpg","BrowCam","/BrowCam.20240831_235918271.jpg","UserSelect","/UserSelect.20240831_235918271.jpg","","","-999.99","18.00","-999.99","-999.99","66d3ae56f9835f001a80641b"
"2024-08-31T23:59:33.307Z","45.9166767","-130.0250240","ASNAP","","admin","","","","","","","","","","","","","","-1.86","1.12","-0.9","0.6","278.56","17.35","0.58","SciCam","/SciCam.20240831_235933307.jpg","PilotCam","/PilotCam.20240831_235933307.jpg","BrowCam","/BrowCam.20240831_235933307.jpg","UserSelect","/UserSelect.20240831_235933307.jpg","","","-999.99","18.19","-999.99","-999.99","66d3ae65f9835f001a80641f"
"2024-08-31T23:59:48.341Z","45.9166764","-130.0250241","ASNAP","","admin","","","","","","","","","","","","","","-1.87","1.08","-2.3","1.2","277.59","23.10","0.58","SciCam","/SciCam.20240831_235948341.jpg","PilotCam","/PilotCam.20240831_235948341.jpg","BrowCam","/BrowCam.20240831_235948341.jpg","UserSelect","/UserSelect.20240831_235948341.jpg","","","-999.99","17.65","-999.99","-999.99","66d3ae74f9835f001a806423"
"2024-09-01T00:00:03.364Z","45.9166765","-130.0250236","ASNAP","","admin","","","","","","","","","","","","","","-1.83","1.09","-2.3","-3.6","277.66","23.71","0.58","SciCam","/SciCam.20240901_000003364.jpg","PilotCam","/PilotCam.20240901_000003364.jpg","BrowCam","/BrowCam.20240901_000003364.jpg","UserSelect","/UserSelect.20240901_000003364.jpg","","","-999.99","17.38","-999.99","-999.99","66d3ae83f9835f001a806427"
"2024-09-01T00:00:18.402Z","45.9166761","-130.0250241","ASNAP","","admin","","","","","","","","","","","","","","-1.87","1.05","-2.3","-0.7","277.02","24.59","0.58","SciCam","/SciCam.20240901_000018402.jpg","PilotCam","/PilotCam.20240901_000018402.jpg","BrowCam","/BrowCam.20240901_000018402.jpg","UserSelect","/UserSelect.20240901_000018402.jpg","","","-999.99","16.87","-999.99","-999.99","66d3ae92f9835f001a80642b"
"2024-09-01T00:00:19.019Z","45.9166762","-130.0250240","ROV Actions"," ","guest","","First Football on","","","","","","","","","","","","-1.86","1.06","-1.7","-1.5","277.22","24.55","0.58","SciCam","/SciCam.20240901_000019019.jpg","PilotCam","/PilotCam.20240901_000019019.jpg","BrowCam","/BrowCam.20240901_000019019.jpg","UserSelect","/UserSelect.20240901_000019019.jpg","","","-999.99","16.87","-999.99","-999.99","66d3ae93f9835f001a80642e"
"2024-09-01T00:00:33.436Z","45.9166763","-130.0250237","ASNAP","","admin","","","","","","","","","","","","","","-1.84","1.07","-1.6","-2.8","277.62","26.27","0.58","SciCam","/SciCam.20240901_000033436.jpg","PilotCam","/PilotCam.20240901_000033436.jpg","BrowCam","/BrowCam.20240901_000033436.jpg","UserSelect","/UserSelect.20240901_000033436.jpg","","","-999.99","16.34","-999.99","-999.99","66d3aea1f9835f001a806433"
"2024-09-01T00:00:48.474Z","45.9166767","-130.0250238","ASNAP","","admin","","","","","","","","","","","","","","-1.85","1.12","-2.0","-0.2","278.60","26.57","0.58","SciCam","/SciCam.20240901_000048474.jpg","PilotCam","/PilotCam.20240901_000048474.jpg","BrowCam","/BrowCam.20240901_000048474.jpg","UserSelect","/UserSelect.20240901_000048474.jpg","","","-999.99","15.77","-999.99","-999.99","66d3aeb0f9835f001a806437"
"2024-09-01T00:01:03.509Z","45.9166768","-130.0250235","ASNAP","","admin","","","","","","","","","","","","","","-1.82","1.13","-0.8","-3.0","279.02","27.33","0.58","SciCam","/SciCam.20240901_000103509.jpg","PilotCam","/PilotCam.20240901_000103509.jpg","BrowCam","/BrowCam.20240901_000103509.jpg","UserSelect","/UserSelect.20240901_000103509.jpg","","","-999.99","15.34","-999.99","-999.99","66d3aebff9835f001a80643b"
"2024-09-01T00:01:09.000Z","","","SulisCam","","admin","","","sulis_20240901000109.jpg","","","","","","","","","","","","","","","","","","","","","","","","","","0.302","-0.853","","","","","66d514fdf9835f001a80cca1"
"2024-09-01T00:01:18.543Z","45.9166767","-130.0250240","ASNAP","","admin","","","","","","","","","","","","","","-1.86","1.12","-0.7","0.6","278.60","27.13","0.58","SciCam","/SciCam.20240901_000118543.jpg","PilotCam","/PilotCam.20240901_000118543.jpg","BrowCam","/BrowCam.20240901_000118543.jpg","UserSelect","/UserSelect.20240901_000118543.jpg","","","-999.99","15.08","-999.99","-999.99","66d3aecef9835f001a80643f"
"2024-09-01T00:01:33.577Z","45.9166768","-130.0250232","ASNAP","","admin","","","","","","","","","","","","","","-1.80","1.13","-0.9","-5.2","278.94","28.79","0.58","SciCam","/SciCam.20240901_000133577.jpg","PilotCam","/PilotCam.20240901_000133577.jpg","BrowCam","/BrowCam.20240901_000133577.jpg","UserSelect","/UserSelect.20240901_000133577.jpg","","","-999.99","14.85","-999.99","-999.99","66d3aeddf9835f001a806443"
"2024-09-01T00:01:48.598Z","45.9166765","-130.0250235","ASNAP","","admin","","","","","","","","","","","","","","-1.82","1.09","-1.1","-4.7","278.16","30.66","0.58","SciCam","/SciCam.20240901_000148598.jpg","PilotCam","/PilotCam.20240901_000148598.jpg","BrowCam","/BrowCam.20240901_000148598.jpg","UserSelect","/UserSelect.20240901_000148598.jpg","","","-999.99","14.72","-999.99","-999.99","66d3aeecf9835f001a806447"
"2024-09-01T00:02:03.631Z","45.9166766","-130.0250233","ASNAP","","admin","","","","","","","","","","","","","","-1.81","1.10","-0.7","-5.2","278.58","31.45","0.58","SciCam","/SciCam.20240901_000203631.jpg","PilotCam","/PilotCam.20240901_000203631.jpg","BrowCam","/BrowCam.20240901_000203631.jpg","UserSelect","/UserSelect.20240901_000203631.jpg","","","-999.99","14.41","-999.99","-999.99","66d3aefbf9835f001a80644b"
"2024-09-01T00:02:18.666Z","45.9166771","-130.0250232","ASNAP","","admin","","","","","","","","","","","","","","-1.80","1.16","-1.5","-4.9","279.61","32.00","0.58","SciCam","/SciCam.20240901_000218666.jpg","PilotCam","/PilotCam.20240901_000218666.jpg","BrowCam","/BrowCam.20240901_000218666.jpg","UserSelect","/UserSelect.20240901_000218666.jpg","","","-999.99","14.39","-999.99","-999.99","66d3af0af9835f001a80644f"
"2024-09-01T00:02:33.701Z","45.9166765","-130.0250236","ASNAP","","admin","","","","","","","","","","","","","","-1.83","1.09","-1.4","-4.0","278.14","33.92","0.58","SciCam","/SciCam.20240901_000233701.jpg","PilotCam","/PilotCam.20240901_000233701.jpg","BrowCam","/BrowCam.20240901_000233701.jpg","UserSelect","/UserSelect.20240901_000233701.jpg","","","-999.99","14.32","-999.99","-999.99","66d3af19f9835f001a806453"
"2024-09-01T00:02:48.734Z","45.9166770","-130.0250232","ASNAP","","admin","","","","","","","","","","","","","","-1.80","1.15","-0.1","-4.6","279.66","33.74","0.58","SciCam","/SciCam.20240901_000248734.jpg","PilotCam","/PilotCam.20240901_000248734.jpg","BrowCam","/BrowCam.20240901_000248734.jpg","UserSelect","/UserSelect.20240901_000248734.jpg","","","-999.99","14.04","-999.99","-999.99","66d3af28f9835f001a806457"
"2024-09-01T00:03:03.767Z","45.9166767","-130.0250236","ASNAP","","admin","","","","","","","","","","","","","","-1.83","1.12","-1.5","-3.1","278.89","34.79","0.58","SciCam","/SciCam.20240901_000303767.jpg","PilotCam","/PilotCam.20240901_000303767.jpg","BrowCam","/BrowCam.20240901_000303767.jpg","UserSelect","/UserSelect.20240901_000303767.jpg","","","-999.99","14.18","-999.99","-999.99","66d3af37f9835f001a80645b"
"2024-09-01T00:03:18.799Z","45.9166763","-130.0250224","ASNAP","","admin","","","","","","","","","","","","","","-1.74","1.07","-1.9","-1.1","277.45","36.24","0.58","SciCam","/SciCam.20240901_000318799.jpg","PilotCam","/PilotCam.20240901_000318799.jpg","BrowCam","/BrowCam.20240901_000318799.jpg","UserSelect","/UserSelect.20240901_000318799.jpg","","","-999.99","13.82","-999.99","-999.99","66d3af46f9835f001a80645f"
"2024-09-01T00:03:33.831Z","45.9166766","-130.0250220","ASNAP","","admin","","","","","","","","","","","","","","-1.71","1.10","-1.5","-3.2","278.36","36.92","0.58","SciCam","/SciCam.20240901_000333831.jpg","PilotCam","/PilotCam.20240901_000333831.jpg","BrowCam","/BrowCam.20240901_000333831.jpg","UserSelect","/UserSelect.20240901_000333831.jpg","","","-999.99","13.90","-999.99","-999.99","66d3af55f9835f001a806463"
"2024-09-01T00:03:48.863Z","45.9166767","-130.0250236","ASNAP","","admin","","","","","","","","","","","","","","-1.83","1.11","-1.4","-4.3","278.20","38.17","0.58","SciCam","/SciCam.20240901_000348863.jpg","PilotCam","/PilotCam.20240901_000348863.jpg","BrowCam","/BrowCam.20240901_000348863.jpg","UserSelect","/UserSelect.20240901_000348863.jpg","","","-999.99","13.66","-999.99","-999.99","66d3af64f9835f001a806467"
"2024-09-01T00:04:03.896Z","45.9166771","-130.0250237","ASNAP","","admin","","","","","","","","","","","","","","-1.84","1.16","-2.3","-1.9","279.23","37.93","0.58","SciCam","/SciCam.20240901_000403896.jpg","PilotCam","/PilotCam.20240901_000403896.jpg","BrowCam","/BrowCam.20240901_000403896.jpg","UserSelect","/UserSelect.20240901_000403896.jpg","","","-999.99","13.53","-999.99","-999.99","66d3af73f9835f001a80646b"
"2024-09-01T00:04:18.927Z","45.9166768","-130.0250235","ASNAP","","admin","","","","","","","","","","","","","","-1.82","1.13","-1.5","-4.9","278.77","39.63","0.58","SciCam","/SciCam.20240901_000418927.jpg","PilotCam","/PilotCam.20240901_000418927.jpg","BrowCam","/BrowCam.20240901_000418927.jpg","UserSelect","/UserSelect.20240901_000418927.jpg","","","-999.99","13.48","-999.99","-999.99","66d3af82f9835f001a80646f"
"2024-09-01T00:04:33.958Z","45.9166767","-130.0250240","ASNAP","","admin","","","","","","","","","","","","","","-1.86","1.12","-1.6","-1.0","278.47","38.63","0.58","SciCam","/SciCam.20240901_000433958.jpg","PilotCam","/PilotCam.20240901_000433958.jpg","BrowCam","/BrowCam.20240901_000433958.jpg","UserSelect","/UserSelect.20240901_000433958.jpg","","","-999.99","13.45","-999.99","-999.99","66d3af91f9835f001a806473"
"2024-09-01T00:04:48.398Z","45.9166773","-130.0250262","FREE_FORM","test","guest","","","","","","","","","","","","","","-2.03","1.18","-3.7","-1.7","278.85","40.75","0.58","SciCam","/SciCam.20240901_000448398.jpg","PilotCam","/PilotCam.20240901_000448398.jpg","BrowCam","/BrowCam.20240901_000448398.jpg","UserSelect","/UserSelect.20240901_000448398.jpg","","","-999.99","13.45","-999.99","-999.99","66d3afa0f9835f001a806477"
"2024-09-01T00:04:48.987Z","45.9166772","-130.0250263","ASNAP","","admin","","","","","","","","","","","","","","-2.04","1.17","-3.6","-0.2","278.56","40.43","0.58","SciCam","/SciCam.20240901_000448987.jpg","PilotCam","/PilotCam.20240901_000448987.jpg","BrowCam","/BrowCam.20240901_000448987.jpg","UserSelect","/UserSelect.20240901_000448987.jpg","","","-999.99","13.34","-999.99","-999.99","66d3afa0f9835f001a80647a"
"2024-09-01T00:05:04.014Z","45.9166773","-130.0250238","ASNAP","","admin","","","","","","","","","","","","","","-1.85","1.18","-1.2","-4.5","279.73","41.37","0.58","SciCam","/SciCam.20240901_000504014.jpg","PilotCam","/PilotCam.20240901_000504014.jpg","BrowCam","/BrowCam.20240901_000504014.jpg","UserSelect","/UserSelect.20240901_000504014.jpg","","","-999.99","13.36","-999.99","-999.99","66d3afb0f9835f001a80647f"
"2024-09-01T00:05:19.036Z","45.9166768","-130.0250241","ASNAP","","admin","","","","","","","","","","","","","","-1.87","1.13","-1.4","-3.6","278.60","42.07","0.58","SciCam","/SciCam.20240901_000519036.jpg","PilotCam","/PilotCam.20240901_000519036.jpg","BrowCam","/BrowCam.20240901_000519036.jpg","UserSelect","/UserSelect.20240901_000519036.jpg","","","-999.99","13.26","-999.99","-999.99","66d3afbff9835f001a806483"
"2024-09-01T00:05:34.068Z","45.9166768","-130.0250245","ASNAP","","admin","","","","","","","","","","","","","","-1.90","1.13","-2.1","-0.6","278.40","43.19","0.58","SciCam","/SciCam.20240901_000534068.jpg","PilotCam","/PilotCam.20240901_000534068.jpg","BrowCam","/BrowCam.20240901_000534068.jpg","UserSelect","/UserSelect.20240901_000534068.jpg","","","-999.99","13.29","-999.99","-999.99","66d3afcef9835f001a806487"
"2024-09-01T00:05:49.099Z","45.9166773","-130.0250244","ASNAP","","admin","","","","","","","","","","","","","","-1.89","1.18","-1.3","-0.5","279.70","43.08","0.58","SciCam","/SciCam.20240901_000549099.jpg","PilotCam","/PilotCam.20240901_000549099.jpg","BrowCam","/BrowCam.20240901_000549099.jpg","UserSelect","/UserSelect.20240901_000549099.jpg","","","-999.99","13.47","-999.99","-999.99","66d3afddf9835f001a80648b"
"2024-09-01T00:06:04.130Z","45.9166771","-130.0250240","ASNAP","","admin","","","","","","","","","","","","","","-1.86","1.16","-1.1","-4.5","279.33","44.52","0.58","SciCam","/SciCam.20240901_000604130.jpg","PilotCam","/PilotCam.20240901_000604130.jpg","BrowCam","/BrowCam.20240901_000604130.jpg","UserSelect","/UserSelect.20240901_000604130.jpg","","","-999.99","13.33","-999.99","-999.99","66d3afecf9835f001a80648f"
"2024-09-01T00:06:19.161Z","45.9166769","-130.0250241","ASNAP","","admin","","","","","","","","","","","","","","-1.87","1.14","-1.8","-4.5","278.82","45.67","0.58","SciCam","/SciCam.20240901_000619161.jpg","PilotCam","/PilotCam.20240901_000619161.jpg","BrowCam","/BrowCam.20240901_000619161.jpg","","","","","-999.99","13.32","-999.99","-999.99","66d3affbf9835f001a806493"
"2024-09-01T00:06:34.191Z","45.9166767","-130.0250240","ASNAP","","admin","","","","","","","","","","","","","","-1.86","1.11","-1.1","-5.0","278.47","47.55","0.58","SciCam","/SciCam.20240901_000634191.jpg","PilotCam","/PilotCam.20240901_000634191.jpg","BrowCam","/BrowCam.20240901_000634191.jpg","","","","","-999.99","13.12","-999.99","-999.99","66d3b00af9835f001a806497"
"2024-09-01T00:06:49.221Z","45.9166769","-130.0250246","ASNAP","","admin","","","","","","","","","","","","","","-1.91","1.14","-1.5","-0.1","278.58","47.50","0.58","SciCam","/SciCam.20240901_000649221.jpg","PilotCam","/PilotCam.20240901_000649221.jpg","BrowCam","/BrowCam.20240901_000649221.jpg","","","","","-999.99","13.26","-999.99","-999.99","66d3b019f9835f001a80649b"
"2024-09-01T00:07:04.253Z","45.9166767","-130.0250244","ASNAP","","admin","","","","","","","","","","","","","","-1.89","1.12","-0.4","-2.6","278.58","47.87","0.58","SciCam","/SciCam.20240901_000704253.jpg","PilotCam","/PilotCam.20240901_000704253.jpg","BrowCam","/BrowCam.20240901_000704253.jpg","","","","","-999.99","13.01","-999.99","-999.99","66d3b028f9835f001a80649f"
"2024-09-01T00:07:19.274Z","45.9166772","-130.0250241","ASNAP","","admin","","","","","","","","","","","","","","-1.87","1.17","-2.5","-1.9","278.98","50.53","0.58","SciCam","/SciCam.20240901_000719274.jpg","PilotCam","/PilotCam.20240901_000719274.jpg","BrowCam","/BrowCam.20240901_000719274.jpg","","","","","-999.99","12.88","-999.99","-999.99","66d3b037f9835f001a8064a3"
"2024-09-01T00:07:34.306Z","45.9166769","-130.0250244","ASNAP","","admin","","","","","","","","","","","","","","-1.89","1.14","-2.1","-1.7","278.45","50.83","0.58","SciCam","/SciCam.20240901_000734306.jpg","PilotCam","/PilotCam.20240901_000734306.jpg","BrowCam","/BrowCam.20240901_000734306.jpg","","","","","-999.99","12.84","-999.99","-999.99","66d3b046f9835f001a8064a7"
"2024-09-01T00:07:49.339Z","45.9166769","-130.0250238","ASNAP","","admin","","","","","","","","","","","","","","-1.85","1.14","-1.1","-5.1","278.74","51.41","0.58","SciCam","/SciCam.20240901_000749339.jpg","PilotCam","/PilotCam.20240901_000749339.jpg","BrowCam","/BrowCam.20240901_000749339.jpg","UserSelect","/UserSelect.20240901_000749339.jpg","","","-999.99","12.72","-999.99","-999.99","66d3b055f9835f001a8064ab"
"2024-09-01T00:08:04.370Z","45.9166768","-130.0250244","ASNAP","","admin","","","","","","","","","","","","","","-1.89","1.13","-1.5","-2.4","278.16","52.22","0.58","SciCam","/SciCam.20240901_000804370.jpg","PilotCam","/PilotCam.20240901_000804370.jpg","BrowCam","/BrowCam.20240901_000804370.jpg","","","","","-999.99","12.55","-999.99","-999.99","66d3b064f9835f001a8064af"
"2024-09-01T00:08:06.492Z","45.9166767","-130.0250241","ROV Actions"," ","guest","","Last Football on","","","","","","","","","","","","-1.87","1.12","-1.8","-3.6","278.10","52.42","0.58","SciCam","/SciCam.20240901_000806492.jpg","PilotCam","/PilotCam.20240901_000806492.jpg","BrowCam","/BrowCam.20240901_000806492.jpg","UserSelect","/UserSelect.20240901_000806492.jpg","","","-999.99","12.65","-999.99","-999.99","66d3b066f9835f001a8064b3"
"2024-09-01T00:08:19.401Z","45.9166767","-130.0250242","ASNAP","","admin","","","","","","","","","","","","","","-1.88","1.11","-1.2","-2.2","277.98","54.03","0.58","SciCam","/SciCam.20240901_000819401.jpg","PilotCam","/PilotCam.20240901_000819401.jpg","BrowCam","/BrowCam.20240901_000819401.jpg","UserSelect","/UserSelect.20240901_000819401.jpg","","","-999.99","12.66","-999.99","-999.99","66d3b073f9835f001a8064b7"
"2024-09-01T00:08:34.428Z","45.9166766","-130.0250242","ASNAP","","admin","","","","","","","","","","","","","","-1.88","1.10","-0.3","-3.9","277.94","59.00","0.58","SciCam","/SciCam.20240901_000834428.jpg","PilotCam","/PilotCam.20240901_000834428.jpg","BrowCam","/BrowCam.20240901_000834428.jpg","UserSelect","/UserSelect.20240901_000834428.jpg","","","-999.99","12.41","-999.99","-999.99","66d3b082f9835f001a8064bb"
"2024-09-01T00:08:49.454Z","45.9166766","-130.0250242","ASNAP","","admin","","","","","","","","","","","","","","-1.88","1.10","-0.9","-3.2","277.89","63.71","0.58","SciCam","/SciCam.20240901_000849454.jpg","PilotCam","/PilotCam.20240901_000849454.jpg","BrowCam","/BrowCam.20240901_000849454.jpg","UserSelect","/UserSelect.20240901_000849454.jpg","","","-999.99","11.96","-999.99","-999.99","66d3b091f9835f001a8064bf"
"2024-09-01T00:09:04.486Z","45.9166765","-130.0250241","ASNAP","","admin","","","","","","","","","","","","","","-1.87","1.09","-1.0","-4.9","277.59","67.68","0.58","SciCam","/SciCam.20240901_000904486.jpg","PilotCam","/PilotCam.20240901_000904486.jpg","BrowCam","/BrowCam.20240901_000904486.jpg","UserSelect","/UserSelect.20240901_000904486.jpg","","","-999.99","11.54","-999.99","-999.99","66d3b0a0f9835f001a8064c3"
"2024-09-01T00:09:19.506Z","45.9166768","-130.0250244","ASNAP","","admin","","","","","","","","","","","","","","-1.89","1.13","-1.6","-2.3","278.23","74.94","0.58","SciCam","/SciCam.20240901_000919506.jpg","PilotCam","/PilotCam.20240901_000919506.jpg","BrowCam","/BrowCam.20240901_000919506.jpg","UserSelect","/UserSelect.20240901_000919506.jpg","","","-999.99","10.97","-999.99","-999.99","66d3b0aff9835f001a8064c7"
"2024-09-01T00:09:34.538Z","45.9166767","-130.0250238","ASNAP","","admin","","","","","","","","","","","","","","-1.85","1.12","-0.8","-5.7","278.25","78.26","0.58","SciCam","/SciCam.20240901_000934538.jpg","PilotCam","/PilotCam.20240901_000934538.jpg","BrowCam","/BrowCam.20240901_000934538.jpg","UserSelect","/UserSelect.20240901_000934538.jpg","","","-999.99","10.63","-999.99","-999.99","66d3b0bef9835f001a8064cb"
"2024-09-01T00:09:49.569Z","45.9166769","-130.0250241","ASNAP","","admin","","","","","","","","","","","","","","-1.87","1.14","-0.5","-3.2","278.75","84.25","0.58","SciCam","/SciCam.20240901_000949569.jpg","PilotCam","/PilotCam.20240901_000949569.jpg","BrowCam","/BrowCam.20240901_000949569.jpg","UserSelect","/UserSelect.20240901_000949569.jpg","","","-999.99","10.12","-999.99","-999.99","66d3b0cdf9835f001a8064cf"
"2024-09-01T00:10:04.600Z","45.9166768","-130.0250240","ASNAP","","admin","","","","","","","","","","","","","","-1.86","1.13","-1.1","-4.2","278.53","89.38","0.58","SciCam","/SciCam.20240901_001004600.jpg","PilotCam","/PilotCam.20240901_001004600.jpg","BrowCam","/BrowCam.20240901_001004600.jpg","UserSelect","/UserSelect.20240901_001004600.jpg","","","-999.99","9.51","-999.99","-999.99","66d3b0dcf9835f001a8064d3"
"2024-09-01T00:10:19.632Z","45.9166771","-130.0250242","ASNAP","","admin","","","","","","","","","","","","","","-1.88","1.16","-0.7","-1.8","279.04","94.03","0.58","SciCam","/SciCam.20240901_001019632.jpg","PilotCam","/PilotCam.20240901_001019632.jpg","BrowCam","/BrowCam.20240901_001019632.jpg","UserSelect","/UserSelect.20240901_001019632.jpg","","","-999.99","9.14","-999.99","-999.99","66d3b0ebf9835f001a8064d7"
"2024-09-01T00:10:34.664Z","45.9166769","-130.0250240","ASNAP","","admin","","","","","","","","","","","","","","-1.86","1.14","-1.7","-4.7","278.62","99.68","0.58","SciCam","/SciCam.20240901_001034664.jpg","PilotCam","/PilotCam.20240901_001034664.jpg","BrowCam","/BrowCam.20240901_001034664.jpg","UserSelect","/UserSelect.20240901_001034664.jpg","","","-999.99","8.85","-999.99","-999.99","66d3b0faf9835f001a8064db"
"2024-09-01T00:10:49.695Z","45.9166764","-130.0250244","ASNAP","","admin","","","","","","","","","","","","","","-1.89","1.08","-2.1","-3.2","277.11","105.15","0.58","SciCam","/SciCam.20240901_001049695.jpg","PilotCam","/PilotCam.20240901_001049695.jpg","BrowCam","/BrowCam.20240901_001049695.jpg","UserSelect","/UserSelect.20240901_001049695.jpg","","","-999.99","8.66","-999.99","-999.99","66d3b109f9835f001a8064df"
"2024-09-01T00:11:04.724Z","45.9166768","-130.0250242","ASNAP","","admin","","","","","","","","","","","","","","-1.88","1.13","-1.6","-2.6","278.41","110.99","0.58","SciCam","/SciCam.20240901_001104724.jpg","PilotCam","/PilotCam.20240901_001104724.jpg","BrowCam","/BrowCam.20240901_001104724.jpg","UserSelect","/UserSelect.20240901_001104724.jpg","","","-999.99","8.51","-999.99","-999.99","66d3b118f9835f001a8064e3"
"2024-09-01T00:11:19.756Z","45.9166767","-130.0250240","ASNAP","","admin","","","","","","","","","","","","","","-1.86","1.12","-1.1","-4.7","278.17","115.05","0.58","SciCam","/SciCam.20240901_001119756.jpg","PilotCam","/PilotCam.20240901_001119756.jpg","BrowCam","/BrowCam.20240901_001119756.jpg","UserSelect","/UserSelect.20240901_001119756.jpg","","","-999.99","8.39","-999.99","-999.99","66d3b127f9835f001a8064e7"
"2024-09-01T00:11:34.788Z","45.9166768","-130.0250250","ASNAP","","admin","","","","","","","","","","","","","","-1.94","1.13","-0.6","-3.6","278.23","120.48","0.58","SciCam","/SciCam.20240901_001134788.jpg","PilotCam","/PilotCam.20240901_001134788.jpg","BrowCam","/BrowCam.20240901_001134788.jpg","UserSelect","/UserSelect.20240901_001134788.jpg","","","-999.99","8.17","-999.99","-999.99","66d3b136f9835f001a8064eb"
"2024-09-01T00:11:49.815Z","45.9166766","-130.0250249","ASNAP","","admin","","","","","","","","","","","","","","-1.93","1.10","-0.0","-5.4","277.80","125.63","0.58","SciCam","/SciCam.20240901_001149815.jpg","PilotCam","/PilotCam.20240901_001149815.jpg","BrowCam","/BrowCam.20240901_001149815.jpg","UserSelect","/UserSelect.20240901_001149815.jpg","","","-999.99","8.09","-999.99","-999.99","66d3b145f9835f001a8064ef"
"2024-09-01T00:12:04.846Z","45.9166766","-130.0250253","ASNAP","","admin","","","","","","","","","","","","","","-1.96","1.10","-1.5","-3.2","277.41","131.29","0.58","SciCam","/SciCam.20240901_001204846.jpg","PilotCam","/PilotCam.20240901_001204846.jpg","BrowCam","/BrowCam.20240901_001204846.jpg","UserSelect","/UserSelect.20240901_001204846.jpg","","","-999.99","7.86","-999.99","-999.99","66d3b154f9835f001a8064f3"
"2024-09-01T00:12:19.877Z","45.9166770","-130.0250250","ASNAP","","admin","","","","","","","","","","","","","","-1.94","1.15","-0.6","-3.1","278.59","137.37","0.58","SciCam","/SciCam.20240901_001219877.jpg","PilotCam","/PilotCam.20240901_001219877.jpg","BrowCam","/BrowCam.20240901_001219877.jpg","UserSelect","/UserSelect.20240901_001219877.jpg","","","-999.99","7.89","-999.99","-999.99","66d3b163f9835f001a8064f7"
"2024-09-01T00:12:34.908Z","45.9166768","-130.0250255","ASNAP","","admin","","","","","","","","","","","","","","-1.98","1.13","-2.3","0.3","277.69","142.07","0.58","SciCam","/SciCam.20240901_001234908.jpg","PilotCam","/PilotCam.20240901_001234908.jpg","BrowCam","/BrowCam.20240901_001234908.jpg","UserSelect","/UserSelect.20240901_001234908.jpg","","","-999.99","8.03","-999.99","-999.99","66d3b172f9835f001a8064fb"
"2024-09-01T00:12:49.938Z","45.9166767","-130.0250254","ASNAP","","admin","","","","","","","","","","","","","","-1.97","1.11","-2.4","-1.1","277.39","142.58","0.58","SciCam","/SciCam.20240901_001249938.jpg","PilotCam","/PilotCam.20240901_001249938.jpg","BrowCam","/BrowCam.20240901_001249938.jpg","UserSelect","/UserSelect.20240901_001249938.jpg","","","-999.99","7.73","-999.99","-999.99","66d3b181f9835f001a8064ff"
"2024-09-01T00:13:02.597Z","45.9166767","-130.0250247","ROV Actions","Beacon","guest","","Transponder on","","","","","","","","","","","","-1.92","1.11","-1.1","-3.5","277.69","142.48","0.58","SciCam","/SciCam.20240901_001302597.jpg","PilotCam","/PilotCam.20240901_001302597.jpg","BrowCam","/BrowCam.20240901_001302597.jpg","UserSelect","/UserSelect.20240901_001302597.jpg","","","-999.99","7.74","-999.99","-999.99","66d3b18ef9835f001a806507"
"2024-09-01T00:13:04.969Z","45.9166769","-130.0250251","ASNAP","","admin","","","","","","","","","","","","","","-1.95","1.14","-2.2","0.7","278.06","142.43","0.58","SciCam","/SciCam.20240901_001304969.jpg","PilotCam","/PilotCam.20240901_001304969.jpg","BrowCam","/BrowCam.20240901_001304969.jpg","UserSelect","/UserSelect.20240901_001304969.jpg","","","-999.99","7.70","-999.99","-999.99","66d3b190f9835f001a80650b"
"2024-09-01T00:13:19.998Z","45.9166770","-130.0250249","ASNAP","","admin","","","","","","","","","","","","","","-1.93","1.15","-0.7","-1.9","278.57","141.87","0.58","SciCam","/SciCam.20240901_001319998.jpg","PilotCam","/PilotCam.20240901_001319998.jpg","BrowCam","/BrowCam.20240901_001319998.jpg","UserSelect","/UserSelect.20240901_001319998.jpg","","","-999.99","7.67","-999.99","-999.99","66d3b19ff9835f001a80650f"
"2024-09-01T00:13:35.028Z","45.9166767","-130.0250250","ASNAP","","admin","","","","","","","","","","","","","","-1.94","1.12","-1.4","-1.0","277.87","142.63","0.58","SciCam","/SciCam.20240901_001335028.jpg","PilotCam","/PilotCam.20240901_001335028.jpg","BrowCam","/BrowCam.20240901_001335028.jpg","UserSelect","/UserSelect.20240901_001335028.jpg","","","-999.99","7.83","-999.99","-999.99","66d3b1aff9835f001a806513"
"2024-09-01T00:13:50.051Z","45.9166772","-130.0250269","ASNAP","","admin","","","","","","","","","","","","","","-2.09","1.17","-1.8","-1.1","278.25","143.18","0.58","SciCam","/SciCam.20240901_001350051.jpg","PilotCam","/PilotCam.20240901_001350051.jpg","BrowCam","/BrowCam.20240901_001350051.jpg","UserSelect","/UserSelect.20240901_001350051.jpg","","","-999.99","7.77","-999.99","-999.99","66d3b1bef9835f001a806517"
"2024-09-01T00:14:05.077Z","45.9166771","-130.0250271","ASNAP","","admin","","","","","","","","","","","","","","-2.10","1.16","-1.3","-0.1","278.29","142.69","0.58","SciCam","/SciCam.20240901_001405077.jpg","PilotCam","/PilotCam.20240901_001405077.jpg","BrowCam","/BrowCam.20240901_001405077.jpg","UserSelect","/UserSelect.20240901_001405077.jpg","","","-999.99","7.66","-999.99","-999.99","66d3b1cdf9835f001a80651b"
"2024-09-01T00:14:20.096Z","45.9166772","-130.0250271","ASNAP","","admin","","","","","","","","","","","","","","-2.10","1.17","-1.0","0.6","278.55","142.55","0.58","SciCam","/SciCam.20240901_001420096.jpg","PilotCam","/PilotCam.20240901_001420096.jpg","BrowCam","/BrowCam.20240901_001420096.jpg","UserSelect","/UserSelect.20240901_001420096.jpg","","","-999.99","7.74","-999.99","-999.99","66d3b1dcf9835f001a80651f"
"2024-09-01T00:14:35.127Z","45.9166770","-130.0250269","ASNAP","","admin","","","","","","","","","","","","","","-2.09","1.15","-0.2","-0.9","278.25","146.49","0.58","SciCam","/SciCam.20240901_001435127.jpg","PilotCam","/PilotCam.20240901_001435127.jpg","BrowCam","/BrowCam.20240901_001435127.jpg","UserSelect","/UserSelect.20240901_001435127.jpg","","","-999.99","7.87","-999.99","-999.99","66d3b1ebf9835f001a806527"
"2024-09-01T00:14:50.159Z","45.9166767","-130.0250268","ASNAP","","admin","","","","","","","","","","","","","","-2.08","1.12","0.2","-2.8","277.74","151.10","0.58","SciCam","/SciCam.20240901_001450159.jpg","PilotCam","/PilotCam.20240901_001450159.jpg","BrowCam","/BrowCam.20240901_001450159.jpg","UserSelect","/UserSelect.20240901_001450159.jpg","","","-999.99","7.60","-999.99","-999.99","66d3b1faf9835f001a80652b"
"2024-09-01T00:15:05.191Z","45.9166770","-130.0250269","ASNAP","","admin","","","","","","","","","","","","","","-2.09","1.15","-0.3","-1.5","278.18","156.06","0.58","SciCam","/SciCam.20240901_001505191.jpg","PilotCam","/PilotCam.20240901_001505191.jpg","BrowCam","/BrowCam.20240901_001505191.jpg","UserSelect","/UserSelect.20240901_001505191.jpg","","","-999.99","7.60","-999.99","-999.99","66d3b209f9835f001a80652f"
"2024-09-01T00:15:20.225Z","45.9166767","-130.0250269","ASNAP","","admin","","","","","","","","","","","","","","-2.09","1.12","-0.1","-2.2","277.67","161.93","0.58","SciCam","/SciCam.20240901_001520225.jpg","PilotCam","/PilotCam.20240901_001520225.jpg","BrowCam","/BrowCam.20240901_001520225.jpg","UserSelect","/UserSelect.20240901_001520225.jpg","","","-999.99","7.55","-999.99","-999.99","66d3b218f9835f001a806533"
"2024-09-01T00:15:32.878Z","45.9166767","-130.0250271","VEHICLE","Van taking control from deck","guest","Other","","","","","","","","","","","","","-2.10","1.11","-0.0","-2.5","277.63","163.36","0.58","SciCam","/SciCam.20240901_001532878.jpg","PilotCam","/PilotCam.20240901_001532878.jpg","BrowCam","/BrowCam.20240901_001532878.jpg","UserSelect","/UserSelect.20240901_001532878.jpg","","","-999.99","7.59","-999.99","-999.99","66d3b224f9835f001a806537"
"2024-09-01T00:15:35.259Z","45.9166766","-130.0250268","ASNAP","","admin","","","","","","","","","","","","","","-2.08","1.10","0.2","-3.9","277.38","163.57","0.58","SciCam","/SciCam.20240901_001535259.jpg","PilotCam","/PilotCam.20240901_001535259.jpg","BrowCam","/BrowCam.20240901_001535259.jpg","UserSelect","/UserSelect.20240901_001535259.jpg","","","-999.99","7.51","-999.99","-999.99","66d3b227f9835f001a80653b"
"2024-09-01T00:15:50.291Z","45.9166769","-130.0250267","ASNAP","","admin","","","","","","","","","","","","","","-2.07","1.14","-0.5","-4.3","278.02","162.02","0.58","SciCam","/SciCam.20240901_001550291.jpg","PilotCam","/PilotCam.20240901_001550291.jpg","BrowCam","/BrowCam.20240901_001550291.jpg","UserSelect","/UserSelect.20240901_001550291.jpg","","","-999.99","7.39","-999.99","-999.99","66d3b236f9835f001a80653f"
"2024-09-01T00:16:05.323Z","45.9166767","-130.0250269","ASNAP","","admin","","","","","","","","","","","","","","-2.09","1.12","0.2","-2.4","277.92","163.29","0.58","SciCam","/SciCam.20240901_001605323.jpg","PilotCam","/PilotCam.20240901_001605323.jpg","BrowCam","/BrowCam.20240901_001605323.jpg","UserSelect","/UserSelect.20240901_001605323.jpg","","","-999.99","7.46","-999.99","-999.99","66d3b245f9835f001a806543"
"2024-09-01T00:16:09.003Z","45.9166770","-130.0250267","VEHICLE","Starting payout","guest","Other","","","","","","","","","","","","","-2.07","1.15","0.2","-3.8","278.39","163.58","0.58","SciCam","/SciCam.20240901_001609003.jpg","PilotCam","/PilotCam.20240901_001609003.jpg","BrowCam","/BrowCam.20240901_001609003.jpg","UserSelect","/UserSelect.20240901_001609003.jpg","","","-999.99","7.50","-999.99","-999.99","66d3b249f9835f001a806547"
"2024-09-01T00:16:20.353Z","45.9166775","-130.0250266","ASNAP","","admin","","","","","","","","","","","","","","-2.06","1.20","-0.6","-3.6","279.36","162.78","0.58","SciCam","/SciCam.20240901_001620353.jpg","PilotCam","/PilotCam.20240901_001620353.jpg","BrowCam","/BrowCam.20240901_001620353.jpg","UserSelect","/UserSelect.20240901_001620353.jpg","","","-999.99","7.47","-999.99","-999.99","66d3b254f9835f001a80654b"
"2024-09-01T00:16:35.386Z","45.9166776","-130.0250266","ASNAP","","admin","","","","","","","","","","","","","","-2.06","1.21","0.3","-2.8","279.62","162.68","0.58","SciCam","/SciCam.20240901_001635386.jpg","PilotCam","/PilotCam.20240901_001635386.jpg","BrowCam","/BrowCam.20240901_001635386.jpg","UserSelect","/UserSelect.20240901_001635386.jpg","","","-999.99","7.29","-999.99","-999.99","66d3b263f9835f001a80654f"
"2024-09-01T00:16:50.416Z","45.9166773","-130.0250266","ASNAP","","admin","","","","","","","","","","","","","","-2.06","1.18","0.1","-3.3","279.02","170.67","0.58","SciCam","/SciCam.20240901_001650416.jpg","PilotCam","/PilotCam.20240901_001650416.jpg","BrowCam","/BrowCam.20240901_001650416.jpg","UserSelect","/UserSelect.20240901_001650416.jpg","","","-999.99","7.44","-999.99","-999.99","66d3b272f9835f001a806553"
"2024-09-01T00:16:57.208Z","45.9166773","-130.0250268","VEHICLE","Winch radio check","guest","Other","","","","","","","","","","","","","-2.08","1.18","-0.4","-1.8","278.91","174.74","0.58","SciCam","/SciCam.20240901_001657208.jpg","PilotCam","/PilotCam.20240901_001657208.jpg","BrowCam","/BrowCam.20240901_001657208.jpg","UserSelect","/UserSelect.20240901_001657208.jpg","","","-999.99","7.27","-999.99","-999.99","66d3b279f9835f001a806557"
"2024-09-01T00:17:05.442Z","45.9166769","-130.0250267","ASNAP","","admin","","","","","","","","","","","","","","-2.07","1.14","-0.4","-3.9","278.12","178.17","0.58","SciCam","/SciCam.20240901_001705442.jpg","PilotCam","/PilotCam.20240901_001705442.jpg","BrowCam","/BrowCam.20240901_001705442.jpg","UserSelect","/UserSelect.20240901_001705442.jpg","","","-999.99","7.39","-999.99","-999.99","66d3b281f9835f001a80655b"
"2024-09-01T00:17:20.475Z","45.9166771","-130.0250267","ASNAP","","admin","","","","","","","","","","","","","","-2.07","1.16","0.7","-3.3","278.69","185.86","0.58","SciCam","/SciCam.20240901_001720475.jpg","PilotCam","/PilotCam.20240901_001720475.jpg","BrowCam","/BrowCam.20240901_001720475.jpg","UserSelect","/UserSelect.20240901_001720475.jpg","","","-999.99","7.21","-999.99","-999.99","66d3b290f9835f001a80655f"
"2024-09-01T00:17:35.503Z","45.9166770","-130.0250268","ASNAP","","admin","","","","","","","","","","","","","","-2.08","1.15","1.3","-1.9","278.65","193.19","0.58","SciCam","/SciCam.20240901_001735503.jpg","PilotCam","/PilotCam.20240901_001735503.jpg","BrowCam","/BrowCam.20240901_001735503.jpg","UserSelect","/UserSelect.20240901_001735503.jpg","","","-999.99","7.28","-999.99","-999.99","66d3b29ff9835f001a806563"
"2024-09-01T00:17:50.531Z","45.9166774","-130.0250267","ASNAP","","admin","","","","","","","","","","","","","","-2.07","1.19","-0.2","-2.3","279.07","201.02","0.58","SciCam","/SciCam.20240901_001750531.jpg","PilotCam","/PilotCam.20240901_001750531.jpg","BrowCam","/BrowCam.20240901_001750531.jpg","UserSelect","/UserSelect.20240901_001750531.jpg","","","-999.99","7.08","-999.99","-999.99","66d3b2aef9835f001a806567"
"2024-09-01T00:18:05.566Z","45.9166772","-130.0250267","ASNAP","","admin","","","","","","","","","","","","","","-2.07","1.17","-0.6","-3.3","278.57","208.58","0.58","SciCam","/SciCam.20240901_001805566.jpg","PilotCam","/PilotCam.20240901_001805566.jpg","BrowCam","/BrowCam.20240901_001805566.jpg","UserSelect","/UserSelect.20240901_001805566.jpg","","","-999.99","7.13","-999.99","-999.99","66d3b2bdf9835f001a80656b"
"2024-09-01T00:18:20.596Z","45.9166774","-130.0250266","ASNAP","","admin","","","","","","","","","","","","","","-2.06","1.19","-0.3","-3.2","279.18","215.67","0.58","SciCam","/SciCam.20240901_001820596.jpg","PilotCam","/PilotCam.20240901_001820596.jpg","BrowCam","/BrowCam.20240901_001820596.jpg","UserSelect","/UserSelect.20240901_001820596.jpg","","","-999.99","6.93","-999.99","-999.99","66d3b2ccf9835f001a80656f"
"2024-09-01T00:18:35.612Z","45.9166773","-130.0250267","ASNAP","","admin","","","","","","","","","","","","","","-2.07","1.18","0.3","-3.4","279.22","223.10","0.58","SciCam","/SciCam.20240901_001835612.jpg","PilotCam","/PilotCam.20240901_001835612.jpg","BrowCam","/BrowCam.20240901_001835612.jpg","UserSelect","/UserSelect.20240901_001835612.jpg","","","-999.99","6.69","-999.99","-999.99","66d3b2dbf9835f001a806573"
"2024-09-01T00:18:50.643Z","45.9166770","-130.0250266","ASNAP","","admin","","","","","","","","","","","","","","-2.06","1.15","-0.2","-4.8","278.50","230.76","0.58","SciCam","/SciCam.20240901_001850643.jpg","PilotCam","/PilotCam.20240901_001850643.jpg","BrowCam","/BrowCam.20240901_001850643.jpg","UserSelect","/UserSelect.20240901_001850643.jpg","","","-999.99","6.68","-999.99","-999.99","66d3b2eaf9835f001a806577"
"2024-09-01T00:19:05.673Z","45.9166772","-130.0250266","ASNAP","","admin","","","","","","","","","","","","","","-2.06","1.17","-0.7","-4.1","278.67","238.42","0.58","SciCam","/SciCam.20240901_001905673.jpg","PilotCam","/PilotCam.20240901_001905673.jpg","BrowCam","/BrowCam.20240901_001905673.jpg","UserSelect","/UserSelect.20240901_001905673.jpg","","","-999.99","6.65","-999.99","-999.99","66d3b2f9f9835f001a80657b"
"2024-09-01T00:19:20.702Z","45.9166773","-130.0250264","ASNAP","","admin","","","","","","","","","","","","","","-2.05","1.18","-0.4","-4.7","278.94","245.66","0.58","SciCam","/SciCam.20240901_001920702.jpg","PilotCam","/PilotCam.20240901_001920702.jpg","BrowCam","/BrowCam.20240901_001920702.jpg","UserSelect","/UserSelect.20240901_001920702.jpg","","","-999.99","6.67","-999.99","-999.99","66d3b308f9835f001a80657f"
"2024-09-01T00:19:35.734Z","45.9166773","-130.0250264","ASNAP","","admin","","","","","","","","","","","","","","-2.05","1.18","-0.6","-4.8","278.85","253.44","0.58","SciCam","/SciCam.20240901_001935734.jpg","PilotCam","/PilotCam.20240901_001935734.jpg","BrowCam","/BrowCam.20240901_001935734.jpg","UserSelect","/UserSelect.20240901_001935734.jpg","","","-999.99","6.57","-999.99","-999.99","66d3b317f9835f001a806583"
"2024-09-01T00:19:50.767Z","45.9166775","-130.0250264","ASNAP","","admin","","","","","","","","","","","","","","-2.05","1.20","-0.8","-4.9","279.20","260.19","0.58","SciCam","/SciCam.20240901_001950767.jpg","PilotCam","/PilotCam.20240901_001950767.jpg","BrowCam","/BrowCam.20240901_001950767.jpg","UserSelect","/UserSelect.20240901_001950767.jpg","","","-999.99","6.36","-999.99","-999.99","66d3b326f9835f001a806587"
"2024-09-01T00:20:05.799Z","45.9166773","-130.0250268","ASNAP","","admin","","","","","","","","","","","","","","-2.08","1.18","0.6","-2.2","279.05","267.97","0.58","SciCam","/SciCam.20240901_002005799.jpg","PilotCam","/PilotCam.20240901_002005799.jpg","BrowCam","/BrowCam.20240901_002005799.jpg","UserSelect","/UserSelect.20240901_002005799.jpg","","","-999.99","6.43","-999.99","-999.99","66d3b335f9835f001a80658b"
"2024-09-01T00:20:20.832Z","45.9166769","-130.0250268","ASNAP","","admin","","","","","","","","","","","","","","-2.08","1.14","0.8","-3.1","278.42","275.56","0.58","SciCam","/SciCam.20240901_002020832.jpg","PilotCam","/PilotCam.20240901_002020832.jpg","BrowCam","/BrowCam.20240901_002020832.jpg","UserSelect","/UserSelect.20240901_002020832.jpg","","","-999.99","6.30","-999.99","-999.99","66d3b344f9835f001a80658f"
"2024-09-01T00:20:35.863Z","45.9166773","-130.0250268","ASNAP","","admin","","","","","","","","","","","","","","-2.08","1.18","0.6","-1.9","279.17","283.12","0.58","SciCam","/SciCam.20240901_002035863.jpg","PilotCam","/PilotCam.20240901_002035863.jpg","BrowCam","/BrowCam.20240901_002035863.jpg","UserSelect","/UserSelect.20240901_002035863.jpg","","","-999.99","6.31","-999.99","-999.99","66d3b353f9835f001a806593"
"2024-09-01T00:20:50.879Z","45.9166772","-130.0250266","ASNAP","","admin","","","","","","","","","","","","","","-2.06","1.17","-0.6","-4.2","278.64","290.69","0.58","SciCam","/SciCam.20240901_002050879.jpg","PilotCam","/PilotCam.20240901_002050879.jpg","BrowCam","/BrowCam.20240901_002050879.jpg","UserSelect","/UserSelect.20240901_002050879.jpg","","","-999.99","6.23","-999.99","-999.99","66d3b362f9835f001a806597"
"2024-09-01T00:21:05.909Z","45.9166774","-130.0250267","ASNAP","","admin","","","","","","","","","","","","","","-2.07","1.19","0.3","-2.4","279.26","298.88","0.58","SciCam","/SciCam.20240901_002105909.jpg","PilotCam","/PilotCam.20240901_002105909.jpg","BrowCam","/BrowCam.20240901_002105909.jpg","UserSelect","/UserSelect.20240901_002105909.jpg","","","-999.99","6.16","-999.99","-999.99","66d3b371f9835f001a80659b"
"2024-09-01T00:21:20.941Z","45.9166775","-130.0250266","ASNAP","","admin","","","","","","","","","","","","","","-2.06","1.20","-0.5","-3.7","279.26","305.82","0.58","SciCam","/SciCam.20240901_002120941.jpg","PilotCam","/PilotCam.20240901_002120941.jpg","BrowCam","/BrowCam.20240901_002120941.jpg","UserSelect","/UserSelect.20240901_002120941.jpg","","","-999.99","6.08","-999.99","-999.99","66d3b380f9835f001a80659f"
"2024-09-01T00:21:35.972Z","45.9166773","-130.0250267","ASNAP","","admin","","","","","","","","","","","","","","-2.07","1.18","-0.4","-2.5","278.87","313.77","0.58","SciCam","/SciCam.20240901_002135972.jpg","PilotCam","/PilotCam.20240901_002135972.jpg","BrowCam","/BrowCam.20240901_002135972.jpg","UserSelect","/UserSelect.20240901_002135972.jpg","","","-999.99","6.06","-999.99","-999.99","66d3b38ff9835f001a8065a3"
"2024-09-01T00:21:51.003Z","45.9166772","-130.0250266","ASNAP","","admin","","","","","","","","","","","","","","-2.06","1.17","-0.4","-3.9","278.80","321.13","0.58","SciCam","/SciCam.20240901_002151003.jpg","PilotCam","/PilotCam.20240901_002151003.jpg","BrowCam","/BrowCam.20240901_002151003.jpg","UserSelect","/UserSelect.20240901_002151003.jpg","","","-999.99","6.02","-999.99","-999.99","66d3b39ff9835f001a8065a7"
"2024-09-01T00:22:06.037Z","45.9166774","-130.0250264","ASNAP","","admin","","","","","","","","","","","","","","-2.05","1.19","-0.9","-4.7","278.90","328.12","0.58","SciCam","/SciCam.20240901_002206037.jpg","PilotCam","/PilotCam.20240901_002206037.jpg","BrowCam","/BrowCam.20240901_002206037.jpg","UserSelect","/UserSelect.20240901_002206037.jpg","","","-999.99","5.92","-999.99","-999.99","66d3b3aef9835f001a8065ab"
"2024-09-01T00:22:21.068Z","45.9166773","-130.0250267","ASNAP","","admin","","","","","","","","","","","","","","-2.07","1.18","0.0","-3.2","279.06","336.49","0.58","SciCam","/SciCam.20240901_002221068.jpg","PilotCam","/PilotCam.20240901_002221068.jpg","BrowCam","/BrowCam.20240901_002221068.jpg","UserSelect","/UserSelect.20240901_002221068.jpg","","","-999.99","5.77","-999.99","-999.99","66d3b3bdf9835f001a8065af"
"2024-09-01T00:22:36.095Z","45.9166772","-130.0250267","ASNAP","","admin","","","","","","","","","","","","","","-2.07","1.17","-0.4","-3.4","278.63","343.54","0.58","SciCam","/SciCam.20240901_002236095.jpg","PilotCam","/PilotCam.20240901_002236095.jpg","BrowCam","/BrowCam.20240901_002236095.jpg","UserSelect","/UserSelect.20240901_002236095.jpg","","","-999.99","5.76","-999.99","-999.99","66d3b3ccf9835f001a8065b3"
"2024-09-01T00:22:51.124Z","45.9166770","-130.0250268","ASNAP","","admin","","","","","","","","","","","","","","-2.08","1.15","0.6","-2.5","278.40","351.45","0.58","SciCam","/SciCam.20240901_002251124.jpg","PilotCam","/PilotCam.20240901_002251124.jpg","BrowCam","/BrowCam.20240901_002251124.jpg","UserSelect","/UserSelect.20240901_002251124.jpg","","","-999.99","5.81","-999.99","-999.99","66d3b3dbf9835f001a8065b7"
"2024-09-01T00:23:06.153Z","45.9166775","-130.0250266","ASNAP","","admin","","","","","","","","","","","","","","-2.06","1.20","-0.6","-3.2","279.26","358.63","0.58","SciCam","/SciCam.20240901_002306153.jpg","PilotCam","/PilotCam.20240901_002306153.jpg","BrowCam","/BrowCam.20240901_002306153.jpg","UserSelect","/UserSelect.20240901_002306153.jpg","","","-999.99","5.61","-999.99","-999.99","66d3b3eaf9835f001a8065bb"
"2024-09-01T00:23:21.178Z","45.9166771","-130.0250267","ASNAP","","admin","","","","","","","","","","","","","","-2.07","1.16","-0.4","-3.8","278.61","366.16","0.58","SciCam","/SciCam.20240901_002321178.jpg","PilotCam","/PilotCam.20240901_002321178.jpg","BrowCam","/BrowCam.20240901_002321178.jpg","UserSelect","/UserSelect.20240901_002321178.jpg","","","-999.99","5.58","-999.99","-999.99","66d3b3f9f9835f001a8065bf"
"2024-09-01T00:23:36.211Z","45.9166771","-130.0250267","ASNAP","","admin","","","","","","","","","","","","","","-2.07","1.16","-0.2","-3.2","278.60","373.55","0.58","SciCam","/SciCam.20240901_002336211.jpg","PilotCam","/PilotCam.20240901_002336211.jpg","BrowCam","/BrowCam.20240901_002336211.jpg","UserSelect","/UserSelect.20240901_002336211.jpg","","","-999.99","5.67","-999.99","-999.99","66d3b408f9835f001a8065c3"
