Date/Time (UTC),vehicleRealtimeNavData.latitude (ddeg),vehicleRealtimeNavData.longitude (ddeg),event_value,event_free_text,event_author,event_option.milestone,event_option.type,event_option.actions,event_option.event_comment,event_option.filename,vehicleRealtimeNavData.local_x (meters),vehicleRealtimeNavData.local_y (meters),vehicleRealtimeNavData.roll (deg),vehicleRealtimeNavData.pitch (deg),vehicleRealtimeNavData.heading (deg),vehicleRealtimeNavData.depth (meters),vehicleRealtimeNavData.altitude (meters),vehicleRealtimeFramegrabberData.camera_name_1,vehicleRealtimeFramegrabberData.filename_1,vehicleRealtimeFramegrabberData.camera_name_2,vehicleRealtimeFramegrabberData.filename_2,vehicleRealtimeFramegrabberData.camera_name_3,vehicleRealtimeFramegrabberData.filename_3,vehicleRealtimeFramegrabberData.camera_name_4,vehicleRealtimeFramegrabberData.filename_4,vehicleReNavData.pitch (deg),vehicleReNavData.roll (deg),vehicleTemperatureProbe.probe1_temperature (degC),vehicleTemperatureProbe.probe2_temperature (degC),vehicleTemperatureProbe.probe3_temperature (degC),vehicleTemperatureProbe.probe4_temperature (degC),id
"2024-08-09T10:33:01.652Z","44.5017758","-125.4085568","ASNAP","","admin","","","","","","1.83","-1.38","0.0","-0.9","150.39","0.85","0.58","SciCam","/SciCam.20240809_103301652.jpg","PilotCam","/PilotCam.20240809_103301652.jpg","BrowCam","/BrowCam.20240809_103301652.jpg","UserSelect","/UserSelect.20240809_103301652.jpg","","","-999.99","16.30","-999.99","-999.99","66b5f05d2969d9001acb7ad3"
"2024-08-09T10:33:31.701Z","44.5017758","-125.4085568","ASNAP","","admin","","","","","","1.83","-1.38","-0.7","-1.3","149.92","0.88","0.58","SciCam","/SciCam.20240809_103331701.jpg","PilotCam","/PilotCam.20240809_103331701.jpg","BrowCam","/BrowCam.20240809_103331701.jpg","UserSelect","/UserSelect.20240809_103331701.jpg","","","-999.99","16.32","-999.99","-999.99","66b5f07b2969d9001acb7ad7"
"2024-08-09T10:34:01.748Z","44.5017758","-125.4085568","ASNAP","","admin","","","","","","1.83","-1.38","-0.6","-0.4","150.27","0.88","0.58","SciCam","/SciCam.20240809_103401748.jpg","PilotCam","/PilotCam.20240809_103401748.jpg","BrowCam","/BrowCam.20240809_103401748.jpg","UserSelect","/UserSelect.20240809_103401748.jpg","","","-999.99","16.31","-999.99","-999.99","66b5f0992969d9001acb7adb"
"2024-08-09T10:34:31.772Z","44.5017758","-125.4085568","ASNAP","","admin","","","","","","1.83","-1.38","0.0","-1.1","150.34","0.86","0.58","SciCam","/SciCam.20240809_103431772.jpg","PilotCam","/PilotCam.20240809_103431772.jpg","BrowCam","/BrowCam.20240809_103431772.jpg","UserSelect","/UserSelect.20240809_103431772.jpg","","","-999.99","16.30","-999.99","-999.99","66b5f0b72969d9001acb7adf"
"2024-08-09T10:35:01.822Z","44.5017758","-125.4085568","ASNAP","","admin","","","","","","1.83","-1.38","-0.9","-0.8","149.88","0.89","0.58","SciCam","/SciCam.20240809_103501822.jpg","PilotCam","/PilotCam.20240809_103501822.jpg","BrowCam","/BrowCam.20240809_103501822.jpg","UserSelect","/UserSelect.20240809_103501822.jpg","","","-999.99","16.30","-999.99","-999.99","66b5f0d52969d9001acb7ae3"
"2024-08-09T10:35:31.875Z","44.5017758","-125.4085568","ASNAP","","admin","","","","","","1.83","-1.38","-0.6","-1.0","150.01","0.88","0.58","SciCam","/SciCam.20240809_103531875.jpg","PilotCam","/PilotCam.20240809_103531875.jpg","BrowCam","/BrowCam.20240809_103531875.jpg","UserSelect","/UserSelect.20240809_103531875.jpg","","","-999.99","16.30","-999.99","-999.99","66b5f0f32969d9001acb7ae7"
"2024-08-09T10:36:01.925Z","44.5017758","-125.4085568","ASNAP","","admin","","","","","","1.83","-1.38","-0.5","-1.5","149.94","0.89","0.58","SciCam","/SciCam.20240809_103601925.jpg","PilotCam","/PilotCam.20240809_103601925.jpg","BrowCam","/BrowCam.20240809_103601925.jpg","UserSelect","/UserSelect.20240809_103601925.jpg","","","-999.99","16.31","-999.99","-999.99","66b5f1112969d9001acb7aeb"
"2024-08-09T10:36:31.945Z","44.5017758","-125.4085568","ASNAP","","admin","","","","","","1.83","-1.38","-0.4","0.3","150.38","0.87","0.58","SciCam","/SciCam.20240809_103631945.jpg","PilotCam","/PilotCam.20240809_103631945.jpg","BrowCam","/BrowCam.20240809_103631945.jpg","UserSelect","/UserSelect.20240809_103631945.jpg","","","-999.99","16.30","-999.99","-999.99","66b5f12f2969d9001acb7aef"
"2024-08-09T10:37:01.993Z","44.5017758","-125.4085568","ASNAP","","admin","","","","","","1.83","-1.38","-0.2","-0.3","151.01","0.88","0.58","SciCam","/SciCam.20240809_103701993.jpg","PilotCam","/PilotCam.20240809_103701993.jpg","BrowCam","/BrowCam.20240809_103701993.jpg","UserSelect","/UserSelect.20240809_103701993.jpg","","","-999.99","16.28","-999.99","-999.99","66b5f14d2969d9001acb7af3"
"2024-08-09T10:37:32.036Z","44.5017758","-125.4085568","ASNAP","","admin","","","","","","1.83","-1.38","-0.9","-1.6","150.27","0.89","0.58","SciCam","/SciCam.20240809_103732036.jpg","PilotCam","/PilotCam.20240809_103732036.jpg","BrowCam","/BrowCam.20240809_103732036.jpg","UserSelect","/UserSelect.20240809_103732036.jpg","","","-999.99","16.30","-999.99","-999.99","66b5f16c2969d9001acb7af7"
"2024-08-09T10:38:02.083Z","44.5017758","-125.4085568","ASNAP","","admin","","","","","","1.83","-1.38","-0.9","-0.4","150.03","0.90","0.58","SciCam","/SciCam.20240809_103802083.jpg","PilotCam","/PilotCam.20240809_103802083.jpg","BrowCam","/BrowCam.20240809_103802083.jpg","UserSelect","/UserSelect.20240809_103802083.jpg","","","-999.99","16.28","-999.99","-999.99","66b5f18a2969d9001acb7afb"
"2024-08-09T10:38:32.128Z","44.5017758","-125.4085568","ASNAP","","admin","","","","","","1.83","-1.38","-0.2","-2.1","150.98","0.90","0.58","SciCam","/SciCam.20240809_103832128.jpg","PilotCam","/PilotCam.20240809_103832128.jpg","BrowCam","/BrowCam.20240809_103832128.jpg","UserSelect","/UserSelect.20240809_103832128.jpg","","","-999.99","16.27","-999.99","-999.99","66b5f1a82969d9001acb7aff"
"2024-08-09T10:39:02.176Z","44.5017758","-125.4085568","ASNAP","","admin","","","","","","1.83","-1.38","-1.2","0.2","150.84","0.89","0.58","SciCam","/SciCam.20240809_103902176.jpg","PilotCam","/PilotCam.20240809_103902176.jpg","BrowCam","/BrowCam.20240809_103902176.jpg","UserSelect","/UserSelect.20240809_103902176.jpg","","","-999.99","16.28","-999.99","-999.99","66b5f1c62969d9001acb7b03"
"2024-08-09T10:39:32.220Z","44.5017758","-125.4085568","ASNAP","","admin","","","","","","1.83","-1.38","0.1","-2.3","147.00","0.91","0.58","SciCam","/SciCam.20240809_103932220.jpg","PilotCam","/PilotCam.20240809_103932220.jpg","BrowCam","/BrowCam.20240809_103932220.jpg","UserSelect","/UserSelect.20240809_103932220.jpg","","","-999.99","16.27","-999.99","-999.99","66b5f1e42969d9001acb7b07"
"2024-08-09T10:39:46.065Z","44.5017758","-125.4085568","VEHICLE","","guest","Jason off deck","","","","","1.83","-1.38","0.1","-0.6","147.22","0.91","0.58","SciCam","/SciCam.20240809_103946065.jpg","PilotCam","/PilotCam.20240809_103946065.jpg","BrowCam","/BrowCam.20240809_103946065.jpg","UserSelect","/UserSelect.20240809_103946065.jpg","","","-999.99","16.29","-999.99","-999.99","66b5f1f22969d9001acb7b0b"
"2024-08-09T10:40:02.268Z","44.5017758","-125.4085568","ASNAP","","admin","","","","","","1.83","-1.38","-0.0","-1.3","147.63","0.89","0.58","SciCam","/SciCam.20240809_104002268.jpg","PilotCam","/PilotCam.20240809_104002268.jpg","BrowCam","/BrowCam.20240809_104002268.jpg","UserSelect","/UserSelect.20240809_104002268.jpg","","","-999.99","16.29","-999.99","-999.99","66b5f2022969d9001acb7b0f"
"2024-08-09T10:40:32.314Z","44.5017758","-125.4085568","ASNAP","","admin","","","","","","1.83","-1.38","-1.0","-1.1","244.04","0.90","0.58","SciCam","/SciCam.20240809_104032314.jpg","PilotCam","/PilotCam.20240809_104032314.jpg","BrowCam","/BrowCam.20240809_104032314.jpg","UserSelect","/UserSelect.20240809_104032314.jpg","","","-999.99","16.28","-999.99","-999.99","66b5f2202969d9001acb7b13"
"2024-08-09T10:41:02.333Z","44.5017758","-125.4085568","ASNAP","","admin","","","","","","1.83","-1.38","-1.2","-4.0","243.41","0.95","0.58","SciCam","/SciCam.20240809_104102333.jpg","PilotCam","/PilotCam.20240809_104102333.jpg","BrowCam","/BrowCam.20240809_104102333.jpg","UserSelect","/UserSelect.20240809_104102333.jpg","","","-999.99","16.28","-999.99","-999.99","66b5f23e2969d9001acb7b17"
"2024-08-09T10:41:32.358Z","44.5017758","-125.4085568","ASNAP","","admin","","","","","","1.83","-1.38","-1.1","-0.4","231.73","0.91","0.58","SciCam","/SciCam.20240809_104132358.jpg","PilotCam","/PilotCam.20240809_104132358.jpg","BrowCam","/BrowCam.20240809_104132358.jpg","UserSelect","/UserSelect.20240809_104132358.jpg","","","-999.99","16.27","-999.99","-999.99","66b5f25c2969d9001acb7b1b"
"2024-08-09T10:41:36.249Z","44.5017758","-125.4085568","VEHICLE","","guest","Jason in water","","","","","1.83","-1.38","-0.7","-0.7","221.64","0.87","0.58","SciCam","/SciCam.20240809_104136249.jpg","PilotCam","/PilotCam.20240809_104136249.jpg","BrowCam","/BrowCam.20240809_104136249.jpg","UserSelect","/UserSelect.20240809_104136249.jpg","","","-999.99","16.30","-999.99","-999.99","66b5f2602969d9001acb7b1f"
"2024-08-09T10:42:02.407Z","44.5017758","-125.4085568","ASNAP","","admin","","","","","","1.83","-1.38","-0.1","-6.7","236.34","2.45","0.58","SciCam","/SciCam.20240809_104202407.jpg","PilotCam","/PilotCam.20240809_104202407.jpg","BrowCam","/BrowCam.20240809_104202407.jpg","UserSelect","/UserSelect.20240809_104202407.jpg","","","-999.99","17.24","-999.99","-999.99","66b5f27a2969d9001acb7b23"
"2024-08-09T10:42:32.448Z","44.5017758","-125.4085568","ASNAP","","admin","","","","","","1.83","-1.38","2.3","-3.8","238.51","3.02","0.58","SciCam","/SciCam.20240809_104232448.jpg","PilotCam","/PilotCam.20240809_104232448.jpg","BrowCam","/BrowCam.20240809_104232448.jpg","UserSelect","/UserSelect.20240809_104232448.jpg","","","-999.99","17.76","-999.99","-999.99","66b5f2982969d9001acb7b27"
"2024-08-09T10:42:36.788Z","44.5017758","-125.4085568","Biology Type","","guest","","Fish","","","","1.83","-1.38","-2.9","-6.2","238.64","3.25","0.58","SciCam","/SciCam.20240809_104236788.jpg","PilotCam","/PilotCam.20240809_104236788.jpg","BrowCam","/BrowCam.20240809_104236788.jpg","UserSelect","/UserSelect.20240809_104236788.jpg","","","-999.99","17.90","-999.99","-999.99","66b5f29c2969d9001acb7b2b"
"2024-08-09T10:43:02.497Z","44.5017758","-125.4085568","ASNAP","","admin","","","","","","1.83","-1.38","-3.4","-1.7","239.74","5.10","0.58","SciCam","/SciCam.20240809_104302497.jpg","PilotCam","/PilotCam.20240809_104302497.jpg","BrowCam","/BrowCam.20240809_104302497.jpg","UserSelect","/UserSelect.20240809_104302497.jpg","","","-999.99","17.79","-999.99","-999.99","66b5f2b62969d9001acb7b2f"
"2024-08-09T10:43:11.274Z","44.5017758","-125.4085568","FREE_FORM","CTD turned on","guest","","","","","","1.83","-1.38","2.2","-2.8","235.79","4.72","0.58","SciCam","/SciCam.20240809_104311274.jpg","PilotCam","/PilotCam.20240809_104311274.jpg","BrowCam","/BrowCam.20240809_104311274.jpg","UserSelect","/UserSelect.20240809_104311274.jpg","","","-999.99","17.78","-999.99","-999.99","66b5f2bf2969d9001acb7b33"
"2024-08-09T10:43:32.544Z","44.5017758","-125.4085568","ASNAP","","admin","","","","","","1.83","-1.38","-0.1","-5.3","235.64","4.93","0.58","SciCam","/SciCam.20240809_104332544.jpg","PilotCam","/PilotCam.20240809_104332544.jpg","BrowCam","/BrowCam.20240809_104332544.jpg","UserSelect","/UserSelect.20240809_104332544.jpg","","","-999.99","17.76","-999.99","-999.99","66b5f2d42969d9001acb7b37"
"2024-08-09T10:44:02.591Z","44.5017758","-125.4085568","ASNAP","","admin","","","","","","1.83","-1.38","-2.5","-2.8","239.46","4.65","0.58","SciCam","/SciCam.20240809_104402591.jpg","PilotCam","/PilotCam.20240809_104402591.jpg","BrowCam","/BrowCam.20240809_104402591.jpg","UserSelect","/UserSelect.20240809_104402591.jpg","","","-999.99","17.80","-999.99","-999.99","66b5f2f22969d9001acb7b3b"
"2024-08-09T10:44:32.618Z","44.5017758","-125.4085568","ASNAP","","admin","","","","","","1.83","-1.38","-3.0","-3.9","236.29","4.95","0.58","SciCam","/SciCam.20240809_104432618.jpg","PilotCam","/PilotCam.20240809_104432618.jpg","BrowCam","/BrowCam.20240809_104432618.jpg","UserSelect","/UserSelect.20240809_104432618.jpg","","","-999.99","17.88","-999.99","-999.99","66b5f3102969d9001acb7b3f"
"2024-08-09T10:44:43.307Z","44.5017758","-125.4085568","ROV Actions","first on","guest","","","First Football on","","","1.83","-1.38","2.3","-2.6","235.18","4.81","0.58","SciCam","/SciCam.20240809_104443307.jpg","PilotCam","/PilotCam.20240809_104443307.jpg","BrowCam","/BrowCam.20240809_104443307.jpg","UserSelect","/UserSelect.20240809_104443307.jpg","","","-999.99","17.71","-999.99","-999.99","66b5f31b2969d9001acb7b47"
"2024-08-09T10:45:02.664Z","44.5017758","-125.4085568","ASNAP","","admin","","","","","","1.83","-1.38","-2.8","-3.5","235.64","5.06","0.58","SciCam","/SciCam.20240809_104502664.jpg","PilotCam","/PilotCam.20240809_104502664.jpg","BrowCam","/BrowCam.20240809_104502664.jpg","UserSelect","/UserSelect.20240809_104502664.jpg","","","-999.99","17.88","-999.99","-999.99","66b5f32e2969d9001acb7b4b"
"2024-08-09T10:45:25.717Z","44.5017758","-125.4085568","ROV Actions","last on","guest","","","Last Football on","","","1.83","-1.38","-1.3","-4.2","236.41","9.66","0.58","SciCam","/SciCam.20240809_104525717.jpg","PilotCam","/PilotCam.20240809_104525717.jpg","BrowCam","/BrowCam.20240809_104525717.jpg","UserSelect","/UserSelect.20240809_104525717.jpg","","","-999.99","17.94","-999.99","-999.99","66b5f3452969d9001acb7b4f"
"2024-08-09T10:45:32.708Z","44.5017758","-125.4085568","ASNAP","","admin","","","","","","1.83","-1.38","-0.4","-3.7","235.36","11.24","0.58","SciCam","/SciCam.20240809_104532708.jpg","PilotCam","/PilotCam.20240809_104532708.jpg","BrowCam","/BrowCam.20240809_104532708.jpg","UserSelect","/UserSelect.20240809_104532708.jpg","","","-999.99","17.81","-999.99","-999.99","66b5f34c2969d9001acb7b53"
"2024-08-09T10:46:02.754Z","44.5017758","-125.4085568","ASNAP","","admin","","","","","","1.83","-1.38","-0.7","-3.2","234.36","13.70","0.58","SciCam","/SciCam.20240809_104602754.jpg","PilotCam","/PilotCam.20240809_104602754.jpg","BrowCam","/BrowCam.20240809_104602754.jpg","UserSelect","/UserSelect.20240809_104602754.jpg","","","-999.99","17.80","-999.99","-999.99","66b5f36a2969d9001acb7b57"
"2024-08-09T10:46:32.774Z","44.5017758","-125.4085568","ASNAP","","admin","","","","","","1.83","-1.38","-0.3","-2.2","235.89","13.72","0.58","SciCam","/SciCam.20240809_104632774.jpg","PilotCam","/PilotCam.20240809_104632774.jpg","BrowCam","/BrowCam.20240809_104632774.jpg","UserSelect","/UserSelect.20240809_104632774.jpg","","","-999.99","17.92","-999.99","-999.99","66b5f3882969d9001acb7b5b"
"2024-08-09T10:47:02.821Z","44.5017758","-125.4085568","ASNAP","","admin","","","","","","1.83","-1.38","-0.5","-4.5","235.97","13.86","0.58","SciCam","/SciCam.20240809_104702821.jpg","PilotCam","/PilotCam.20240809_104702821.jpg","BrowCam","/BrowCam.20240809_104702821.jpg","UserSelect","/UserSelect.20240809_104702821.jpg","","","-999.99","17.69","-999.99","-999.99","66b5f3a62969d9001acb7b5f"
"2024-08-09T10:47:32.867Z","44.5017758","-125.4085568","ASNAP","","admin","","","","","","1.83","-1.38","1.3","-4.1","235.52","20.90","0.58","SciCam","/SciCam.20240809_104732867.jpg","PilotCam","/PilotCam.20240809_104732867.jpg","BrowCam","/BrowCam.20240809_104732867.jpg","UserSelect","/UserSelect.20240809_104732867.jpg","","","-999.99","17.80","-999.99","-999.99","66b5f3c42969d9001acb7b63"
"2024-08-09T10:47:53.152Z","44.5017758","-125.4085568","Biology Type","","guest","","Fish","","","","1.83","-1.38","0.0","-4.6","233.74","19.90","0.58","SciCam","/SciCam.20240809_104753152.jpg","PilotCam","/PilotCam.20240809_104753152.jpg","BrowCam","/BrowCam.20240809_104753152.jpg","UserSelect","/UserSelect.20240809_104753152.jpg","","","-999.99","17.89","-999.99","-999.99","66b5f3d92969d9001acb7b67"
"2024-08-09T10:48:02.913Z","44.5017758","-125.4085568","ASNAP","","admin","","","","","","1.83","-1.38","-1.2","-3.7","235.80","20.23","0.58","SciCam","/SciCam.20240809_104802913.jpg","PilotCam","/PilotCam.20240809_104802913.jpg","BrowCam","/BrowCam.20240809_104802913.jpg","UserSelect","/UserSelect.20240809_104802913.jpg","","","-999.99","17.75","-999.99","-999.99","66b5f3e22969d9001acb7b6b"
"2024-08-09T10:48:32.957Z","44.5017758","-125.4085568","ASNAP","","admin","","","","","","1.83","-1.38","-0.4","-3.5","235.63","20.18","0.58","SciCam","/SciCam.20240809_104832957.jpg","PilotCam","/PilotCam.20240809_104832957.jpg","BrowCam","/BrowCam.20240809_104832957.jpg","UserSelect","/UserSelect.20240809_104832957.jpg","","","-999.99","17.68","-999.99","-999.99","66b5f4002969d9001acb7b6f"
"2024-08-09T10:49:03.004Z","44.5017758","-125.4085568","ASNAP","","admin","","","","","","1.83","-1.38","-0.4","-4.6","235.49","20.11","0.58","SciCam","/SciCam.20240809_104903004.jpg","PilotCam","/PilotCam.20240809_104903004.jpg","BrowCam","/BrowCam.20240809_104903004.jpg","UserSelect","/UserSelect.20240809_104903004.jpg","","","-999.99","17.83","-999.99","-999.99","66b5f41f2969d9001acb7b73"
"2024-08-09T10:49:33.024Z","44.5017758","-125.4085568","ASNAP","","admin","","","","","","1.83","-1.38","-0.4","-3.5","235.96","20.38","0.58","SciCam","/SciCam.20240809_104933024.jpg","PilotCam","/PilotCam.20240809_104933024.jpg","BrowCam","/BrowCam.20240809_104933024.jpg","UserSelect","/UserSelect.20240809_104933024.jpg","","","-999.99","17.84","-999.99","-999.99","66b5f43d2969d9001acb7b77"
"2024-08-09T10:50:03.068Z","44.5017758","-125.4085568","ASNAP","","admin","","","","","","1.83","-1.38","0.2","-3.8","236.13","24.45","0.58","SciCam","/SciCam.20240809_105003068.jpg","PilotCam","/PilotCam.20240809_105003068.jpg","BrowCam","/BrowCam.20240809_105003068.jpg","UserSelect","/UserSelect.20240809_105003068.jpg","","","-999.99","17.84","-999.99","-999.99","66b5f45b2969d9001acb7b7b"
"2024-08-09T10:50:33.084Z","44.5017758","-125.4085568","ASNAP","","admin","","","","","","1.83","-1.38","-0.1","-4.6","240.55","25.78","0.58","SciCam","/SciCam.20240809_105033084.jpg","PilotCam","/PilotCam.20240809_105033084.jpg","BrowCam","/BrowCam.20240809_105033084.jpg","UserSelect","/UserSelect.20240809_105033084.jpg","","","-999.99","17.52","-999.99","-999.99","66b5f4792969d9001acb7b7f"
"2024-08-09T10:51:03.128Z","44.5017758","-125.4085568","ASNAP","","admin","","","","","","1.83","-1.38","-0.1","-3.5","239.86","25.66","0.58","SciCam","/SciCam.20240809_105103128.jpg","PilotCam","/PilotCam.20240809_105103128.jpg","BrowCam","/BrowCam.20240809_105103128.jpg","UserSelect","/UserSelect.20240809_105103128.jpg","","","-999.99","16.25","-999.99","-999.99","66b5f4972969d9001acb7b83"
"2024-08-09T10:51:33.172Z","44.5017758","-125.4085568","ASNAP","","admin","","","","","","1.83","-1.38","-0.3","-2.8","238.89","36.47","0.58","SciCam","/SciCam.20240809_105133172.jpg","PilotCam","/PilotCam.20240809_105133172.jpg","BrowCam","/BrowCam.20240809_105133172.jpg","UserSelect","/UserSelect.20240809_105133172.jpg","","","-999.99","15.61","-999.99","-999.99","66b5f4b52969d9001acb7b87"
"2024-08-09T10:52:03.216Z","44.5017758","-125.4085568","ASNAP","","admin","","","","","","1.83","-1.38","-0.1","-4.7","239.19","46.01","0.58","SciCam","/SciCam.20240809_105203216.jpg","PilotCam","/PilotCam.20240809_105203216.jpg","BrowCam","/BrowCam.20240809_105203216.jpg","UserSelect","/UserSelect.20240809_105203216.jpg","","","-999.99","13.63","-999.99","-999.99","66b5f4d32969d9001acb7b8b"
"2024-08-09T10:52:33.252Z","44.5017758","-125.4085568","ASNAP","","admin","","","","","","1.83","-1.38","-0.4","-5.4","238.98","54.42","0.58","SciCam","/SciCam.20240809_105233252.jpg","PilotCam","/PilotCam.20240809_105233252.jpg","BrowCam","/BrowCam.20240809_105233252.jpg","UserSelect","/UserSelect.20240809_105233252.jpg","","","-999.99","11.93","-999.99","-999.99","66b5f4f12969d9001acb7b8f"
"2024-08-09T10:53:03.293Z","44.5017758","-125.4085568","ASNAP","","admin","","","","","","1.83","-1.38","-0.5","-4.7","240.08","55.89","0.58","SciCam","/SciCam.20240809_105303293.jpg","PilotCam","/PilotCam.20240809_105303293.jpg","BrowCam","/BrowCam.20240809_105303293.jpg","UserSelect","/UserSelect.20240809_105303293.jpg","","","-999.99","10.68","-999.99","-999.99","66b5f50f2969d9001acb7b93"
"2024-08-09T10:53:33.339Z","44.5017758","-125.4085568","ASNAP","","admin","","","","","","1.83","-1.38","-0.6","-5.5","235.46","65.83","0.58","SciCam","/SciCam.20240809_105333339.jpg","PilotCam","/PilotCam.20240809_105333339.jpg","BrowCam","/BrowCam.20240809_105333339.jpg","UserSelect","/UserSelect.20240809_105333339.jpg","","","-999.99","10.35","-999.99","-999.99","66b5f52d2969d9001acb7b97"
"2024-08-09T10:54:03.383Z","44.5017758","-125.4085568","ASNAP","","admin","","","","","","1.83","-1.38","-1.0","-3.5","252.61","69.77","0.58","SciCam","/SciCam.20240809_105403383.jpg","PilotCam","/PilotCam.20240809_105403383.jpg","BrowCam","/BrowCam.20240809_105403383.jpg","UserSelect","/UserSelect.20240809_105403383.jpg","","","-999.99","9.83","-999.99","-999.99","66b5f54b2969d9001acb7b9b"
"2024-08-09T10:54:33.428Z","44.5017758","-125.4085568","ASNAP","","admin","","","","","","1.83","-1.38","0.6","-2.2","252.39","85.21","0.58","SciCam","/SciCam.20240809_105433428.jpg","PilotCam","/PilotCam.20240809_105433428.jpg","BrowCam","/BrowCam.20240809_105433428.jpg","UserSelect","/UserSelect.20240809_105433428.jpg","","","-999.99","9.41","-999.99","-999.99","66b5f5692969d9001acb7b9f"
"2024-08-09T10:55:03.445Z","44.5017758","-125.4085568","ASNAP","","admin","","","","","","1.83","-1.38","0.4","-4.9","251.80","100.73","0.58","SciCam","/SciCam.20240809_105503445.jpg","PilotCam","/PilotCam.20240809_105503445.jpg","BrowCam","/BrowCam.20240809_105503445.jpg","UserSelect","/UserSelect.20240809_105503445.jpg","","","-999.99","8.83","-999.99","-999.99","66b5f5872969d9001acb7ba3"
"2024-08-09T10:55:33.473Z","44.5017758","-125.4085568","ASNAP","","admin","","","","","","1.83","-1.38","-0.3","-4.8","252.69","104.15","0.58","SciCam","/SciCam.20240809_105533473.jpg","PilotCam","/PilotCam.20240809_105533473.jpg","BrowCam","/BrowCam.20240809_105533473.jpg","UserSelect","/UserSelect.20240809_105533473.jpg","","","-999.99","8.31","-999.99","-999.99","66b5f5a52969d9001acb7ba7"
"2024-08-09T10:56:03.521Z","44.5017758","-125.4085568","ASNAP","","admin","","","","","","1.83","-1.38","0.2","-4.3","252.11","107.72","0.58","SciCam","/SciCam.20240809_105603521.jpg","PilotCam","/PilotCam.20240809_105603521.jpg","BrowCam","/BrowCam.20240809_105603521.jpg","UserSelect","/UserSelect.20240809_105603521.jpg","","","-999.99","7.97","-999.99","-999.99","66b5f5c32969d9001acb7bab"
"2024-08-09T10:56:33.544Z","44.5017758","-125.4085568","ASNAP","","admin","","","","","","1.83","-1.38","0.1","-4.4","251.52","121.40","0.58","SciCam","/SciCam.20240809_105633544.jpg","PilotCam","/PilotCam.20240809_105633544.jpg","BrowCam","/BrowCam.20240809_105633544.jpg","UserSelect","/UserSelect.20240809_105633544.jpg","","","-999.99","8.15","-999.99","-999.99","66b5f5e12969d9001acb7baf"
"2024-08-09T10:57:03.587Z","44.5017758","-125.4085568","ASNAP","","admin","","","","","","1.83","-1.38","-0.3","-5.0","252.43","125.43","0.58","SciCam","/SciCam.20240809_105703587.jpg","PilotCam","/PilotCam.20240809_105703587.jpg","BrowCam","/BrowCam.20240809_105703587.jpg","UserSelect","/UserSelect.20240809_105703587.jpg","","","-999.99","8.21","-999.99","-999.99","66b5f5ff2969d9001acb7bb6"
"2024-08-09T10:57:33.632Z","44.5017758","-125.4085568","ASNAP","","admin","","","","","","1.83","-1.38","-0.5","-4.8","252.52","125.42","0.58","SciCam","/SciCam.20240809_105733632.jpg","PilotCam","/PilotCam.20240809_105733632.jpg","BrowCam","/BrowCam.20240809_105733632.jpg","UserSelect","/UserSelect.20240809_105733632.jpg","","","-999.99","8.37","-999.99","-999.99","66b5f61d2969d9001acb7bbf"
"2024-08-09T10:58:03.668Z","44.5017758","-125.4085568","ASNAP","","admin","","","","","","1.83","-1.38","0.0","-5.1","252.57","125.33","0.58","SciCam","/SciCam.20240809_105803668.jpg","PilotCam","/PilotCam.20240809_105803668.jpg","BrowCam","/BrowCam.20240809_105803668.jpg","UserSelect","/UserSelect.20240809_105803668.jpg","","","-999.99","7.88","-999.99","-999.99","66b5f63b2969d9001acb7bc3"
"2024-08-09T10:58:10.161Z","44.5017758","-125.4085568","ROV Actions","beacon on","guest","","","Transponder on","","","1.83","-1.38","-0.4","-5.1","252.55","125.52","0.58","SciCam","/SciCam.20240809_105810161.jpg","PilotCam","/PilotCam.20240809_105810161.jpg","BrowCam","/BrowCam.20240809_105810161.jpg","UserSelect","/UserSelect.20240809_105810161.jpg","","","-999.99","8.29","-999.99","-999.99","66b5f6422969d9001acb7bc7"
"2024-08-09T10:58:33.714Z","44.5017758","-125.4085568","ASNAP","","admin","","","","","","1.83","-1.38","-0.5","-4.6","255.33","126.92","0.58","SciCam","/SciCam.20240809_105833714.jpg","PilotCam","/PilotCam.20240809_105833714.jpg","BrowCam","/BrowCam.20240809_105833714.jpg","UserSelect","/UserSelect.20240809_105833714.jpg","","","-999.99","8.35","-999.99","-999.99","66b5f6592969d9001acb7bcb"
"2024-08-09T10:58:38.582Z","44.5017758","-125.4085568","Biology Type","","guest","","Squid","","","","1.83","-1.38","-0.7","-3.6","251.80","128.00","0.58","SciCam","/SciCam.20240809_105838582.jpg","PilotCam","/PilotCam.20240809_105838582.jpg","BrowCam","/BrowCam.20240809_105838582.jpg","UserSelect","/UserSelect.20240809_105838582.jpg","","","-999.99","8.29","-999.99","-999.99","66b5f65e2969d9001acb7bcf"
"2024-08-09T10:59:03.760Z","44.5017758","-125.4085568","ASNAP","","admin","","","","","","1.83","-1.38","-0.6","-3.9","253.78","132.70","0.58","SciCam","/SciCam.20240809_105903760.jpg","PilotCam","/PilotCam.20240809_105903760.jpg","BrowCam","/BrowCam.20240809_105903760.jpg","UserSelect","/UserSelect.20240809_105903760.jpg","","","-999.99","8.34","-999.99","-999.99","66b5f6772969d9001acb7bd3"
"2024-08-09T10:59:33.788Z","44.5017758","-125.4085568","ASNAP","","admin","","","","","","1.83","-1.38","-0.5","-5.1","240.92","142.54","0.58","SciCam","/SciCam.20240809_105933788.jpg","PilotCam","/PilotCam.20240809_105933788.jpg","BrowCam","/BrowCam.20240809_105933788.jpg","UserSelect","/UserSelect.20240809_105933788.jpg","","","-999.99","8.22","-999.99","-999.99","66b5f6952969d9001acb7bd7"
"2024-08-09T11:00:03.835Z","44.5017758","-125.4085568","ASNAP","","admin","","","","","","1.83","-1.38","-0.4","-4.9","240.16","143.83","0.58","SciCam","/SciCam.20240809_110003835.jpg","PilotCam","/PilotCam.20240809_110003835.jpg","BrowCam","/BrowCam.20240809_110003835.jpg","UserSelect","/UserSelect.20240809_110003835.jpg","","","-999.99","8.15","-999.99","-999.99","66b5f6b32969d9001acb7bdb"
"2024-08-09T11:00:33.878Z","44.5017758","-125.4085568","ASNAP","","admin","","","","","","1.83","-1.38","-0.7","-5.4","239.47","143.55","0.58","SciCam","/SciCam.20240809_110033878.jpg","PilotCam","/PilotCam.20240809_110033878.jpg","BrowCam","/BrowCam.20240809_110033878.jpg","UserSelect","/UserSelect.20240809_110033878.jpg","","","-999.99","8.24","-999.99","-999.99","66b5f6d12969d9001acb7bdf"
"2024-08-09T11:00:35.876Z","44.5017758","-125.4085568","FREE_FORM","Control of winch","guest","","","","","","1.83","-1.38","-1.6","-5.9","241.07","143.66","0.58","SciCam","/SciCam.20240809_110035876.jpg","PilotCam","/PilotCam.20240809_110035876.jpg","BrowCam","/BrowCam.20240809_110035876.jpg","UserSelect","/UserSelect.20240809_110035876.jpg","","","-999.99","8.07","-999.99","-999.99","66b5f6d32969d9001acb7be3"
"2024-08-09T11:01:03.897Z","44.5017758","-125.4085568","ASNAP","","admin","","","","","","1.83","-1.38","-0.6","-4.5","239.59","143.34","0.58","SciCam","/SciCam.20240809_110103897.jpg","PilotCam","/PilotCam.20240809_110103897.jpg","BrowCam","/BrowCam.20240809_110103897.jpg","UserSelect","/UserSelect.20240809_110103897.jpg","","","-999.99","8.06","-999.99","-999.99","66b5f6ef2969d9001acb7be7"
"2024-08-09T11:01:33.915Z","44.5017758","-125.4085568","ASNAP","","admin","","","","","","1.83","-1.38","-0.0","-4.5","238.99","141.82","0.58","SciCam","/SciCam.20240809_110133915.jpg","PilotCam","/PilotCam.20240809_110133915.jpg","BrowCam","/BrowCam.20240809_110133915.jpg","UserSelect","/UserSelect.20240809_110133915.jpg","","","-999.99","8.07","-999.99","-999.99","66b5f70d2969d9001acb7beb"
"2024-08-09T11:02:03.961Z","44.5017758","-125.4085568","ASNAP","","admin","","","","","","1.83","-1.38","-0.4","-4.2","235.20","147.18","0.58","SciCam","/SciCam.20240809_110203961.jpg","PilotCam","/PilotCam.20240809_110203961.jpg","BrowCam","/BrowCam.20240809_110203961.jpg","UserSelect","/UserSelect.20240809_110203961.jpg","","","-999.99","8.20","-999.99","-999.99","66b5f72b2969d9001acb7bef"
"2024-08-09T11:02:34.007Z","44.5017758","-125.4085568","ASNAP","","admin","","","","","","1.83","-1.38","-0.5","-4.8","234.91","157.93","0.58","SciCam","/SciCam.20240809_110234007.jpg","PilotCam","/PilotCam.20240809_110234007.jpg","BrowCam","/BrowCam.20240809_110234007.jpg","UserSelect","/UserSelect.20240809_110234007.jpg","","","-999.99","8.09","-999.99","-999.99","66b5f74a2969d9001acb7bf3"
"2024-08-09T11:03:04.052Z","44.5017758","-125.4085568","ASNAP","","admin","","","","","","1.83","-1.38","-0.9","-5.0","234.92","163.39","0.58","SciCam","/SciCam.20240809_110304052.jpg","PilotCam","/PilotCam.20240809_110304052.jpg","BrowCam","/BrowCam.20240809_110304052.jpg","UserSelect","/UserSelect.20240809_110304052.jpg","","","-999.99","8.08","-999.99","-999.99","66b5f7682969d9001acb7bf7"
"2024-08-09T11:03:34.100Z","44.5017758","-125.4085568","ASNAP","","admin","","","","","","1.83","-1.38","-1.4","-3.5","236.27","170.60","0.58","SciCam","/SciCam.20240809_110334100.jpg","PilotCam","/PilotCam.20240809_110334100.jpg","BrowCam","/BrowCam.20240809_110334100.jpg","UserSelect","/UserSelect.20240809_110334100.jpg","","","-999.99","7.72","-999.99","-999.99","66b5f7862969d9001acb7bfb"
"2024-08-09T11:03:51.950Z","44.5017758","-125.4085568","Biology Type","Ctenophore","guest","","","","","","1.83","-1.38","-0.4","-4.6","234.26","174.35","0.58","SciCam","/SciCam.20240809_110351950.jpg","PilotCam","/PilotCam.20240809_110351950.jpg","BrowCam","/BrowCam.20240809_110351950.jpg","UserSelect","/UserSelect.20240809_110351950.jpg","","","-999.99","7.61","-999.99","-999.99","66b5f7972969d9001acb7bff"
"2024-08-09T11:04:04.122Z","44.5017758","-125.4085568","ASNAP","","admin","","","","","","1.83","-1.38","-0.3","-4.7","234.97","177.79","0.58","SciCam","/SciCam.20240809_110404122.jpg","PilotCam","/PilotCam.20240809_110404122.jpg","BrowCam","/BrowCam.20240809_110404122.jpg","UserSelect","/UserSelect.20240809_110404122.jpg","","","-999.99","7.62","-999.99","-999.99","66b5f7a42969d9001acb7c03"
"2024-08-09T11:04:34.144Z","44.5017758","-125.4085568","ASNAP","","admin","","","","","","1.83","-1.38","-0.4","-5.2","187.13","185.63","0.58","SciCam","/SciCam.20240809_110434144.jpg","PilotCam","/PilotCam.20240809_110434144.jpg","BrowCam","/BrowCam.20240809_110434144.jpg","UserSelect","/UserSelect.20240809_110434144.jpg","","","-999.99","7.47","-999.99","-999.99","66b5f7c22969d9001acb7c07"
"2024-08-09T11:05:04.189Z","44.5017758","-125.4085568","ASNAP","","admin","","","","","","1.83","-1.38","-0.3","-6.6","219.93","191.76","0.58","SciCam","/SciCam.20240809_110504189.jpg","PilotCam","/PilotCam.20240809_110504189.jpg","BrowCam","/BrowCam.20240809_110504189.jpg","UserSelect","/UserSelect.20240809_110504189.jpg","","","-999.99","7.49","-999.99","-999.99","66b5f7e02969d9001acb7c0b"
"2024-08-09T11:05:34.227Z","44.5017758","-125.4085568","ASNAP","","admin","","","","","","1.83","-1.38","-0.9","-6.1","232.30","191.15","0.58","SciCam","/SciCam.20240809_110534227.jpg","PilotCam","/PilotCam.20240809_110534227.jpg","BrowCam","/BrowCam.20240809_110534227.jpg","UserSelect","/UserSelect.20240809_110534227.jpg","","","-999.99","7.40","-999.99","-999.99","66b5f7fe2969d9001acb7c0f"
"2024-08-09T11:06:04.254Z","44.5017758","-125.4085568","ASNAP","","admin","","","","","","1.83","-1.38","-0.3","-5.3","183.98","191.04","0.58","SciCam","/SciCam.20240809_110604254.jpg","PilotCam","/PilotCam.20240809_110604254.jpg","BrowCam","/BrowCam.20240809_110604254.jpg","UserSelect","/UserSelect.20240809_110604254.jpg","","","-999.99","7.40","-999.99","-999.99","66b5f81c2969d9001acb7c13"
"2024-08-09T11:06:34.300Z","44.5017758","-125.4085568","ASNAP","","admin","","","","","","1.83","-1.38","-1.0","-4.8","225.33","190.75","0.58","SciCam","/SciCam.20240809_110634300.jpg","PilotCam","/PilotCam.20240809_110634300.jpg","BrowCam","/BrowCam.20240809_110634300.jpg","UserSelect","/UserSelect.20240809_110634300.jpg","","","-999.99","7.30","-999.99","-999.99","66b5f83a2969d9001acb7c17"
"2024-08-09T11:07:04.320Z","44.5017758","-125.4085568","ASNAP","","admin","","","","","","1.83","-1.38","-0.5","-5.4","225.14","189.74","0.58","SciCam","/SciCam.20240809_110704320.jpg","PilotCam","/PilotCam.20240809_110704320.jpg","BrowCam","/BrowCam.20240809_110704320.jpg","UserSelect","/UserSelect.20240809_110704320.jpg","","","-999.99","7.45","-999.99","-999.99","66b5f8582969d9001acb7c1b"
"2024-08-09T11:07:34.343Z","44.5017758","-125.4085568","ASNAP","","admin","","","","","","1.83","-1.38","-0.6","-4.8","226.46","190.06","0.58","SciCam","/SciCam.20240809_110734343.jpg","PilotCam","/PilotCam.20240809_110734343.jpg","BrowCam","/BrowCam.20240809_110734343.jpg","UserSelect","/UserSelect.20240809_110734343.jpg","","","-999.99","7.54","-999.99","-999.99","66b5f8762969d9001acb7c1f"
"2024-08-09T11:08:04.392Z","44.5017758","-125.4085568","ASNAP","","admin","","","","","","1.83","-1.38","-0.5","-5.3","226.11","193.01","0.58","SciCam","/SciCam.20240809_110804392.jpg","PilotCam","/PilotCam.20240809_110804392.jpg","BrowCam","/BrowCam.20240809_110804392.jpg","UserSelect","/UserSelect.20240809_110804392.jpg","","","-999.99","7.50","-999.99","-999.99","66b5f8942969d9001acb7c23"
"2024-08-09T11:08:34.435Z","44.5017758","-125.4085568","ASNAP","","admin","","","","","","1.83","-1.38","-0.5","-5.0","225.85","191.86","0.58","SciCam","/SciCam.20240809_110834435.jpg","PilotCam","/PilotCam.20240809_110834435.jpg","BrowCam","/BrowCam.20240809_110834435.jpg","UserSelect","/UserSelect.20240809_110834435.jpg","","","-999.99","7.65","-999.99","-999.99","66b5f8b22969d9001acb7c27"
"2024-08-09T11:09:04.481Z","44.5017758","-125.4085568","ASNAP","","admin","","","","","","1.83","-1.38","-0.7","-4.3","227.37","192.00","0.58","SciCam","/SciCam.20240809_110904481.jpg","PilotCam","/PilotCam.20240809_110904481.jpg","BrowCam","/BrowCam.20240809_110904481.jpg","UserSelect","/UserSelect.20240809_110904481.jpg","","","-999.99","7.53","-999.99","-999.99","66b5f8d02969d9001acb7c2b"
"2024-08-09T11:09:34.499Z","44.5017758","-125.4085568","ASNAP","","admin","","","","","","1.83","-1.38","-0.4","-5.0","227.54","191.96","0.58","SciCam","/SciCam.20240809_110934499.jpg","PilotCam","/PilotCam.20240809_110934499.jpg","BrowCam","/BrowCam.20240809_110934499.jpg","UserSelect","/UserSelect.20240809_110934499.jpg","","","-999.99","7.52","-999.99","-999.99","66b5f8ee2969d9001acb7c2f"
"2024-08-09T11:10:04.547Z","44.5017758","-125.4085568","ASNAP","","admin","","","","","","1.83","-1.38","-0.2","-4.1","235.22","191.90","0.58","SciCam","/SciCam.20240809_111004547.jpg","PilotCam","/PilotCam.20240809_111004547.jpg","BrowCam","/BrowCam.20240809_111004547.jpg","UserSelect","/UserSelect.20240809_111004547.jpg","","","-999.99","7.38","-999.99","-999.99","66b5f90c2969d9001acb7c33"
"2024-08-09T11:10:34.594Z","44.5017758","-125.4085568","ASNAP","","admin","","","","","","1.83","-1.38","-0.8","-5.2","200.92","193.69","0.58","SciCam","/SciCam.20240809_111034594.jpg","PilotCam","/PilotCam.20240809_111034594.jpg","BrowCam","/BrowCam.20240809_111034594.jpg","UserSelect","/UserSelect.20240809_111034594.jpg","","","-999.99","7.45","-999.99","-999.99","66b5f92a2969d9001acb7c37"
"2024-08-09T11:11:04.640Z","44.5017758","-125.4085568","ASNAP","","admin","","","","","","1.83","-1.38","-0.5","-5.4","106.26","193.40","0.58","SciCam","/SciCam.20240809_111104640.jpg","PilotCam","/PilotCam.20240809_111104640.jpg","BrowCam","/BrowCam.20240809_111104640.jpg","UserSelect","/UserSelect.20240809_111104640.jpg","","","-999.99","7.34","-999.99","-999.99","66b5f9482969d9001acb7c3b"
"2024-08-09T11:11:34.687Z","44.5017758","-125.4085568","ASNAP","","admin","","","","","","1.83","-1.38","-0.7","-5.1","229.13","193.45","0.58","SciCam","/SciCam.20240809_111134687.jpg","PilotCam","/PilotCam.20240809_111134687.jpg","BrowCam","/BrowCam.20240809_111134687.jpg","UserSelect","/UserSelect.20240809_111134687.jpg","","","-999.99","7.40","-999.99","-999.99","66b5f9662969d9001acb7c3f"
"2024-08-09T11:12:04.734Z","44.5017758","-125.4085568","ASNAP","","admin","","","","","","1.83","-1.38","-0.5","-5.1","228.83","193.45","0.58","SciCam","/SciCam.20240809_111204734.jpg","PilotCam","/PilotCam.20240809_111204734.jpg","BrowCam","/BrowCam.20240809_111204734.jpg","UserSelect","/UserSelect.20240809_111204734.jpg","","","-999.99","7.30","-999.99","-999.99","66b5f9842969d9001acb7c43"
"2024-08-09T11:12:34.784Z","44.5017758","-125.4085568","ASNAP","","admin","","","","","","1.83","-1.38","-0.3","-6.7","217.41","193.72","0.58","SciCam","/SciCam.20240809_111234784.jpg","PilotCam","/PilotCam.20240809_111234784.jpg","BrowCam","/BrowCam.20240809_111234784.jpg","UserSelect","/UserSelect.20240809_111234784.jpg","","","-999.99","7.52","-999.99","-999.99","66b5f9a22969d9001acb7c47"
"2024-08-09T11:13:04.829Z","44.5017758","-125.4085568","ASNAP","","admin","","","","","","1.83","-1.38","-0.8","-5.7","122.79","193.53","0.58","SciCam","/SciCam.20240809_111304829.jpg","PilotCam","/PilotCam.20240809_111304829.jpg","BrowCam","/BrowCam.20240809_111304829.jpg","UserSelect","/UserSelect.20240809_111304829.jpg","","","-999.99","7.46","-999.99","-999.99","66b5f9c02969d9001acb7c4b"
"2024-08-09T11:13:34.870Z","44.5017758","-125.4085568","ASNAP","","admin","","","","","","1.83","-1.38","-0.2","-5.2","259.56","193.62","0.58","SciCam","/SciCam.20240809_111334870.jpg","PilotCam","/PilotCam.20240809_111334870.jpg","BrowCam","/BrowCam.20240809_111334870.jpg","UserSelect","/UserSelect.20240809_111334870.jpg","","","-999.99","7.48","-999.99","-999.99","66b5f9de2969d9001acb7c4f"
"2024-08-09T11:14:04.902Z","44.5017758","-125.4085568","ASNAP","","admin","","","","","","1.83","-1.38","-0.3","-4.8","259.41","193.20","0.58","SciCam","/SciCam.20240809_111404902.jpg","PilotCam","/PilotCam.20240809_111404902.jpg","BrowCam","/BrowCam.20240809_111404902.jpg","UserSelect","/UserSelect.20240809_111404902.jpg","","","-999.99","7.24","-999.99","-999.99","66b5f9fc2969d9001acb7c53"
"2024-08-09T11:14:34.950Z","44.5017758","-125.4085568","ASNAP","","admin","","","","","","1.83","-1.38","-0.6","-5.4","274.95","193.28","0.58","SciCam","/SciCam.20240809_111434950.jpg","PilotCam","/PilotCam.20240809_111434950.jpg","BrowCam","/BrowCam.20240809_111434950.jpg","UserSelect","/UserSelect.20240809_111434950.jpg","","","-999.99","7.42","-999.99","-999.99","66b5fa1a2969d9001acb7c57"
"2024-08-09T11:14:58.522Z","44.5017758","-125.4085568","VEHICLE","@ shallow profile mooring","guest","On bottom","","","","","1.83","-1.38","-0.4","-4.4","273.95","192.78","0.58","SciCam","/SciCam.20240809_111458522.jpg","PilotCam","/PilotCam.20240809_111458522.jpg","BrowCam","/BrowCam.20240809_111458522.jpg","UserSelect","/UserSelect.20240809_111458522.jpg","","","-999.99","7.39","-999.99","-999.99","66b5fa322969d9001acb7c5f"
"2024-08-09T11:15:04.996Z","44.5017758","-125.4085568","ASNAP","","admin","","","","","","1.83","-1.38","-0.6","-4.8","271.50","192.91","0.58","SciCam","/SciCam.20240809_111504996.jpg","PilotCam","/PilotCam.20240809_111504996.jpg","BrowCam","/BrowCam.20240809_111504996.jpg","UserSelect","/UserSelect.20240809_111504996.jpg","","","-999.99","7.50","-999.99","-999.99","66b5fa382969d9001acb7c63"
"2024-08-09T11:15:35.045Z","44.5017758","-125.4085568","ASNAP","","admin","","","","","","1.83","-1.38","-0.4","-4.5","272.41","192.90","0.58","SciCam","/SciCam.20240809_111535045.jpg","PilotCam","/PilotCam.20240809_111535045.jpg","BrowCam","/BrowCam.20240809_111535045.jpg","UserSelect","/UserSelect.20240809_111535045.jpg","","","-999.99","7.47","-999.99","-999.99","66b5fa572969d9001acb7c67"
"2024-08-09T11:16:05.088Z","44.5017758","-125.4085568","ASNAP","","admin","","","","","","1.83","-1.38","-0.5","-4.1","266.76","192.91","0.58","SciCam","/SciCam.20240809_111605088.jpg","PilotCam","/PilotCam.20240809_111605088.jpg","BrowCam","/BrowCam.20240809_111605088.jpg","UserSelect","/UserSelect.20240809_111605088.jpg","","","-999.99","7.34","-999.99","-999.99","66b5fa752969d9001acb7c6b"
"2024-08-09T11:16:35.110Z","44.5017758","-125.4085568","ASNAP","","admin","","","","","","1.83","-1.38","-0.7","-4.6","263.99","192.94","0.58","SciCam","/SciCam.20240809_111635110.jpg","PilotCam","/PilotCam.20240809_111635110.jpg","BrowCam","/BrowCam.20240809_111635110.jpg","UserSelect","/UserSelect.20240809_111635110.jpg","","","-999.99","7.47","-999.99","-999.99","66b5fa932969d9001acb7c6f"
"2024-08-09T11:16:48.136Z","44.5017758","-125.4085568","Biology Type","Ctemophore","guest","","","","Ctenophore*","","1.83","-1.38","-0.6","-3.9","264.15","192.79","0.58","SciCam","/SciCam.20240809_111648136.jpg","PilotCam","/PilotCam.20240809_111648136.jpg","BrowCam","/BrowCam.20240809_111648136.jpg","UserSelect","/UserSelect.20240809_111648136.jpg","","","-999.99","7.56","-999.99","-999.99","66b5faa02969d9001acb7c73"
"2024-08-09T11:17:05.146Z","44.5017758","-125.4085568","ASNAP","","admin","","","","","","1.83","-1.38","-0.7","-3.7","260.99","192.88","0.58","SciCam","/SciCam.20240809_111705146.jpg","PilotCam","/PilotCam.20240809_111705146.jpg","BrowCam","/BrowCam.20240809_111705146.jpg","UserSelect","/UserSelect.20240809_111705146.jpg","","","-999.99","7.43","-999.99","-999.99","66b5fab12969d9001acb7c77"
"2024-08-09T11:17:35.192Z","44.5017758","-125.4085568","ASNAP","","admin","","","","","","1.83","-1.38","-0.6","-4.0","260.62","192.68","0.58","SciCam","/SciCam.20240809_111735192.jpg","PilotCam","/PilotCam.20240809_111735192.jpg","BrowCam","/BrowCam.20240809_111735192.jpg","UserSelect","/UserSelect.20240809_111735192.jpg","","","-999.99","7.21","-999.99","-999.99","66b5facf2969d9001acb7c7b"
"2024-08-09T11:18:05.223Z","44.5017758","-125.4085568","ASNAP","","admin","","","","","","1.83","-1.38","0.0","-4.0","259.02","192.68","0.58","SciCam","/SciCam.20240809_111805223.jpg","PilotCam","/PilotCam.20240809_111805223.jpg","BrowCam","/BrowCam.20240809_111805223.jpg","UserSelect","/UserSelect.20240809_111805223.jpg","","","-999.99","7.45","-999.99","-999.99","66b5faed2969d9001acb7c7f"
"2024-08-09T11:18:35.269Z","44.5017758","-125.4085568","ASNAP","","admin","","","","","","1.83","-1.38","-0.4","-3.7","262.18","192.70","0.58","SciCam","/SciCam.20240809_111835269.jpg","PilotCam","/PilotCam.20240809_111835269.jpg","BrowCam","/BrowCam.20240809_111835269.jpg","UserSelect","/UserSelect.20240809_111835269.jpg","","","-999.99","7.33","-999.99","-999.99","66b5fb0b2969d9001acb7c83"
"2024-08-09T11:18:59.000Z","","","SulisCam","","admin","","","","","sulis_20240809111859.jpg","","","","","","","","","","","","","","","","-4.610","0.515","","","","","66b6cb58111b2e001a27cbfb"
"2024-08-09T11:19:05.315Z","44.5017758","-125.4085568","ASNAP","","admin","","","","","","1.83","-1.38","0.6","-3.7","253.58","192.66","0.58","SciCam","/SciCam.20240809_111905315.jpg","PilotCam","/PilotCam.20240809_111905315.jpg","BrowCam","/BrowCam.20240809_111905315.jpg","UserSelect","/UserSelect.20240809_111905315.jpg","","","-999.99","7.51","-999.99","-999.99","66b5fb292969d9001acb7c87"
"2024-08-09T11:19:35.360Z","44.5017758","-125.4085568","ASNAP","","admin","","","","","","1.83","-1.38","0.2","-3.7","254.39","192.56","0.58","SciCam","/SciCam.20240809_111935360.jpg","PilotCam","/PilotCam.20240809_111935360.jpg","BrowCam","/BrowCam.20240809_111935360.jpg","UserSelect","/UserSelect.20240809_111935360.jpg","","","-999.99","7.40","-999.99","-999.99","66b5fb472969d9001acb7c8b"
"2024-08-09T11:19:44.000Z","","","SulisCam","","admin","","","","","sulis_20240809111944.jpg","","","","","","","","","","","","","","","","-3.784","0.568","","","","","66b6cb58111b2e001a27cbfd"
"2024-08-09T11:20:05.378Z","44.5017758","-125.4085568","ASNAP","","admin","","","","","","1.83","-1.38","0.1","-4.0","261.05","192.74","0.58","SciCam","/SciCam.20240809_112005378.jpg","PilotCam","/PilotCam.20240809_112005378.jpg","BrowCam","/BrowCam.20240809_112005378.jpg","UserSelect","/UserSelect.20240809_112005378.jpg","","","-999.99","7.38","-999.99","-999.99","66b5fb652969d9001acb7c8f"
"2024-08-09T11:20:28.000Z","","","SulisCam","","admin","","","","","sulis_20240809112028.jpg","","","","","","","","","","","","","","","","-3.737","0.024","","","","","66b6cb58111b2e001a27cbff"
"2024-08-09T11:20:35.395Z","44.5017758","-125.4085568","ASNAP","","admin","","","","","","1.83","-1.38","0.9","-4.1","263.81","192.98","0.58","SciCam","/SciCam.20240809_112035395.jpg","PilotCam","/PilotCam.20240809_112035395.jpg","BrowCam","/BrowCam.20240809_112035395.jpg","UserSelect","/UserSelect.20240809_112035395.jpg","","","-999.99","7.50","-999.99","-999.99","66b5fb832969d9001acb7c93"
"2024-08-09T11:21:02.000Z","","","SulisCam","","admin","","","","","sulis_20240809112102.jpg","","","","","","","","","","","","","","","","-4.009","0.275","","","","","66b6cb58111b2e001a27cc01"
"2024-08-09T11:21:05.443Z","44.5017758","-125.4085568","ASNAP","","admin","","","","","","1.83","-1.38","0.2","-3.9","263.72","193.01","0.58","SciCam","/SciCam.20240809_112105443.jpg","PilotCam","/PilotCam.20240809_112105443.jpg","BrowCam","/BrowCam.20240809_112105443.jpg","UserSelect","/UserSelect.20240809_112105443.jpg","","","-999.99","7.43","-999.99","-999.99","66b5fba12969d9001acb7c97"
"2024-08-09T11:21:35.488Z","44.5017758","-125.4085568","ASNAP","","admin","","","","","","1.83","-1.38","0.6","-4.1","262.14","193.00","0.58","SciCam","/SciCam.20240809_112135488.jpg","PilotCam","/PilotCam.20240809_112135488.jpg","BrowCam","/BrowCam.20240809_112135488.jpg","UserSelect","/UserSelect.20240809_112135488.jpg","","","-999.99","7.47","-999.99","-999.99","66b5fbbf2969d9001acb7c9b"
"2024-08-09T11:21:53.840Z","44.5017758","-125.4085568","Biology Type","Ctenophore","guest","","","","","","1.83","-1.38","0.9","-3.7","267.87","192.95","0.58","SciCam","/SciCam.20240809_112153840.jpg","PilotCam","/PilotCam.20240809_112153840.jpg","BrowCam","/BrowCam.20240809_112153840.jpg","UserSelect","/UserSelect.20240809_112153840.jpg","","","-999.99","7.38","-999.99","-999.99","66b5fbd12969d9001acb7c9f"
"2024-08-09T11:22:05.512Z","44.5017758","-125.4085568","ASNAP","","admin","","","","","","1.83","-1.38","0.8","-3.8","267.99","192.92","0.58","SciCam","/SciCam.20240809_112205512.jpg","PilotCam","/PilotCam.20240809_112205512.jpg","BrowCam","/BrowCam.20240809_112205512.jpg","UserSelect","/UserSelect.20240809_112205512.jpg","","","-999.99","7.52","-999.99","-999.99","66b5fbdd2969d9001acb7ca3"
"2024-08-09T11:22:14.069Z","44.5017758","-125.4085568","Biology Type","Crinoids on main float","guest","","","","","","1.83","-1.38","0.8","-4.1","269.86","192.99","0.58","SciCam","/SciCam.20240809_112214069.jpg","PilotCam","/PilotCam.20240809_112214069.jpg","BrowCam","/BrowCam.20240809_112214069.jpg","UserSelect","/UserSelect.20240809_112214069.jpg","","","-999.99","7.03","-999.99","-999.99","66b5fbe62969d9001acb7ca7"
"2024-08-09T11:22:29.000Z","","","SulisCam","","admin","","","","","sulis_20240809112229.jpg","","","","","","","","","","","","","","","","-4.160","1.221","","","","","66b6cb58111b2e001a27cc03"
"2024-08-09T11:22:35.558Z","44.5017758","-125.4085568","ASNAP","","admin","","","","","","1.83","-1.38","1.4","-3.8","305.10","192.94","0.58","SciCam","/SciCam.20240809_112235558.jpg","PilotCam","/PilotCam.20240809_112235558.jpg","BrowCam","/BrowCam.20240809_112235558.jpg","UserSelect","/UserSelect.20240809_112235558.jpg","","","-999.99","7.41","-999.99","-999.99","66b5fbfb2969d9001acb7cab"
"2024-08-09T11:23:00.000Z","","","SulisCam","","admin","","","","","sulis_20240809112300.jpg","","","","","","","","","","","","","","","","-4.382","1.088","","","","","66b6cb58111b2e001a27cc05"
"2024-08-09T11:23:05.607Z","44.5017758","-125.4085568","ASNAP","","admin","","","","","","1.83","-1.38","1.0","-4.6","345.54","193.00","0.58","SciCam","/SciCam.20240809_112305607.jpg","PilotCam","/PilotCam.20240809_112305607.jpg","BrowCam","/BrowCam.20240809_112305607.jpg","UserSelect","/UserSelect.20240809_112305607.jpg","","","-999.99","7.33","-999.99","-999.99","66b5fc192969d9001acb7caf"
"2024-08-09T11:23:35.627Z","44.5017758","-125.4085568","ASNAP","","admin","","","","","","1.83","-1.38","1.2","-4.8","354.42","193.52","0.58","SciCam","/SciCam.20240809_112335627.jpg","PilotCam","/PilotCam.20240809_112335627.jpg","BrowCam","/BrowCam.20240809_112335627.jpg","UserSelect","/UserSelect.20240809_112335627.jpg","","","-999.99","7.36","-999.99","-999.99","66b5fc372969d9001acb7cb3"
"2024-08-09T11:24:05.672Z","44.5017758","-125.4085568","ASNAP","","admin","","","","","","1.83","-1.38","1.2","-5.3","354.38","197.52","0.58","SciCam","/SciCam.20240809_112405672.jpg","PilotCam","/PilotCam.20240809_112405672.jpg","BrowCam","/BrowCam.20240809_112405672.jpg","UserSelect","/UserSelect.20240809_112405672.jpg","","","-999.99","7.34","-999.99","-999.99","66b5fc552969d9001acb7cb7"
"2024-08-09T11:24:24.319Z","44.5017758","-125.4085568","Biology Type","Ctenophore","guest","","","","","","1.83","-1.38","2.5","-4.2","354.65","200.35","0.58","SciCam","/SciCam.20240809_112424319.jpg","PilotCam","/PilotCam.20240809_112424319.jpg","BrowCam","/BrowCam.20240809_112424319.jpg","UserSelect","/UserSelect.20240809_112424319.jpg","","","-999.99","7.40","-999.99","-999.99","66b5fc682969d9001acb7cbb"
"2024-08-09T11:24:34.000Z","","","SulisCam","","admin","","","","","sulis_20240809112434.jpg","","","","","","","","","","","","","","","","-5.250","1.148","","","","","66b6cb58111b2e001a27cc07"
"2024-08-09T11:24:35.693Z","44.5017758","-125.4085568","ASNAP","","admin","","","","","","1.83","-1.38","1.4","-5.0","7.53","201.04","0.58","SciCam","/SciCam.20240809_112435693.jpg","PilotCam","/PilotCam.20240809_112435693.jpg","BrowCam","/BrowCam.20240809_112435693.jpg","UserSelect","/UserSelect.20240809_112435693.jpg","","","-999.99","7.36","-999.99","-999.99","66b5fc732969d9001acb7cbf"
"2024-08-09T11:24:52.000Z","","","SulisCam","","admin","","","","","sulis_20240809112452.jpg","","","","","","","","","","","","","","","","-5.468","2.393","","","","","66b6cb59111b2e001a27cc09"
"2024-08-09T11:25:04.000Z","","","SulisCam","","admin","","","","","sulis_20240809112504.jpg","","","","","","","","","","","","","","","","-5.765","2.161","","","","","66b6cb59111b2e001a27cc0b"
"2024-08-09T11:25:05.719Z","44.5017758","-125.4085568","ASNAP","","admin","","","","","","1.83","-1.38","0.8","-6.0","60.03","200.04","0.58","SciCam","/SciCam.20240809_112505719.jpg","PilotCam","/PilotCam.20240809_112505719.jpg","BrowCam","/BrowCam.20240809_112505719.jpg","UserSelect","/UserSelect.20240809_112505719.jpg","","","-999.99","7.29","-999.99","-999.99","66b5fc912969d9001acb7cc3"
"2024-08-09T11:25:35.766Z","44.5017758","-125.4085568","ASNAP","","admin","","","","","","1.83","-1.38","0.0","-5.4","69.22","200.36","0.58","SciCam","/SciCam.20240809_112535766.jpg","PilotCam","/PilotCam.20240809_112535766.jpg","BrowCam","/BrowCam.20240809_112535766.jpg","UserSelect","/UserSelect.20240809_112535766.jpg","","","-999.99","7.26","-999.99","-999.99","66b5fcaf2969d9001acb7cc7"
"2024-08-09T11:26:05.813Z","44.5017758","-125.4085568","ASNAP","","admin","","","","","","1.83","-1.38","1.0","-4.9","34.79","195.67","0.58","SciCam","/SciCam.20240809_112605813.jpg","PilotCam","/PilotCam.20240809_112605813.jpg","BrowCam","/BrowCam.20240809_112605813.jpg","UserSelect","/UserSelect.20240809_112605813.jpg","","","-999.99","7.55","-999.99","-999.99","66b5fccd2969d9001acb7ccb"
"2024-08-09T11:26:32.122Z","44.5017758","-125.4085568","Biology Type","Ctenophore","guest","","","","","","1.83","-1.38","1.2","-5.4","60.45","192.74","0.58","SciCam","/SciCam.20240809_112632122.jpg","PilotCam","/PilotCam.20240809_112632122.jpg","BrowCam","/BrowCam.20240809_112632122.jpg","UserSelect","/UserSelect.20240809_112632122.jpg","","","-999.99","7.48","-999.99","-999.99","66b5fce82969d9001acb7ccf"
"2024-08-09T11:26:35.861Z","44.5017758","-125.4085568","ASNAP","","admin","","","","","","1.83","-1.38","0.9","-5.5","69.26","192.55","0.58","SciCam","/SciCam.20240809_112635861.jpg","PilotCam","/PilotCam.20240809_112635861.jpg","BrowCam","/BrowCam.20240809_112635861.jpg","UserSelect","/UserSelect.20240809_112635861.jpg","","","-999.99","7.33","-999.99","-999.99","66b5fceb2969d9001acb7cd3"
"2024-08-09T11:26:57.000Z","","","SulisCam","","admin","","","","","sulis_20240809112657.jpg","","","","","","","","","","","","","","","","-5.641","0.733","","","","","66b6cb59111b2e001a27cc0d"
"2024-08-09T11:27:05.883Z","44.5017758","-125.4085568","ASNAP","","admin","","","","","","1.83","-1.38","0.5","-6.2","87.06","192.71","0.58","SciCam","/SciCam.20240809_112705883.jpg","PilotCam","/PilotCam.20240809_112705883.jpg","BrowCam","/BrowCam.20240809_112705883.jpg","UserSelect","/UserSelect.20240809_112705883.jpg","","","-999.99","7.41","-999.99","-999.99","66b5fd092969d9001acb7cd7"
"2024-08-09T11:27:08.000Z","","","SulisCam","","admin","","","","","sulis_20240809112708.jpg","","","","","","","","","","","","","","","","-5.679","-0.624","","","","","66b6cb59111b2e001a27cc0f"
"2024-08-09T11:27:35.902Z","44.5017758","-125.4085568","ASNAP","","admin","","","","","","1.83","-1.38","0.7","-6.1","90.11","193.51","0.58","SciCam","/SciCam.20240809_112735902.jpg","PilotCam","/PilotCam.20240809_112735902.jpg","BrowCam","/BrowCam.20240809_112735902.jpg","UserSelect","/UserSelect.20240809_112735902.jpg","","","-999.99","7.43","-999.99","-999.99","66b5fd272969d9001acb7cdb"
"2024-08-09T11:27:53.000Z","","","SulisCam","","admin","","","","","sulis_20240809112753.jpg","","","","","","","","","","","","","","","","-6.038","0.140","","","","","66b6cb59111b2e001a27cc11"
"2024-08-09T11:28:05.927Z","44.5017758","-125.4085568","ASNAP","","admin","","","","","","1.83","-1.38","0.6","-5.5","82.32","194.01","0.58","SciCam","/SciCam.20240809_112805927.jpg","PilotCam","/PilotCam.20240809_112805927.jpg","BrowCam","/BrowCam.20240809_112805927.jpg","UserSelect","/UserSelect.20240809_112805927.jpg","","","-999.99","7.41","-999.99","-999.99","66b5fd452969d9001acb7cdf"
"2024-08-09T11:28:35.974Z","44.5017758","-125.4085568","ASNAP","","admin","","","","","","1.83","-1.38","-0.5","-5.5","85.64","192.63","0.58","SciCam","/SciCam.20240809_112835974.jpg","PilotCam","/PilotCam.20240809_112835974.jpg","BrowCam","/BrowCam.20240809_112835974.jpg","UserSelect","/UserSelect.20240809_112835974.jpg","","","-999.99","7.44","-999.99","-999.99","66b5fd632969d9001acb7ce3"
"2024-08-09T11:28:43.000Z","","","SulisCam","","admin","","","","","sulis_20240809112843.jpg","","","","","","","","","","","","","","","","-5.700","2.561","","","","","66b6cb59111b2e001a27cc13"
"2024-08-09T11:29:04.000Z","","","SulisCam","","admin","","","","","sulis_20240809112904.jpg","","","","","","","","","","","","","","","","-5.842","1.323","","","","","66b6cb59111b2e001a27cc15"
"2024-08-09T11:29:06.020Z","44.5017758","-125.4085568","ASNAP","","admin","","","","","","1.83","-1.38","0.8","-5.6","72.45","191.68","0.58","SciCam","/SciCam.20240809_112906020.jpg","PilotCam","/PilotCam.20240809_112906020.jpg","BrowCam","/BrowCam.20240809_112906020.jpg","UserSelect","/UserSelect.20240809_112906020.jpg","","","-999.99","7.40","-999.99","-999.99","66b5fd822969d9001acb7ce7"
"2024-08-09T11:29:33.000Z","","","SulisCam","","admin","","","","","sulis_20240809112933.jpg","","","","","","","","","","","","","","","","-5.815","-0.823","","","","","66b6cb59111b2e001a27cc17"
"2024-08-09T11:29:36.066Z","44.5017758","-125.4085568","ASNAP","","admin","","","","","","1.83","-1.38","0.3","-5.3","115.68","191.33","0.58","SciCam","/SciCam.20240809_112936066.jpg","PilotCam","/PilotCam.20240809_112936066.jpg","BrowCam","/BrowCam.20240809_112936066.jpg","UserSelect","/UserSelect.20240809_112936066.jpg","","","-999.99","7.34","-999.99","-999.99","66b5fda02969d9001acb7ceb"
"2024-08-09T11:29:45.233Z","44.5017758","-125.4085568","Biology Type","Ctenophore","guest","","","","","","1.83","-1.38","-0.8","-5.9","114.35","191.77","0.58","SciCam","/SciCam.20240809_112945233.jpg","PilotCam","/PilotCam.20240809_112945233.jpg","BrowCam","/BrowCam.20240809_112945233.jpg","UserSelect","/UserSelect.20240809_112945233.jpg","","","-999.99","7.31","-999.99","-999.99","66b5fda92969d9001acb7cef"
"2024-08-09T11:30:06.111Z","44.5017758","-125.4085568","ASNAP","","admin","","","","","","1.83","-1.38","0.6","-5.9","93.23","191.45","0.58","SciCam","/SciCam.20240809_113006111.jpg","PilotCam","/PilotCam.20240809_113006111.jpg","BrowCam","/BrowCam.20240809_113006111.jpg","UserSelect","/UserSelect.20240809_113006111.jpg","","","-999.99","7.40","-999.99","-999.99","66b5fdbe2969d9001acb7cf3"
"2024-08-09T11:30:36.157Z","44.5017758","-125.4085568","ASNAP","","admin","","","","","","1.83","-1.38","0.7","-5.6","84.33","192.67","0.58","SciCam","/SciCam.20240809_113036157.jpg","PilotCam","/PilotCam.20240809_113036157.jpg","BrowCam","/BrowCam.20240809_113036157.jpg","UserSelect","/UserSelect.20240809_113036157.jpg","","","-999.99","7.42","-999.99","-999.99","66b5fddc2969d9001acb7cf7"
"2024-08-09T11:31:06.202Z","44.5017758","-125.4085568","ASNAP","","admin","","","","","","1.83","-1.38","1.6","-4.8","13.38","191.85","0.58","SciCam","/SciCam.20240809_113106202.jpg","PilotCam","/PilotCam.20240809_113106202.jpg","BrowCam","/BrowCam.20240809_113106202.jpg","UserSelect","/UserSelect.20240809_113106202.jpg","","","-999.99","7.19","-999.99","-999.99","66b5fdfa2969d9001acb7cfb"
"2024-08-09T11:31:36.241Z","44.5017758","-125.4085568","ASNAP","","admin","","","","","","1.83","-1.38","1.5","-3.5","280.64","192.13","0.58","SciCam","/SciCam.20240809_113136241.jpg","PilotCam","/PilotCam.20240809_113136241.jpg","BrowCam","/BrowCam.20240809_113136241.jpg","UserSelect","/UserSelect.20240809_113136241.jpg","","","-999.99","7.41","-999.99","-999.99","66b5fe182969d9001acb7cff"
"2024-08-09T11:32:06.288Z","44.5017758","-125.4085568","ASNAP","","admin","","","","","","1.83","-1.38","-0.4","-4.0","265.37","194.25","0.58","SciCam","/SciCam.20240809_113206288.jpg","PilotCam","/PilotCam.20240809_113206288.jpg","BrowCam","/BrowCam.20240809_113206288.jpg","UserSelect","/UserSelect.20240809_113206288.jpg","","","-999.99","7.37","-999.99","-999.99","66b5fe362969d9001acb7d03"
"2024-08-09T11:32:36.337Z","44.5017758","-125.4085568","ASNAP","","admin","","","","","","1.83","-1.38","0.5","-3.7","263.79","193.64","0.58","SciCam","/SciCam.20240809_113236337.jpg","PilotCam","/PilotCam.20240809_113236337.jpg","BrowCam","/BrowCam.20240809_113236337.jpg","UserSelect","/UserSelect.20240809_113236337.jpg","","","-999.99","7.47","-999.99","-999.99","66b5fe542969d9001acb7d07"
"2024-08-09T11:33:06.385Z","44.5017758","-125.4085568","ASNAP","","admin","","","","","","1.83","-1.38","0.4","-3.1","264.74","194.43","0.58","SciCam","/SciCam.20240809_113306385.jpg","PilotCam","/PilotCam.20240809_113306385.jpg","BrowCam","/BrowCam.20240809_113306385.jpg","UserSelect","/UserSelect.20240809_113306385.jpg","","","-999.99","7.29","-999.99","-999.99","66b5fe722969d9001acb7d0b"
"2024-08-09T11:33:36.428Z","44.5017758","-125.4085568","ASNAP","","admin","","","","","","1.83","-1.38","-4.0","-6.3","273.15","195.12","0.58","SciCam","/SciCam.20240809_113336428.jpg","PilotCam","/PilotCam.20240809_113336428.jpg","BrowCam","/BrowCam.20240809_113336428.jpg","UserSelect","/UserSelect.20240809_113336428.jpg","","","-999.99","7.31","-999.99","-999.99","66b5fe902969d9001acb7d0f"
