Date/Time (UTC),vehicleRealtimeNavData.latitude (ddeg),vehicleRealtimeNavData.longitude (ddeg),event_value,event_free_text,event_author,event_option.milestone,event_option.actions,event_option.type,event_option.filename,event_option.cabled_plug,event_option.dummy_plug,event_option.event_comment,vehicleRealtimeNavData.local_x (meters),vehicleRealtimeNavData.local_y (meters),vehicleRealtimeNavData.roll (deg),vehicleRealtimeNavData.pitch (deg),vehicleRealtimeNavData.heading (deg),vehicleRealtimeNavData.depth (meters),vehicleRealtimeNavData.altitude (meters),vehicleRealtimeFramegrabberData.camera_name_1,vehicleRealtimeFramegrabberData.filename_1,vehicleRealtimeFramegrabberData.camera_name_2,vehicleRealtimeFramegrabberData.filename_2,vehicleRealtimeFramegrabberData.camera_name_3,vehicleRealtimeFramegrabberData.filename_3,vehicleRealtimeFramegrabberData.camera_name_4,vehicleRealtimeFramegrabberData.filename_4,vehicleReNavData.pitch (deg),vehicleReNavData.roll (deg),vehicleTemperatureProbe.probe1_temperature (degC),vehicleTemperatureProbe.probe2_temperature (degC),vehicleTemperatureProbe.probe3_temperature (degC),vehicleTemperatureProbe.probe4_temperature (degC),id
"2024-08-19T02:15:49.773Z","44.6337016","-124.3080669","VEHICLE","Jason hanging in the air after conclusion of J2-1622","guest","","","","","","","","0.95","2.58","-0.4","-0.9","14.74","0.88","0.58","SciCam","/SciCam.20240819_021549773.jpg","PilotCam","/PilotCam.20240819_021549773.jpg","BrowCam","/BrowCam.20240819_021549773.jpg","UserSelect","/UserSelect.20240819_021549773.jpg","","","-999.99","14.04","-999.99","-999.99","66c2aad5111b2e001a29efb5"
"2024-08-19T02:23:27.809Z","44.6337030","-124.3080886","VEHICLE","","guest","Jason off deck","","","","","","","-0.77","2.73","-1.4","1.2","325.61","0.86","0.58","SciCam","/SciCam.20240819_022327809.jpg","PilotCam","/PilotCam.20240819_022327809.jpg","BrowCam","/BrowCam.20240819_022327809.jpg","UserSelect","/UserSelect.20240819_022327809.jpg","","","-999.99","14.58","-999.99","-999.99","66c2ac9f111b2e001a29efb9"
"2024-08-19T02:25:17.545Z","44.6336838","-124.3080532","VEHICLE","","guest","Jason in water","","","","","","","2.04","0.60","-1.6","0.5","65.63","0.80","0.58","SciCam","/SciCam.20240819_022517545.jpg","PilotCam","/PilotCam.20240819_022517545.jpg","BrowCam","/BrowCam.20240819_022517545.jpg","UserSelect","/UserSelect.20240819_022517545.jpg","","","-999.99","14.52","-999.99","-999.99","66c2ad0d111b2e001a29efbd"
"2024-08-19T02:26:55.000Z","44.6336729","-124.3080532","ROV Actions","First","guest","","First Football on","","","","","","2.04","-0.61","1.1","0.9","89.89","25.52","0.58","","","","","","","","","","","-999.99","9.22","-999.99","-999.99","66c2adab111b2e001a29efc1"
"2024-08-19T02:31:04.251Z","44.6336738","-124.3080532","ROV Actions","Last","guest","","Last Football on","","","","","","2.04","-0.51","2.4","0.1","87.80","48.94","0.58","SciCam","/SciCam.20240819_023104251.jpg","PilotCam","/PilotCam.20240819_023104251.jpg","BrowCam","/BrowCam.20240819_023104251.jpg","UserSelect","/UserSelect.20240819_023104251.jpg","","","-999.99","7.90","-999.99","-999.99","66c2ae68111b2e001a29efc7"
"2024-08-19T02:42:26.855Z","44.6337067","-124.3080817","VEHICLE","Bottom in sight","guest","Other","","","","","","","-0.22","3.14","-1.1","-0.0","325.29","78.02","0.58","SciCam","/SciCam.20240819_024226855.jpg","PilotCam","/PilotCam.20240819_024226855.jpg","BrowCam","/BrowCam.20240819_024226855.jpg","UserSelect","/UserSelect.20240819_024226855.jpg","","","-999.99","7.45","-999.99","-999.99","66c2b112111b2e001a29efcb"
"2024-08-19T02:44:58.161Z","44.6337049","-124.3080855","VEHICLE","","guest","On bottom","","","","","","","-0.52","2.94","-2.0","2.2","315.76","80.29","0.58","SciCam","/SciCam.20240819_024458161.jpg","PilotCam","/PilotCam.20240819_024458161.jpg","BrowCam","/BrowCam.20240819_024458161.jpg","UserSelect","/UserSelect.20240819_024458161.jpg","","","-999.99","7.35","-999.99","-999.99","66c2b1aa111b2e001a29efd3"
"2024-08-19T02:45:13.084Z","44.6337049","-124.3080856","ASNAP","","admin","","","","","","","","-0.53","2.94","-1.2","2.1","315.62","80.26","0.58","SciCam","/SciCam.20240819_024513084.jpg","PilotCam","/PilotCam.20240819_024513084.jpg","BrowCam","/BrowCam.20240819_024513084.jpg","UserSelect","/UserSelect.20240819_024513084.jpg","","","-999.99","7.33","-999.99","-999.99","66c2b1b9111b2e001a29efd7"
"2024-08-19T02:45:43.138Z","44.6337048","-124.3080856","ASNAP","","admin","","","","","","","","-0.53","2.93","-0.9","2.1","315.56","80.16","0.58","SciCam","/SciCam.20240819_024543138.jpg","PilotCam","/PilotCam.20240819_024543138.jpg","BrowCam","/BrowCam.20240819_024543138.jpg","UserSelect","/UserSelect.20240819_024543138.jpg","","","-999.99","7.32","-999.99","-999.99","66c2b1d7111b2e001a29efdb"
"2024-08-19T02:45:58.160Z","44.6337047","-124.3080857","ASNAP","","admin","","","","","","","","-0.54","2.92","-0.1","2.2","315.41","80.17","0.58","SciCam","/SciCam.20240819_024558160.jpg","PilotCam","/PilotCam.20240819_024558160.jpg","BrowCam","/BrowCam.20240819_024558160.jpg","UserSelect","/UserSelect.20240819_024558160.jpg","","","-999.99","7.41","-999.99","-999.99","66c2b1e6111b2e001a29efdf"
"2024-08-19T02:46:13.191Z","44.6337047","-124.3080857","ASNAP","","admin","","","","","","","","-0.54","2.92","-0.1","2.2","315.43","80.21","0.58","SciCam","/SciCam.20240819_024613191.jpg","PilotCam","/PilotCam.20240819_024613191.jpg","BrowCam","/BrowCam.20240819_024613191.jpg","UserSelect","/UserSelect.20240819_024613191.jpg","","","-999.99","7.38","-999.99","-999.99","66c2b1f5111b2e001a29efe3"
"2024-08-19T02:46:21.290Z","44.6337047","-124.3080857","Biology Type","Flat fish","guest","","","Fish","","","","","-0.54","2.92","0.1","2.2","315.40","80.23","0.58","SciCam","/SciCam.20240819_024621290.jpg","PilotCam","/PilotCam.20240819_024621290.jpg","BrowCam","/BrowCam.20240819_024621290.jpg","UserSelect","/UserSelect.20240819_024621290.jpg","","","-999.99","7.38","-999.99","-999.99","66c2b1fd111b2e001a29efe7"
"2024-08-19T02:46:28.222Z","44.6337047","-124.3080857","ASNAP","","admin","","","","","","","","-0.54","2.92","0.1","2.2","315.40","80.27","0.58","SciCam","/SciCam.20240819_024628222.jpg","PilotCam","/PilotCam.20240819_024628222.jpg","BrowCam","/BrowCam.20240819_024628222.jpg","UserSelect","/UserSelect.20240819_024628222.jpg","","","-999.99","7.33","-999.99","-999.99","66c2b204111b2e001a29efeb"
"2024-08-19T02:46:43.239Z","44.6337047","-124.3080857","ASNAP","","admin","","","","","","","","-0.54","2.92","0.5","2.3","315.57","80.25","0.58","SciCam","/SciCam.20240819_024643239.jpg","PilotCam","/PilotCam.20240819_024643239.jpg","BrowCam","/BrowCam.20240819_024643239.jpg","UserSelect","/UserSelect.20240819_024643239.jpg","","","-999.99","7.25","-999.99","-999.99","66c2b213111b2e001a29efef"
"2024-08-19T02:46:58.270Z","44.6337048","-124.3080857","ASNAP","","admin","","","","","","","","-0.54","2.93","0.1","2.3","315.63","80.24","0.58","SciCam","/SciCam.20240819_024658270.jpg","PilotCam","/PilotCam.20240819_024658270.jpg","BrowCam","/BrowCam.20240819_024658270.jpg","UserSelect","/UserSelect.20240819_024658270.jpg","","","-999.99","7.20","-999.99","-999.99","66c2b222111b2e001a29eff3"
"2024-08-19T02:47:13.298Z","44.6337046","-124.3080857","ASNAP","","admin","","","","","","","","-0.54","2.91","0.1","1.1","315.22","80.26","0.58","SciCam","/SciCam.20240819_024713298.jpg","PilotCam","/PilotCam.20240819_024713298.jpg","BrowCam","/BrowCam.20240819_024713298.jpg","UserSelect","/UserSelect.20240819_024713298.jpg","","","-999.99","7.51","-999.99","-999.99","66c2b231111b2e001a29eff7"
"2024-08-19T02:47:28.320Z","44.6337046","-124.3080857","ASNAP","","admin","","","","","","","","-0.54","2.91","0.0","1.1","315.23","80.25","0.58","SciCam","/SciCam.20240819_024728320.jpg","PilotCam","/PilotCam.20240819_024728320.jpg","BrowCam","/BrowCam.20240819_024728320.jpg","UserSelect","/UserSelect.20240819_024728320.jpg","","","-999.99","7.23","-999.99","-999.99","66c2b240111b2e001a29effb"
"2024-08-19T02:47:43.338Z","44.6337046","-124.3080857","ASNAP","","admin","","","","","","","","-0.54","2.91","-0.1","1.1","315.26","80.25","0.58","SciCam","/SciCam.20240819_024743338.jpg","PilotCam","/PilotCam.20240819_024743338.jpg","BrowCam","/BrowCam.20240819_024743338.jpg","UserSelect","/UserSelect.20240819_024743338.jpg","","","-999.99","7.38","-999.99","-999.99","66c2b24f111b2e001a29efff"
"2024-08-19T02:47:58.371Z","44.6337046","-124.3080857","ASNAP","","admin","","","","","","","","-0.54","2.91","-0.1","1.1","315.24","80.23","0.58","SciCam","/SciCam.20240819_024758371.jpg","PilotCam","/PilotCam.20240819_024758371.jpg","BrowCam","/BrowCam.20240819_024758371.jpg","UserSelect","/UserSelect.20240819_024758371.jpg","","","-999.99","7.34","-999.99","-999.99","66c2b25e111b2e001a29f003"
"2024-08-19T02:48:13.403Z","44.6337046","-124.3080857","ASNAP","","admin","","","","","","","","-0.54","2.91","0.0","1.1","315.22","80.27","0.58","SciCam","/SciCam.20240819_024813403.jpg","PilotCam","/PilotCam.20240819_024813403.jpg","BrowCam","/BrowCam.20240819_024813403.jpg","UserSelect","/UserSelect.20240819_024813403.jpg","","","-999.99","7.27","-999.99","-999.99","66c2b26d111b2e001a29f007"
"2024-08-19T02:48:28.436Z","44.6337046","-124.3080857","ASNAP","","admin","","","","","","","","-0.54","2.91","0.0","1.1","315.23","80.28","0.58","SciCam","/SciCam.20240819_024828436.jpg","PilotCam","/PilotCam.20240819_024828436.jpg","BrowCam","/BrowCam.20240819_024828436.jpg","UserSelect","/UserSelect.20240819_024828436.jpg","","","-999.99","7.34","-999.99","-999.99","66c2b27c111b2e001a29f00b"
"2024-08-19T02:48:43.467Z","44.6337046","-124.3080857","ASNAP","","admin","","","","","","","","-0.54","2.91","0.1","1.1","315.21","80.26","0.58","SciCam","/SciCam.20240819_024843467.jpg","PilotCam","/PilotCam.20240819_024843467.jpg","BrowCam","/BrowCam.20240819_024843467.jpg","UserSelect","/UserSelect.20240819_024843467.jpg","","","-999.99","7.40","-999.99","-999.99","66c2b28b111b2e001a29f00f"
"2024-08-19T02:48:58.501Z","44.6337046","-124.3080857","ASNAP","","admin","","","","","","","","-0.54","2.91","0.0","1.1","315.22","80.22","0.58","SciCam","/SciCam.20240819_024858501.jpg","PilotCam","/PilotCam.20240819_024858501.jpg","BrowCam","/BrowCam.20240819_024858501.jpg","UserSelect","/UserSelect.20240819_024858501.jpg","","","-999.99","7.48","-999.99","-999.99","66c2b29a111b2e001a29f013"
"2024-08-19T02:49:13.527Z","44.6337046","-124.3080857","ASNAP","","admin","","","","","","","","-0.54","2.91","-0.0","1.1","315.23","80.19","0.58","SciCam","/SciCam.20240819_024913527.jpg","PilotCam","/PilotCam.20240819_024913527.jpg","BrowCam","/BrowCam.20240819_024913527.jpg","UserSelect","/UserSelect.20240819_024913527.jpg","","","-999.99","7.47","-999.99","-999.99","66c2b2a9111b2e001a29f017"
"2024-08-19T02:49:28.558Z","44.6337046","-124.3080857","ASNAP","","admin","","","","","","","","-0.54","2.91","-0.1","1.1","315.25","80.21","0.58","SciCam","/SciCam.20240819_024928558.jpg","PilotCam","/PilotCam.20240819_024928558.jpg","BrowCam","/BrowCam.20240819_024928558.jpg","UserSelect","/UserSelect.20240819_024928558.jpg","","","-999.99","7.19","-999.99","-999.99","66c2b2b8111b2e001a29f01b"
"2024-08-19T02:49:43.586Z","44.6337046","-124.3080857","ASNAP","","admin","","","","","","","","-0.54","2.91","-0.2","1.1","315.26","80.28","0.58","SciCam","/SciCam.20240819_024943586.jpg","PilotCam","/PilotCam.20240819_024943586.jpg","BrowCam","/BrowCam.20240819_024943586.jpg","UserSelect","/UserSelect.20240819_024943586.jpg","","","-999.99","7.34","-999.99","-999.99","66c2b2c7111b2e001a29f01f"
"2024-08-19T02:49:58.616Z","44.6337046","-124.3080857","ASNAP","","admin","","","","","","","","-0.54","2.91","-0.0","1.1","315.22","80.29","0.58","SciCam","/SciCam.20240819_024958616.jpg","PilotCam","/PilotCam.20240819_024958616.jpg","BrowCam","/BrowCam.20240819_024958616.jpg","UserSelect","/UserSelect.20240819_024958616.jpg","","","-999.99","7.42","-999.99","-999.99","66c2b2d6111b2e001a29f023"
"2024-08-19T02:50:13.648Z","44.6337046","-124.3080857","ASNAP","","admin","","","","","","","","-0.54","2.91","0.0","1.1","315.20","80.25","0.58","SciCam","/SciCam.20240819_025013648.jpg","PilotCam","/PilotCam.20240819_025013648.jpg","BrowCam","/BrowCam.20240819_025013648.jpg","UserSelect","/UserSelect.20240819_025013648.jpg","","","-999.99","7.53","-999.99","-999.99","66c2b2e5111b2e001a29f027"
"2024-08-19T02:50:28.679Z","44.6337046","-124.3080857","ASNAP","","admin","","","","","","","","-0.54","2.91","0.0","1.0","315.20","80.23","0.58","SciCam","/SciCam.20240819_025028679.jpg","PilotCam","/PilotCam.20240819_025028679.jpg","BrowCam","/BrowCam.20240819_025028679.jpg","UserSelect","/UserSelect.20240819_025028679.jpg","","","-999.99","7.33","-999.99","-999.99","66c2b2f4111b2e001a29f02b"
"2024-08-19T02:50:43.711Z","44.6337046","-124.3080857","ASNAP","","admin","","","","","","","","-0.54","2.91","-0.2","0.4","315.18","80.18","0.58","SciCam","/SciCam.20240819_025043711.jpg","PilotCam","/PilotCam.20240819_025043711.jpg","BrowCam","/BrowCam.20240819_025043711.jpg","UserSelect","/UserSelect.20240819_025043711.jpg","","","-999.99","7.26","-999.99","-999.99","66c2b303111b2e001a29f02f"
"2024-08-19T02:50:58.741Z","44.6337066","-124.3080799","ASNAP","","admin","","","","","","","","-0.08","3.13","-0.1","-4.7","331.57","78.67","3.14","SciCam","/SciCam.20240819_025058741.jpg","PilotCam","/PilotCam.20240819_025058741.jpg","BrowCam","/BrowCam.20240819_025058741.jpg","UserSelect","/UserSelect.20240819_025058741.jpg","","","-999.99","7.45","-999.99","-999.99","66c2b312111b2e001a29f037"
"2024-08-19T02:51:01.700Z","44.6337064","-124.3080866","ROV Actions","New BEP","guest","","Unlatching from","","","","","","-0.61","3.11","-0.6","-5.0","340.70","78.47","3.25","SciCam","/SciCam.20240819_025101700.jpg","PilotCam","/PilotCam.20240819_025101700.jpg","BrowCam","/BrowCam.20240819_025101700.jpg","UserSelect","/UserSelect.20240819_025101700.jpg","","","-999.99","7.36","-999.99","-999.99","66c2b315111b2e001a29f03b"
"2024-08-19T02:51:13.772Z","44.6337147","-124.3081161","ASNAP","","admin","","","","","","","","-2.95","4.03","-0.4","-4.6","63.00","78.26","3.80","SciCam","/SciCam.20240819_025113772.jpg","PilotCam","/PilotCam.20240819_025113772.jpg","BrowCam","/BrowCam.20240819_025113772.jpg","UserSelect","/UserSelect.20240819_025113772.jpg","","","-999.99","7.21","-999.99","-999.99","66c2b321111b2e001a29f03f"
"2024-08-19T02:51:28.803Z","44.6337354","-124.3080579","ASNAP","","admin","","","","","","","","1.67","6.33","-0.1","-5.9","80.94","78.79","3.26","SciCam","/SciCam.20240819_025128803.jpg","PilotCam","/PilotCam.20240819_025128803.jpg","BrowCam","/BrowCam.20240819_025128803.jpg","UserSelect","/UserSelect.20240819_025128803.jpg","","","-999.99","7.32","-999.99","-999.99","66c2b330111b2e001a29f043"
"2024-08-19T02:51:43.836Z","44.6337449","-124.3080125","ASNAP","","admin","","","","","","","","5.27","7.39","1.2","-4.9","78.25","77.56","4.40","SciCam","/SciCam.20240819_025143836.jpg","PilotCam","/PilotCam.20240819_025143836.jpg","BrowCam","/BrowCam.20240819_025143836.jpg","UserSelect","/UserSelect.20240819_025143836.jpg","","","-999.99","7.49","-999.99","-999.99","66c2b33f111b2e001a29f047"
"2024-08-19T02:51:58.868Z","44.6337544","-124.3079969","ASNAP","","admin","","","","","","","","6.51","8.44","0.1","-5.0","77.09","77.27","4.83","SciCam","/SciCam.20240819_025158868.jpg","PilotCam","/PilotCam.20240819_025158868.jpg","BrowCam","/BrowCam.20240819_025158868.jpg","UserSelect","/UserSelect.20240819_025158868.jpg","","","-999.99","7.31","-999.99","-999.99","66c2b34e111b2e001a29f04b"
"2024-08-19T02:52:13.903Z","44.6337752","-124.3080060","ASNAP","","admin","","","","","","","","5.79","10.76","-0.9","-4.5","76.50","77.57","4.64","SciCam","/SciCam.20240819_025213903.jpg","PilotCam","/PilotCam.20240819_025213903.jpg","BrowCam","/BrowCam.20240819_025213903.jpg","UserSelect","/UserSelect.20240819_025213903.jpg","","","-999.99","7.37","-999.99","-999.99","66c2b35d111b2e001a29f04f"
"2024-08-19T02:52:28.934Z","44.6337601","-124.3079932","ASNAP","","admin","","","","","","","","6.80","9.08","-0.0","-4.6","76.77","78.71","3.48","SciCam","/SciCam.20240819_025228934.jpg","PilotCam","/PilotCam.20240819_025228934.jpg","BrowCam","/BrowCam.20240819_025228934.jpg","UserSelect","/UserSelect.20240819_025228934.jpg","","","-999.99","7.24","-999.99","-999.99","66c2b36c111b2e001a29f053"
"2024-08-19T02:52:43.965Z","44.6337536","-124.3079615","ASNAP","","admin","","","","","","","","9.32","8.36","-0.2","-4.4","70.14","80.18","2.09","SciCam","/SciCam.20240819_025243965.jpg","PilotCam","/PilotCam.20240819_025243965.jpg","BrowCam","/BrowCam.20240819_025243965.jpg","UserSelect","/UserSelect.20240819_025243965.jpg","","","-999.99","7.35","-999.99","-999.99","66c2b37b111b2e001a29f057"
"2024-08-19T02:52:58.998Z","44.6337607","-124.3079665","ASNAP","","admin","","","","","","","","8.92","9.14","-0.2","-4.6","71.84","80.14","2.11","SciCam","/SciCam.20240819_025258998.jpg","PilotCam","/PilotCam.20240819_025258998.jpg","BrowCam","/BrowCam.20240819_025258998.jpg","UserSelect","/UserSelect.20240819_025258998.jpg","","","-999.99","7.26","-999.99","-999.99","66c2b38a111b2e001a29f05b"
"2024-08-19T02:53:14.030Z","44.6337619","-124.3079951","ASNAP","","admin","","","","","","","","6.65","9.28","0.2","-4.2","154.43","79.70","2.48","SciCam","/SciCam.20240819_025314030.jpg","PilotCam","/PilotCam.20240819_025314030.jpg","BrowCam","/BrowCam.20240819_025314030.jpg","UserSelect","/UserSelect.20240819_025314030.jpg","","","-999.99","7.36","-999.99","-999.99","66c2b39a111b2e001a29f05f"
"2024-08-19T02:53:29.060Z","44.6337751","-124.3080313","ASNAP","","admin","","","","","","","","3.78","10.74","0.5","-6.1","225.15","79.61","2.55","SciCam","/SciCam.20240819_025329060.jpg","PilotCam","/PilotCam.20240819_025329060.jpg","BrowCam","/BrowCam.20240819_025329060.jpg","UserSelect","/UserSelect.20240819_025329060.jpg","","","-999.99","7.22","-999.99","-999.99","66c2b3a9111b2e001a29f063"
"2024-08-19T02:53:44.092Z","44.6337685","-124.3080797","ASNAP","","admin","","","","","","","","-0.06","10.01","0.8","-5.3","230.60","79.69","2.45","SciCam","/SciCam.20240819_025344092.jpg","PilotCam","/PilotCam.20240819_025344092.jpg","BrowCam","/BrowCam.20240819_025344092.jpg","UserSelect","/UserSelect.20240819_025344092.jpg","","","-999.99","7.29","-999.99","-999.99","66c2b3b8111b2e001a29f067"
"2024-08-19T02:53:59.123Z","44.6337584","-124.3081283","ASNAP","","admin","","","","","","","","-3.92","8.89","0.2","-5.5","228.22","79.93","2.25","SciCam","/SciCam.20240819_025359123.jpg","PilotCam","/PilotCam.20240819_025359123.jpg","BrowCam","/BrowCam.20240819_025359123.jpg","UserSelect","/UserSelect.20240819_025359123.jpg","","","-999.99","7.35","-999.99","-999.99","66c2b3c7111b2e001a29f06b"
"2024-08-19T02:54:14.153Z","44.6337504","-124.3081768","ASNAP","","admin","","","","","","","","-7.77","8.00","0.6","-5.6","230.93","80.21","2.11","SciCam","/SciCam.20240819_025414153.jpg","PilotCam","/PilotCam.20240819_025414153.jpg","BrowCam","/BrowCam.20240819_025414153.jpg","UserSelect","/UserSelect.20240819_025414153.jpg","","","-999.99","7.39","-999.99","-999.99","66c2b3d6111b2e001a29f06f"
"2024-08-19T02:54:29.184Z","44.6337487","-124.3081840","ASNAP","","admin","","","","","","","","-8.34","7.81","0.2","-4.6","213.40","80.28","1.97","SciCam","/SciCam.20240819_025429184.jpg","PilotCam","/PilotCam.20240819_025429184.jpg","BrowCam","/BrowCam.20240819_025429184.jpg","UserSelect","/UserSelect.20240819_025429184.jpg","","","-999.99","7.39","-999.99","-999.99","66c2b3e5111b2e001a29f073"
"2024-08-19T02:54:32.186Z","44.6337506","-124.3081816","Biology Type","","guest","","","Crab","","","","","-8.15","8.02","0.8","-4.3","213.55","80.41","1.77","SciCam","/SciCam.20240819_025432186.jpg","PilotCam","/PilotCam.20240819_025432186.jpg","BrowCam","/BrowCam.20240819_025432186.jpg","UserSelect","/UserSelect.20240819_025432186.jpg","","","-999.99","7.36","-999.99","-999.99","66c2b3e8111b2e001a29f077"
"2024-08-19T02:54:44.215Z","44.6337344","-124.3081719","ASNAP","","admin","","","","","","","","-7.38","6.22","-0.5","-4.5","143.12","80.46","1.68","SciCam","/SciCam.20240819_025444215.jpg","PilotCam","/PilotCam.20240819_025444215.jpg","BrowCam","/BrowCam.20240819_025444215.jpg","UserSelect","/UserSelect.20240819_025444215.jpg","","","-999.99","7.40","-999.99","-999.99","66c2b3f4111b2e001a29f07b"
"2024-08-19T02:54:59.247Z","44.6337460","-124.3081233","ASNAP","","admin","","","","","","","","-3.52","7.51","-0.4","-5.1","107.62","80.50","1.61","SciCam","/SciCam.20240819_025459247.jpg","PilotCam","/PilotCam.20240819_025459247.jpg","BrowCam","/BrowCam.20240819_025459247.jpg","UserSelect","/UserSelect.20240819_025459247.jpg","","","-999.99","7.36","-999.99","-999.99","66c2b403111b2e001a29f07f"
"2024-08-19T02:55:14.277Z","44.6337507","-124.3080866","ASNAP","","admin","","","","","","","","-0.61","8.03","-0.0","-4.6","111.40","80.26","1.82","SciCam","/SciCam.20240819_025514277.jpg","PilotCam","/PilotCam.20240819_025514277.jpg","BrowCam","/BrowCam.20240819_025514277.jpg","UserSelect","/UserSelect.20240819_025514277.jpg","","","-999.99","7.19","-999.99","-999.99","66c2b412111b2e001a29f083"
"2024-08-19T02:55:29.306Z","44.6337580","-124.3080337","ASNAP","","admin","","","","","","","","3.59","8.84","-0.6","-3.0","110.43","79.94","2.19","SciCam","/SciCam.20240819_025529306.jpg","PilotCam","/PilotCam.20240819_025529306.jpg","BrowCam","/BrowCam.20240819_025529306.jpg","UserSelect","/UserSelect.20240819_025529306.jpg","","","-999.99","7.48","-999.99","-999.99","66c2b421111b2e001a29f087"
"2024-08-19T02:55:44.340Z","44.6337673","-124.3080116","ASNAP","","admin","","","","","","","","5.34","9.88","-0.0","-4.6","112.36","79.18","2.99","SciCam","/SciCam.20240819_025544340.jpg","PilotCam","/PilotCam.20240819_025544340.jpg","BrowCam","/BrowCam.20240819_025544340.jpg","UserSelect","/UserSelect.20240819_025544340.jpg","","","-999.99","7.32","-999.99","-999.99","66c2b430111b2e001a29f08b"
"2024-08-19T02:55:59.371Z","44.6337794","-124.3080158","ASNAP","","admin","","","","","","","","5.01","11.22","-0.2","-3.9","118.35","79.05","3.16","SciCam","/SciCam.20240819_025559371.jpg","PilotCam","/PilotCam.20240819_025559371.jpg","BrowCam","/BrowCam.20240819_025559371.jpg","UserSelect","/UserSelect.20240819_025559371.jpg","","","-999.99","7.27","-999.99","-999.99","66c2b43f111b2e001a29f093"
"2024-08-19T02:56:14.403Z","44.6337801","-124.3080120","ASNAP","","admin","","","","","","","","5.31","11.30","0.1","-3.0","117.48","79.53","2.67","SciCam","/SciCam.20240819_025614403.jpg","PilotCam","/PilotCam.20240819_025614403.jpg","BrowCam","/BrowCam.20240819_025614403.jpg","UserSelect","/UserSelect.20240819_025614403.jpg","","","-999.99","7.24","-999.99","-999.99","66c2b44e111b2e001a29f097"
"2024-08-19T02:56:29.435Z","44.6337741","-124.3080056","ASNAP","","admin","","","","","","","","5.82","10.63","0.1","-3.7","121.79","80.60","1.57","SciCam","/SciCam.20240819_025629435.jpg","PilotCam","/PilotCam.20240819_025629435.jpg","BrowCam","/BrowCam.20240819_025629435.jpg","UserSelect","/UserSelect.20240819_025629435.jpg","","","-999.99","7.40","-999.99","-999.99","66c2b45d111b2e001a29f09b"
"2024-08-19T02:56:44.465Z","44.6337764","-124.3080038","ASNAP","","admin","","","","","","","","5.96","10.89","-0.3","-4.1","117.54","80.74","0.58","SciCam","/SciCam.20240819_025644465.jpg","PilotCam","/PilotCam.20240819_025644465.jpg","BrowCam","/BrowCam.20240819_025644465.jpg","UserSelect","/UserSelect.20240819_025644465.jpg","","","-999.99","7.44","-999.99","-999.99","66c2b46c111b2e001a29f09f"
"2024-08-19T02:56:59.486Z","44.6337762","-124.3080026","ASNAP","","admin","","","","","","","","6.06","10.87","0.0","-2.8","118.11","80.80","0.58","SciCam","/SciCam.20240819_025659486.jpg","PilotCam","/PilotCam.20240819_025659486.jpg","BrowCam","/BrowCam.20240819_025659486.jpg","UserSelect","/UserSelect.20240819_025659486.jpg","","","-999.99","7.49","-999.99","-999.99","66c2b47b111b2e001a29f0a3"
"2024-08-19T02:57:14.516Z","44.6337762","-124.3080026","ASNAP","","admin","","","","","","","","6.06","10.87","-0.7","-2.6","117.61","81.11","0.58","SciCam","/SciCam.20240819_025714516.jpg","PilotCam","/PilotCam.20240819_025714516.jpg","BrowCam","/BrowCam.20240819_025714516.jpg","UserSelect","/UserSelect.20240819_025714516.jpg","","","-999.99","7.40","-999.99","-999.99","66c2b48a111b2e001a29f0a7"
"2024-08-19T02:57:29.540Z","44.6337764","-124.3080026","ASNAP","","admin","","","","","","","","6.06","10.89","-1.9","-3.3","117.36","81.21","0.58","SciCam","/SciCam.20240819_025729540.jpg","PilotCam","/PilotCam.20240819_025729540.jpg","BrowCam","/BrowCam.20240819_025729540.jpg","UserSelect","/UserSelect.20240819_025729540.jpg","","","-999.99","7.33","-999.99","-999.99","66c2b499111b2e001a29f0ab"
"2024-08-19T02:57:44.572Z","44.6337764","-124.3080026","ASNAP","","admin","","","","","","","","6.06","10.89","-1.9","-3.3","117.40","81.23","0.58","SciCam","/SciCam.20240819_025744572.jpg","PilotCam","/PilotCam.20240819_025744572.jpg","BrowCam","/BrowCam.20240819_025744572.jpg","UserSelect","/UserSelect.20240819_025744572.jpg","","","-999.99","7.33","-999.99","-999.99","66c2b4a8111b2e001a29f0af"
"2024-08-19T02:57:59.605Z","44.6337763","-124.3080027","ASNAP","","admin","","","","","","","","6.05","10.88","-2.4","-4.0","117.52","81.22","0.58","SciCam","/SciCam.20240819_025759605.jpg","PilotCam","/PilotCam.20240819_025759605.jpg","BrowCam","/BrowCam.20240819_025759605.jpg","UserSelect","/UserSelect.20240819_025759605.jpg","","","-999.99","7.37","-999.99","-999.99","66c2b4b7111b2e001a29f0b3"
"2024-08-19T02:58:14.637Z","44.6337763","-124.3080027","ASNAP","","admin","","","","","","","","6.05","10.88","-2.4","-4.0","117.55","81.19","0.58","SciCam","/SciCam.20240819_025814637.jpg","PilotCam","/PilotCam.20240819_025814637.jpg","BrowCam","/BrowCam.20240819_025814637.jpg","UserSelect","/UserSelect.20240819_025814637.jpg","","","-999.99","7.34","-999.99","-999.99","66c2b4c6111b2e001a29f0b7"
"2024-08-19T02:58:29.666Z","44.6337763","-124.3080027","ASNAP","","admin","","","","","","","","6.05","10.88","-2.3","-3.9","117.54","81.15","0.58","SciCam","/SciCam.20240819_025829666.jpg","PilotCam","/PilotCam.20240819_025829666.jpg","BrowCam","/BrowCam.20240819_025829666.jpg","UserSelect","/UserSelect.20240819_025829666.jpg","","","-999.99","7.45","-999.99","-999.99","66c2b4d5111b2e001a29f0bb"
"2024-08-19T02:58:44.696Z","44.6337763","-124.3080027","ASNAP","","admin","","","","","","","","6.05","10.88","-2.2","-3.8","117.54","81.11","0.58","SciCam","/SciCam.20240819_025844696.jpg","PilotCam","/PilotCam.20240819_025844696.jpg","BrowCam","/BrowCam.20240819_025844696.jpg","UserSelect","/UserSelect.20240819_025844696.jpg","","","-999.99","7.31","-999.99","-999.99","66c2b4e4111b2e001a29f0bf"
"2024-08-19T02:58:59.728Z","44.6337763","-124.3080027","ASNAP","","admin","","","","","","","","6.05","10.88","-2.3","-3.9","117.55","81.16","0.58","SciCam","/SciCam.20240819_025859728.jpg","PilotCam","/PilotCam.20240819_025859728.jpg","BrowCam","/BrowCam.20240819_025859728.jpg","UserSelect","/UserSelect.20240819_025859728.jpg","","","-999.99","7.30","-999.99","-999.99","66c2b4f3111b2e001a29f0c3"
"2024-08-19T02:59:14.760Z","44.6337763","-124.3080027","ASNAP","","admin","","","","","","","","6.05","10.88","-2.3","-4.0","117.56","81.24","0.58","SciCam","/SciCam.20240819_025914760.jpg","PilotCam","/PilotCam.20240819_025914760.jpg","BrowCam","/BrowCam.20240819_025914760.jpg","UserSelect","/UserSelect.20240819_025914760.jpg","","","-999.99","7.45","-999.99","-999.99","66c2b502111b2e001a29f0c7"
"2024-08-19T02:59:22.365Z","44.6337763","-124.3080027","ROV Actions","Picked  up SHBRW1 Connector ","guest","","(Starboard) Manipulator in use","","","","","","6.05","10.88","-2.3","-3.9","117.56","81.14","0.58","SciCam","/SciCam.20240819_025922365.jpg","PilotCam","/PilotCam.20240819_025922365.jpg","BrowCam","/BrowCam.20240819_025922365.jpg","UserSelect","/UserSelect.20240819_025922365.jpg","","","-999.99","7.34","-999.99","-999.99","66c2b50a111b2e001a29f0cb"
"2024-08-19T02:59:29.786Z","44.6337763","-124.3080027","ASNAP","","admin","","","","","","","","6.05","10.88","-2.3","-4.0","117.56","81.25","0.58","SciCam","/SciCam.20240819_025929786.jpg","PilotCam","/PilotCam.20240819_025929786.jpg","BrowCam","/BrowCam.20240819_025929786.jpg","UserSelect","/UserSelect.20240819_025929786.jpg","","","-999.99","7.35","-999.99","-999.99","66c2b511111b2e001a29f0cf"
"2024-08-19T02:59:44.812Z","44.6337763","-124.3080027","ASNAP","","admin","","","","","","","","6.05","10.88","-2.3","-4.0","117.56","81.21","0.58","SciCam","/SciCam.20240819_025944812.jpg","PilotCam","/PilotCam.20240819_025944812.jpg","BrowCam","/BrowCam.20240819_025944812.jpg","UserSelect","/UserSelect.20240819_025944812.jpg","","","-999.99","7.22","-999.99","-999.99","66c2b520111b2e001a29f0d3"
"2024-08-19T02:59:59.846Z","44.6337763","-124.3080027","ASNAP","","admin","","","","","","","","6.05","10.88","-2.3","-4.0","117.57","81.16","0.58","SciCam","/SciCam.20240819_025959846.jpg","PilotCam","/PilotCam.20240819_025959846.jpg","BrowCam","/BrowCam.20240819_025959846.jpg","UserSelect","/UserSelect.20240819_025959846.jpg","","","-999.99","7.33","-999.99","-999.99","66c2b52f111b2e001a29f0d7"
"2024-08-19T03:00:14.878Z","44.6337763","-124.3080027","ASNAP","","admin","","","","","","","","6.05","10.88","-2.3","-4.0","117.59","81.13","0.58","SciCam","/SciCam.20240819_030014878.jpg","PilotCam","/PilotCam.20240819_030014878.jpg","BrowCam","/BrowCam.20240819_030014878.jpg","UserSelect","/UserSelect.20240819_030014878.jpg","","","-999.99","7.31","-999.99","-999.99","66c2b53e111b2e001a29f0db"
"2024-08-19T03:00:29.908Z","44.6337761","-124.3080028","ASNAP","","admin","","","","","","","","6.04","10.86","-2.5","-4.2","118.03","81.13","0.58","SciCam","/SciCam.20240819_030029908.jpg","PilotCam","/PilotCam.20240819_030029908.jpg","BrowCam","/BrowCam.20240819_030029908.jpg","UserSelect","/UserSelect.20240819_030029908.jpg","","","-999.99","7.39","-999.99","-999.99","66c2b54d111b2e001a29f0df"
"2024-08-19T03:00:44.939Z","44.6337761","-124.3080028","ASNAP","","admin","","","","","","","","6.04","10.86","-2.5","-4.2","118.04","81.19","0.58","SciCam","/SciCam.20240819_030044939.jpg","PilotCam","/PilotCam.20240819_030044939.jpg","BrowCam","/BrowCam.20240819_030044939.jpg","UserSelect","/UserSelect.20240819_030044939.jpg","","","-999.99","7.29","-999.99","-999.99","66c2b55c111b2e001a29f0e3"
"2024-08-19T03:00:59.969Z","44.6337761","-124.3080028","ASNAP","","admin","","","","","","","","6.04","10.86","-2.5","-4.2","118.04","81.27","0.58","SciCam","/SciCam.20240819_030059969.jpg","PilotCam","/PilotCam.20240819_030059969.jpg","BrowCam","/BrowCam.20240819_030059969.jpg","UserSelect","/UserSelect.20240819_030059969.jpg","","","-999.99","7.28","-999.99","-999.99","66c2b56b111b2e001a29f0e7"
"2024-08-19T03:01:14.986Z","44.6337761","-124.3080028","ASNAP","","admin","","","","","","","","6.04","10.86","-2.5","-4.2","118.04","81.30","0.58","SciCam","/SciCam.20240819_030114986.jpg","PilotCam","/PilotCam.20240819_030114986.jpg","BrowCam","/BrowCam.20240819_030114986.jpg","UserSelect","/UserSelect.20240819_030114986.jpg","","","-999.99","7.43","-999.99","-999.99","66c2b57a111b2e001a29f0eb"
"2024-08-19T03:01:30.013Z","44.6337761","-124.3080028","ASNAP","","admin","","","","","","","","6.04","10.86","-2.5","-4.2","118.04","81.22","0.58","SciCam","/SciCam.20240819_030130013.jpg","PilotCam","/PilotCam.20240819_030130013.jpg","BrowCam","/BrowCam.20240819_030130013.jpg","UserSelect","/UserSelect.20240819_030130013.jpg","","","-999.99","7.24","-999.99","-999.99","66c2b58a111b2e001a29f0ef"
"2024-08-19T03:01:45.043Z","44.6337761","-124.3080028","ASNAP","","admin","","","","","","","","6.04","10.86","-2.5","-4.2","118.05","81.13","0.58","SciCam","/SciCam.20240819_030145043.jpg","PilotCam","/PilotCam.20240819_030145043.jpg","BrowCam","/BrowCam.20240819_030145043.jpg","UserSelect","/UserSelect.20240819_030145043.jpg","","","-999.99","7.43","-999.99","-999.99","66c2b599111b2e001a29f0f3"
"2024-08-19T03:02:00.073Z","44.6337761","-124.3080028","ASNAP","","admin","","","","","","","","6.04","10.86","-2.3","-4.0","118.15","81.06","0.58","SciCam","/SciCam.20240819_030200073.jpg","PilotCam","/PilotCam.20240819_030200073.jpg","BrowCam","/BrowCam.20240819_030200073.jpg","UserSelect","/UserSelect.20240819_030200073.jpg","","","-999.99","7.24","-999.99","-999.99","66c2b5a8111b2e001a29f0f7"
"2024-08-19T03:02:15.106Z","44.6337757","-124.3080032","ASNAP","","admin","","","","","","","","6.01","10.81","-2.4","-4.0","119.48","81.11","0.58","SciCam","/SciCam.20240819_030215106.jpg","PilotCam","/PilotCam.20240819_030215106.jpg","BrowCam","/BrowCam.20240819_030215106.jpg","UserSelect","/UserSelect.20240819_030215106.jpg","","","-999.99","7.51","-999.99","-999.99","66c2b5b7111b2e001a29f0fb"
"2024-08-19T03:02:30.137Z","44.6337755","-124.3080033","ASNAP","","admin","","","","","","","","6.00","10.79","-2.3","-3.9","119.92","81.20","0.58","SciCam","/SciCam.20240819_030230137.jpg","PilotCam","/PilotCam.20240819_030230137.jpg","BrowCam","/BrowCam.20240819_030230137.jpg","UserSelect","/UserSelect.20240819_030230137.jpg","","","-999.99","7.31","-999.99","-999.99","66c2b5c6111b2e001a29f0ff"
"2024-08-19T03:02:45.166Z","44.6337755","-124.3080034","ASNAP","","admin","","","","","","","","5.99","10.79","-2.5","-4.1","120.02","81.31","0.58","SciCam","/SciCam.20240819_030245166.jpg","PilotCam","/PilotCam.20240819_030245166.jpg","BrowCam","/BrowCam.20240819_030245166.jpg","UserSelect","/UserSelect.20240819_030245166.jpg","","","-999.99","7.41","-999.99","-999.99","66c2b5d5111b2e001a29f103"
"2024-08-19T03:03:00.197Z","44.6337714","-124.3080215","ASNAP","","admin","","","","","","","","4.56","10.33","2.0","-4.7","144.41","79.84","2.39","SciCam","/SciCam.20240819_030300197.jpg","PilotCam","/PilotCam.20240819_030300197.jpg","BrowCam","/BrowCam.20240819_030300197.jpg","UserSelect","/UserSelect.20240819_030300197.jpg","","","-999.99","7.32","-999.99","-999.99","66c2b5e4111b2e001a29f107"
"2024-08-19T03:03:04.379Z","44.6337725","-124.3080381","ROV Actions","Handling orange cable ","guest","","(Port) Manipulator in use","","","","","","3.24","10.45","0.9","-5.3","153.17","79.57","2.72","SciCam","/SciCam.20240819_030304379.jpg","PilotCam","/PilotCam.20240819_030304379.jpg","BrowCam","/BrowCam.20240819_030304379.jpg","UserSelect","/UserSelect.20240819_030304379.jpg","","","-999.99","8.31","-999.99","-999.99","66c2b5e8111b2e001a29f10b"
"2024-08-19T03:03:15.225Z","44.6337652","-124.3080760","ASNAP","","admin","","","","","","","","0.23","9.64","0.7","-5.3","160.21","80.15","2.11","SciCam","/SciCam.20240819_030315225.jpg","PilotCam","/PilotCam.20240819_030315225.jpg","BrowCam","/BrowCam.20240819_030315225.jpg","UserSelect","/UserSelect.20240819_030315225.jpg","","","-999.99","7.28","-999.99","-999.99","66c2b5f3111b2e001a29f10f"
"2024-08-19T03:03:30.254Z","44.6337489","-124.3081219","ASNAP","","admin","","","","","","","","-3.41","7.83","0.2","-5.3","158.90","80.11","2.05","SciCam","/SciCam.20240819_030330254.jpg","PilotCam","/PilotCam.20240819_030330254.jpg","BrowCam","/BrowCam.20240819_030330254.jpg","UserSelect","/UserSelect.20240819_030330254.jpg","","","-999.99","7.23","-999.99","-999.99","66c2b602111b2e001a29f113"
"2024-08-19T03:03:45.286Z","44.6337308","-124.3081077","ASNAP","","admin","","","","","","","","-2.28","5.82","-0.4","-5.6","178.91","80.27","1.97","SciCam","/SciCam.20240819_030345286.jpg","PilotCam","/PilotCam.20240819_030345286.jpg","BrowCam","/BrowCam.20240819_030345286.jpg","UserSelect","/UserSelect.20240819_030345286.jpg","","","-999.99","7.26","-999.99","-999.99","66c2b611111b2e001a29f117"
"2024-08-19T03:04:00.318Z","44.6337278","-124.3081118","ASNAP","","admin","","","","","","","","-2.61","5.49","0.5","-5.2","212.50","80.82","0.58","SciCam","/SciCam.20240819_030400318.jpg","PilotCam","/PilotCam.20240819_030400318.jpg","BrowCam","/BrowCam.20240819_030400318.jpg","UserSelect","/UserSelect.20240819_030400318.jpg","","","-999.99","7.32","-999.99","-999.99","66c2b620111b2e001a29f11b"
"2024-08-19T03:04:15.352Z","44.6337353","-124.3081171","ASNAP","","admin","","","","","","","","-3.03","6.32","0.9","-5.3","232.52","80.92","0.58","SciCam","/SciCam.20240819_030415352.jpg","PilotCam","/PilotCam.20240819_030415352.jpg","BrowCam","/BrowCam.20240819_030415352.jpg","UserSelect","/UserSelect.20240819_030415352.jpg","","","-999.99","7.41","-999.99","-999.99","66c2b62f111b2e001a29f11f"
"2024-08-19T03:04:30.372Z","44.6337315","-124.3081152","ASNAP","","admin","","","","","","","","-2.88","5.90","-0.1","-2.8","223.15","80.98","0.58","SciCam","/SciCam.20240819_030430372.jpg","PilotCam","/PilotCam.20240819_030430372.jpg","BrowCam","/BrowCam.20240819_030430372.jpg","UserSelect","/UserSelect.20240819_030430372.jpg","","","-999.99","7.41","-999.99","-999.99","66c2b63e111b2e001a29f123"
"2024-08-19T03:04:45.405Z","44.6337316","-124.3081098","ASNAP","","admin","","","","","","","","-2.45","5.91","0.9","-5.0","231.13","80.27","2.11","SciCam","/SciCam.20240819_030445405.jpg","PilotCam","/PilotCam.20240819_030445405.jpg","BrowCam","/BrowCam.20240819_030445405.jpg","UserSelect","/UserSelect.20240819_030445405.jpg","","","-999.99","7.40","-999.99","-999.99","66c2b64d111b2e001a29f127"
"2024-08-19T03:05:00.439Z","44.6337310","-124.3081100","ASNAP","","admin","","","","","","","","-2.47","5.84","1.4","-2.4","219.89","80.83","0.58","SciCam","/SciCam.20240819_030500439.jpg","PilotCam","/PilotCam.20240819_030500439.jpg","BrowCam","/BrowCam.20240819_030500439.jpg","UserSelect","/UserSelect.20240819_030500439.jpg","","","-999.99","6.97","-999.99","-999.99","66c2b65c111b2e001a29f12b"
"2024-08-19T03:05:15.472Z","44.6337327","-124.3081113","ASNAP","","admin","","","","","","","","-2.57","6.03","-2.4","-2.8","223.97","80.96","0.58","SciCam","/SciCam.20240819_030515472.jpg","PilotCam","/PilotCam.20240819_030515472.jpg","BrowCam","/BrowCam.20240819_030515472.jpg","UserSelect","/UserSelect.20240819_030515472.jpg","","","-999.99","7.30","-999.99","-999.99","66c2b66b111b2e001a29f12f"
"2024-08-19T03:05:30.499Z","44.6337340","-124.3081121","ASNAP","","admin","","","","","","","","-2.63","6.18","-1.2","-2.9","227.50","81.04","0.58","SciCam","/SciCam.20240819_030530499.jpg","PilotCam","/PilotCam.20240819_030530499.jpg","BrowCam","/BrowCam.20240819_030530499.jpg","UserSelect","/UserSelect.20240819_030530499.jpg","","","-999.99","7.16","-999.99","-999.99","66c2b67a111b2e001a29f133"
"2024-08-19T03:05:45.528Z","44.6337343","-124.3081122","ASNAP","","admin","","","","","","","","-2.64","6.21","-2.8","-3.0","227.96","81.18","0.58","SciCam","/SciCam.20240819_030545528.jpg","PilotCam","/PilotCam.20240819_030545528.jpg","BrowCam","/BrowCam.20240819_030545528.jpg","UserSelect","/UserSelect.20240819_030545528.jpg","","","-999.99","7.21","-999.99","-999.99","66c2b689111b2e001a29f137"
"2024-08-19T03:05:50.074Z","44.6337344","-124.3081123","ROV Actions","take out a dummy plug","guest","","(Starboard) Manipulator in use","","","","","","-2.65","6.22","-3.1","-3.5","228.13","81.07","0.58","SciCam","/SciCam.20240819_030550074.jpg","PilotCam","/PilotCam.20240819_030550074.jpg","BrowCam","/BrowCam.20240819_030550074.jpg","UserSelect","/UserSelect.20240819_030550074.jpg","","","-999.99","7.37","-999.99","-999.99","66c2b68e111b2e001a29f13f"
"2024-08-19T03:06:00.557Z","44.6337346","-124.3081123","ASNAP","","admin","","","","","","","","-2.65","6.24","-2.9","-3.2","228.54","81.12","0.58","SciCam","/SciCam.20240819_030600557.jpg","PilotCam","/PilotCam.20240819_030600557.jpg","BrowCam","/BrowCam.20240819_030600557.jpg","UserSelect","/UserSelect.20240819_030600557.jpg","","","-999.99","7.32","-999.99","-999.99","66c2b698111b2e001a29f143"
"2024-08-19T03:06:07.000Z","","","SulisCam","","admin","","","","sulis_20240819030607.jpg","","","","","","","","","","","","","","","","","","","-3.251","-3.011","","","","","66c2d7f5111b2e001a29fe5c"
"2024-08-19T03:06:11.904Z","44.6337348","-124.3081124","Connection Status","disconnect to the BEP","guest","","","","","Disconnected","Disconnected","","-2.66","6.27","-3.2","-3.6","229.18","81.01","0.58","SciCam","/SciCam.20240819_030611904.jpg","PilotCam","/PilotCam.20240819_030611904.jpg","BrowCam","/BrowCam.20240819_030611904.jpg","UserSelect","/UserSelect.20240819_030611904.jpg","","","-999.99","7.42","-999.99","-999.99","66c2b6a3111b2e001a29f147"
"2024-08-19T03:06:15.586Z","44.6337348","-124.3081124","ASNAP","","admin","","","","","","","","-2.66","6.26","-3.0","-3.3","228.97","81.06","0.58","SciCam","/SciCam.20240819_030615586.jpg","PilotCam","/PilotCam.20240819_030615586.jpg","BrowCam","/BrowCam.20240819_030615586.jpg","UserSelect","/UserSelect.20240819_030615586.jpg","","","-999.99","7.28","-999.99","-999.99","66c2b6a7111b2e001a29f14b"
"2024-08-19T03:06:30.617Z","44.6337350","-124.3081126","ASNAP","","admin","","","","","","","","-2.67","6.29","-3.0","-3.4","229.60","81.06","0.58","SciCam","/SciCam.20240819_030630617.jpg","PilotCam","/PilotCam.20240819_030630617.jpg","BrowCam","/BrowCam.20240819_030630617.jpg","UserSelect","/UserSelect.20240819_030630617.jpg","","","-999.99","7.36","-999.99","-999.99","66c2b6b6111b2e001a29f14f"
"2024-08-19T03:06:45.648Z","44.6337348","-124.3081124","ASNAP","","admin","","","","","","","","-2.66","6.26","-1.9","-3.4","229.22","81.05","0.58","SciCam","/SciCam.20240819_030645648.jpg","PilotCam","/PilotCam.20240819_030645648.jpg","BrowCam","/BrowCam.20240819_030645648.jpg","UserSelect","/UserSelect.20240819_030645648.jpg","","","-999.99","7.32","-999.99","-999.99","66c2b6c5111b2e001a29f153"
"2024-08-19T03:06:57.000Z","","","SulisCam","","admin","","","","sulis_20240819030657.jpg","","","","","","","","","","","","","","","","","","","-3.364","-0.581","","","","","66c2d7f5111b2e001a29fe5e"
"2024-08-19T03:07:00.668Z","44.6337347","-124.3081123","ASNAP","","admin","","","","","","","","-2.65","6.25","-1.1","-3.5","229.02","81.05","0.58","SciCam","/SciCam.20240819_030700668.jpg","PilotCam","/PilotCam.20240819_030700668.jpg","BrowCam","/BrowCam.20240819_030700668.jpg","UserSelect","/UserSelect.20240819_030700668.jpg","","","-999.99","7.22","-999.99","-999.99","66c2b6d4111b2e001a29f157"
"2024-08-19T03:07:15.698Z","44.6337346","-124.3081123","ASNAP","","admin","","","","","","","","-2.65","6.24","-1.2","-3.6","228.75","81.09","0.58","SciCam","/SciCam.20240819_030715698.jpg","PilotCam","/PilotCam.20240819_030715698.jpg","BrowCam","/BrowCam.20240819_030715698.jpg","UserSelect","/UserSelect.20240819_030715698.jpg","","","-999.99","7.24","-999.99","-999.99","66c2b6e3111b2e001a29f15b"
"2024-08-19T03:07:30.730Z","44.6337349","-124.3081124","ASNAP","","admin","","","","","","","","-2.66","6.28","-1.1","-3.6","229.68","81.07","0.58","SciCam","/SciCam.20240819_030730730.jpg","PilotCam","/PilotCam.20240819_030730730.jpg","BrowCam","/BrowCam.20240819_030730730.jpg","UserSelect","/UserSelect.20240819_030730730.jpg","","","-999.99","7.20","-999.99","-999.99","66c2b6f2111b2e001a29f163"
"2024-08-19T03:07:33.288Z","44.6337348","-124.3081124","ROV Actions","Plug is connected to BEP","guest","","(Port) Manipulator in use","","","","","","-2.66","6.27","-0.9","-3.6","229.55","81.10","0.58","SciCam","/SciCam.20240819_030733288.jpg","PilotCam","/PilotCam.20240819_030733288.jpg","BrowCam","/BrowCam.20240819_030733288.jpg","UserSelect","/UserSelect.20240819_030733288.jpg","","","-999.99","7.02","-999.99","-999.99","66c2b6f5111b2e001a29f167"
"2024-08-19T03:07:45.762Z","44.6337342","-124.3081121","ASNAP","","admin","","","","","","","","-2.63","6.20","-1.7","-3.8","227.79","81.06","0.58","SciCam","/SciCam.20240819_030745762.jpg","PilotCam","/PilotCam.20240819_030745762.jpg","BrowCam","/BrowCam.20240819_030745762.jpg","UserSelect","/UserSelect.20240819_030745762.jpg","","","-999.99","7.32","-999.99","-999.99","66c2b701111b2e001a29f16b"
"2024-08-19T03:08:00.795Z","44.6337351","-124.3081124","ASNAP","","admin","","","","","","","","-2.66","6.30","-1.1","-4.2","229.87","80.98","0.58","SciCam","/SciCam.20240819_030800795.jpg","PilotCam","/PilotCam.20240819_030800795.jpg","BrowCam","/BrowCam.20240819_030800795.jpg","UserSelect","/UserSelect.20240819_030800795.jpg","","","-999.99","7.47","-999.99","-999.99","66c2b710111b2e001a29f16f"
"2024-08-19T03:08:15.824Z","44.6337340","-124.3081119","ASNAP","","admin","","","","","","","","-2.62","6.18","-1.5","-3.9","227.33","81.03","0.58","SciCam","/SciCam.20240819_030815824.jpg","PilotCam","/PilotCam.20240819_030815824.jpg","BrowCam","/BrowCam.20240819_030815824.jpg","UserSelect","/UserSelect.20240819_030815824.jpg","","","-999.99","7.34","-999.99","-999.99","66c2b71f111b2e001a29f173"
"2024-08-19T03:08:30.855Z","44.6337335","-124.3081116","ASNAP","","admin","","","","","","","","-2.59","6.12","-1.3","-4.2","226.07","81.11","0.58","SciCam","/SciCam.20240819_030830855.jpg","PilotCam","/PilotCam.20240819_030830855.jpg","BrowCam","/BrowCam.20240819_030830855.jpg","UserSelect","/UserSelect.20240819_030830855.jpg","","","-999.99","7.36","-999.99","-999.99","66c2b72e111b2e001a29f177"
"2024-08-19T03:08:40.000Z","","","SulisCam","","admin","","","","sulis_20240819030840.jpg","","","","","","","","","","","","","","","","","","","-3.172","0.630","","","","","66c2d7f5111b2e001a29fe60"
"2024-08-19T03:08:45.888Z","44.6337337","-124.3081118","ASNAP","","admin","","","","","","","","-2.61","6.14","-2.0","-3.7","226.24","81.18","0.58","SciCam","/SciCam.20240819_030845888.jpg","PilotCam","/PilotCam.20240819_030845888.jpg","BrowCam","/BrowCam.20240819_030845888.jpg","UserSelect","/UserSelect.20240819_030845888.jpg","","","-999.99","7.41","-999.99","-999.99","66c2b73d111b2e001a29f17b"
"2024-08-19T03:09:00.920Z","44.6337337","-124.3081118","ASNAP","","admin","","","","","","","","-2.61","6.14","-2.2","-3.6","226.38","81.13","0.58","SciCam","/SciCam.20240819_030900920.jpg","PilotCam","/PilotCam.20240819_030900920.jpg","BrowCam","/BrowCam.20240819_030900920.jpg","UserSelect","/UserSelect.20240819_030900920.jpg","","","-999.99","7.36","-999.99","-999.99","66c2b74c111b2e001a29f17f"
"2024-08-19T03:09:15.944Z","44.6337321","-124.3081107","ASNAP","","admin","","","","","","","","-2.52","5.97","0.5","-3.3","222.01","80.94","0.58","SciCam","/SciCam.20240819_030915944.jpg","PilotCam","/PilotCam.20240819_030915944.jpg","BrowCam","/BrowCam.20240819_030915944.jpg","UserSelect","/UserSelect.20240819_030915944.jpg","","","-999.99","7.37","-999.99","-999.99","66c2b75b111b2e001a29f183"
"2024-08-19T03:09:30.968Z","44.6337322","-124.3081111","ASNAP","","admin","","","","","","","","-2.55","5.98","-3.5","-2.6","222.74","81.08","0.58","SciCam","/SciCam.20240819_030930968.jpg","PilotCam","/PilotCam.20240819_030930968.jpg","BrowCam","/BrowCam.20240819_030930968.jpg","UserSelect","/UserSelect.20240819_030930968.jpg","","","-999.99","7.47","-999.99","-999.99","66c2b76a111b2e001a29f187"
"2024-08-19T03:09:46.001Z","44.6337310","-124.3081100","ASNAP","","admin","","","","","","","","-2.47","5.84","-3.4","-2.7","219.06","81.04","0.58","SciCam","/SciCam.20240819_030946001.jpg","PilotCam","/PilotCam.20240819_030946001.jpg","BrowCam","/BrowCam.20240819_030946001.jpg","UserSelect","/UserSelect.20240819_030946001.jpg","","","-999.99","7.38","-999.99","-999.99","66c2b77a111b2e001a29f18b"
"2024-08-19T03:10:01.033Z","44.6337331","-124.3081114","ASNAP","","admin","","","","","","","","-2.58","6.08","-3.2","-3.5","225.02","81.04","0.58","SciCam","/SciCam.20240819_031001033.jpg","PilotCam","/PilotCam.20240819_031001033.jpg","BrowCam","/BrowCam.20240819_031001033.jpg","UserSelect","/UserSelect.20240819_031001033.jpg","","","-999.99","7.10","-999.99","-999.99","66c2b789111b2e001a29f18f"
"2024-08-19T03:10:14.273Z","44.6337333","-124.3081117","ROV Actions","door unlatched from BEP","guest","","(Port) Manipulator in use","","","","","","-2.60","6.10","-3.2","-3.5","225.38","81.12","0.58","SciCam","/SciCam.20240819_031014273.jpg","PilotCam","/PilotCam.20240819_031014273.jpg","BrowCam","/BrowCam.20240819_031014273.jpg","UserSelect","/UserSelect.20240819_031014273.jpg","","","-999.99","7.13","-999.99","-999.99","66c2b796111b2e001a29f193"
"2024-08-19T03:10:16.064Z","44.6337339","-124.3081118","ASNAP","","admin","","","","","","","","-2.61","6.16","-2.9","-3.9","226.58","81.05","0.58","SciCam","/SciCam.20240819_031016064.jpg","PilotCam","/PilotCam.20240819_031016064.jpg","BrowCam","/BrowCam.20240819_031016064.jpg","UserSelect","/UserSelect.20240819_031016064.jpg","","","-999.99","7.44","-999.99","-999.99","66c2b798111b2e001a29f197"
"2024-08-19T03:10:31.093Z","44.6337307","-124.3081097","ASNAP","","admin","","","","","","","","-2.44","5.81","-2.5","-3.9","218.31","81.15","0.58","SciCam","/SciCam.20240819_031031093.jpg","PilotCam","/PilotCam.20240819_031031093.jpg","BrowCam","/BrowCam.20240819_031031093.jpg","UserSelect","/UserSelect.20240819_031031093.jpg","","","-999.99","7.18","-999.99","-999.99","66c2b7a7111b2e001a29f19b"
"2024-08-19T03:10:46.109Z","44.6337334","-124.3081116","ASNAP","","admin","","","","","","","","-2.59","6.11","-3.0","-3.9","225.36","81.25","0.58","SciCam","/SciCam.20240819_031046109.jpg","PilotCam","/PilotCam.20240819_031046109.jpg","BrowCam","/BrowCam.20240819_031046109.jpg","UserSelect","/UserSelect.20240819_031046109.jpg","","","-999.99","7.91","-999.99","-999.99","66c2b7b6111b2e001a29f19f"
"2024-08-19T03:11:01.138Z","44.6337336","-124.3081117","ASNAP","","admin","","","","","","","","-2.60","6.13","-3.0","-3.9","225.83","81.24","0.58","SciCam","/SciCam.20240819_031101138.jpg","PilotCam","/PilotCam.20240819_031101138.jpg","BrowCam","/BrowCam.20240819_031101138.jpg","UserSelect","/UserSelect.20240819_031101138.jpg","","","-999.99","7.30","-999.99","-999.99","66c2b7c5111b2e001a29f1a3"
"2024-08-19T03:11:16.156Z","44.6337318","-124.3081104","ASNAP","","admin","","","","","","","","-2.50","5.93","-2.3","-4.3","221.47","81.13","0.58","SciCam","/SciCam.20240819_031116156.jpg","PilotCam","/PilotCam.20240819_031116156.jpg","BrowCam","/BrowCam.20240819_031116156.jpg","UserSelect","/UserSelect.20240819_031116156.jpg","","","-999.99","7.19","-999.99","-999.99","66c2b7d4111b2e001a29f1a7"
"2024-08-19T03:11:31.173Z","44.6337328","-124.3081112","ASNAP","","admin","","","","","","","","-2.56","6.04","-2.8","-4.3","223.78","81.11","0.58","SciCam","/SciCam.20240819_031131173.jpg","PilotCam","/PilotCam.20240819_031131173.jpg","BrowCam","/BrowCam.20240819_031131173.jpg","UserSelect","/UserSelect.20240819_031131173.jpg","","","-999.99","7.31","-999.99","-999.99","66c2b7e3111b2e001a29f1ab"
"2024-08-19T03:11:46.203Z","44.6337325","-124.3081109","ASNAP","","admin","","","","","","","","-2.54","6.01","-2.8","-4.3","222.92","81.12","0.58","SciCam","/SciCam.20240819_031146203.jpg","PilotCam","/PilotCam.20240819_031146203.jpg","BrowCam","/BrowCam.20240819_031146203.jpg","UserSelect","/UserSelect.20240819_031146203.jpg","","","-999.99","7.36","-999.99","-999.99","66c2b7f2111b2e001a29f1af"
"2024-08-19T03:12:01.236Z","44.6337326","-124.3081111","ASNAP","","admin","","","","","","","","-2.55","6.02","-2.8","-4.2","223.30","81.15","0.58","SciCam","/SciCam.20240819_031201236.jpg","PilotCam","/PilotCam.20240819_031201236.jpg","BrowCam","/BrowCam.20240819_031201236.jpg","UserSelect","/UserSelect.20240819_031201236.jpg","","","-999.99","7.42","-999.99","-999.99","66c2b801111b2e001a29f1b3"
"2024-08-19T03:12:14.219Z","44.6337327","-124.3081112","ROV Actions","close Bep doors","guest","","(Starboard) Manipulator in use","","","","","","-2.56","6.03","-2.9","-3.9","223.57","81.22","0.58","SciCam","/SciCam.20240819_031214219.jpg","PilotCam","/PilotCam.20240819_031214219.jpg","BrowCam","/BrowCam.20240819_031214219.jpg","UserSelect","/UserSelect.20240819_031214219.jpg","","","-999.99","7.29","-999.99","-999.99","66c2b80e111b2e001a29f1b7"
"2024-08-19T03:12:16.263Z","44.6337328","-124.3081112","ASNAP","","admin","","","","","","","","-2.56","6.04","-2.8","-4.2","223.75","81.21","0.58","SciCam","/SciCam.20240819_031216263.jpg","PilotCam","/PilotCam.20240819_031216263.jpg","BrowCam","/BrowCam.20240819_031216263.jpg","UserSelect","/UserSelect.20240819_031216263.jpg","","","-999.99","7.34","-999.99","-999.99","66c2b810111b2e001a29f1bb"
"2024-08-19T03:12:31.292Z","44.6337339","-124.3081119","ASNAP","","admin","","","","","","","","-2.62","6.17","-2.3","-4.1","226.91","81.16","0.58","SciCam","/SciCam.20240819_031231292.jpg","PilotCam","/PilotCam.20240819_031231292.jpg","BrowCam","/BrowCam.20240819_031231292.jpg","UserSelect","/UserSelect.20240819_031231292.jpg","","","-999.99","7.33","-999.99","-999.99","66c2b81f111b2e001a29f1bf"
"2024-08-19T03:12:46.323Z","44.6337339","-124.3081119","ASNAP","","admin","","","","","","","","-2.62","6.17","-2.4","-4.1","226.90","81.08","0.58","SciCam","/SciCam.20240819_031246323.jpg","PilotCam","/PilotCam.20240819_031246323.jpg","BrowCam","/BrowCam.20240819_031246323.jpg","UserSelect","/UserSelect.20240819_031246323.jpg","","","-999.99","7.16","-999.99","-999.99","66c2b82e111b2e001a29f1c3"
"2024-08-19T03:13:01.354Z","44.6337279","-124.3081293","ASNAP","","admin","","","","","","","","-4.00","5.50","-0.3","-3.6","186.07","79.94","2.14","SciCam","/SciCam.20240819_031301354.jpg","PilotCam","/PilotCam.20240819_031301354.jpg","BrowCam","/BrowCam.20240819_031301354.jpg","UserSelect","/UserSelect.20240819_031301354.jpg","","","-999.99","7.17","-999.99","-999.99","66c2b83d111b2e001a29f1c7"
"2024-08-19T03:13:16.385Z","44.6337076","-124.3081555","ASNAP","","admin","","","","","","","","-6.08","3.24","-0.4","-4.7","118.81","79.98","2.27","SciCam","/SciCam.20240819_031316385.jpg","PilotCam","/PilotCam.20240819_031316385.jpg","BrowCam","/BrowCam.20240819_031316385.jpg","UserSelect","/UserSelect.20240819_031316385.jpg","","","-999.99","7.37","-999.99","-999.99","66c2b84c111b2e001a29f1cb"
"2024-08-19T03:13:31.415Z","44.6336899","-124.3081322","ASNAP","","admin","","","","","","","","-4.23","1.28","-0.5","-4.6","45.96","80.19","2.13","SciCam","/SciCam.20240819_031331415.jpg","PilotCam","/PilotCam.20240819_031331415.jpg","BrowCam","/BrowCam.20240819_031331415.jpg","UserSelect","/UserSelect.20240819_031331415.jpg","","","-999.99","6.76","-999.99","-999.99","66c2b85b111b2e001a29f1cf"
"2024-08-19T03:13:38.000Z","","","SulisCam","","admin","","","","sulis_20240819031338.jpg","","","","","","","","","","","","","","","","","","","-5.524","-0.432","","","","","66c2d7f5111b2e001a29fe62"
"2024-08-19T03:13:46.445Z","44.6336833","-124.3081279","ASNAP","","admin","","","","","","","","-3.89","0.54","-1.3","-5.9","43.73","81.05","0.58","SciCam","/SciCam.20240819_031346445.jpg","PilotCam","/PilotCam.20240819_031346445.jpg","BrowCam","/BrowCam.20240819_031346445.jpg","UserSelect","/UserSelect.20240819_031346445.jpg","","","-999.99","7.20","-999.99","-999.99","66c2b86a111b2e001a29f1d3"
"2024-08-19T03:14:01.476Z","44.6336826","-124.3081273","ASNAP","","admin","","","","","","","","-3.84","0.46","-0.6","-4.8","45.77","81.15","0.58","SciCam","/SciCam.20240819_031401476.jpg","PilotCam","/PilotCam.20240819_031401476.jpg","BrowCam","/BrowCam.20240819_031401476.jpg","UserSelect","/UserSelect.20240819_031401476.jpg","","","-999.99","7.29","-999.99","-999.99","66c2b879111b2e001a29f1d7"
"2024-08-19T03:14:16.508Z","44.6336827","-124.3081271","ASNAP","","admin","","","","","","","","-3.82","0.48","-1.0","-2.3","46.05","81.14","0.58","SciCam","/SciCam.20240819_031416508.jpg","PilotCam","/PilotCam.20240819_031416508.jpg","BrowCam","/BrowCam.20240819_031416508.jpg","UserSelect","/UserSelect.20240819_031416508.jpg","","","-999.99","7.26","-999.99","-999.99","66c2b888111b2e001a29f1db"
"2024-08-19T03:14:27.162Z","44.6336826","-124.3081269","ROV Actions","closed BEP doors on the backside","guest","","(Starboard) Manipulator in use","","","","","","-3.81","0.46","-1.0","-2.3","46.60","81.10","0.58","SciCam","/SciCam.20240819_031427162.jpg","PilotCam","/PilotCam.20240819_031427162.jpg","BrowCam","/BrowCam.20240819_031427162.jpg","UserSelect","/UserSelect.20240819_031427162.jpg","","","-999.99","7.34","-999.99","-999.99","66c2b893111b2e001a29f1df"
"2024-08-19T03:14:31.538Z","44.6336823","-124.3081268","ASNAP","","admin","","","","","","","","-3.80","0.43","-1.1","-2.2","47.56","81.11","0.58","SciCam","/SciCam.20240819_031431538.jpg","PilotCam","/PilotCam.20240819_031431538.jpg","BrowCam","/BrowCam.20240819_031431538.jpg","UserSelect","/UserSelect.20240819_031431538.jpg","","","-999.99","7.62","-999.99","-999.99","66c2b897111b2e001a29f1e3"
"2024-08-19T03:14:46.559Z","44.6336820","-124.3081267","ASNAP","","admin","","","","","","","","-3.79","0.40","-1.1","-2.2","47.77","81.06","0.58","SciCam","/SciCam.20240819_031446559.jpg","PilotCam","/PilotCam.20240819_031446559.jpg","BrowCam","/BrowCam.20240819_031446559.jpg","UserSelect","/UserSelect.20240819_031446559.jpg","","","-999.99","7.15","-999.99","-999.99","66c2b8a6111b2e001a29f1e7"
"2024-08-19T03:15:01.584Z","44.6336820","-124.3081267","ASNAP","","admin","","","","","","","","-3.79","0.40","-1.1","-2.3","47.76","81.11","0.58","SciCam","/SciCam.20240819_031501584.jpg","PilotCam","/PilotCam.20240819_031501584.jpg","BrowCam","/BrowCam.20240819_031501584.jpg","UserSelect","/UserSelect.20240819_031501584.jpg","","","-999.99","7.35","-999.99","-999.99","66c2b8b5111b2e001a29f1eb"
"2024-08-19T03:15:02.725Z","44.6336820","-124.3081267","ROV Actions","Close BEP door ","guest","","(Port) Manipulator in use","","","","","","-3.79","0.40","-1.1","-2.3","47.76","81.10","0.58","SciCam","/SciCam.20240819_031502725.jpg","PilotCam","/PilotCam.20240819_031502725.jpg","BrowCam","/BrowCam.20240819_031502725.jpg","UserSelect","/UserSelect.20240819_031502725.jpg","","","-999.99","7.20","-999.99","-999.99","66c2b8b6111b2e001a29f1ef"
"2024-08-19T03:15:16.614Z","44.6336820","-124.3081267","ASNAP","","admin","","","","","","","","-3.79","0.40","-1.1","-2.4","47.72","81.14","0.58","SciCam","/SciCam.20240819_031516614.jpg","PilotCam","/PilotCam.20240819_031516614.jpg","BrowCam","/BrowCam.20240819_031516614.jpg","UserSelect","/UserSelect.20240819_031516614.jpg","","","-999.99","7.32","-999.99","-999.99","66c2b8c4111b2e001a29f1f3"
"2024-08-19T03:15:31.645Z","44.6336820","-124.3081267","ASNAP","","admin","","","","","","","","-3.79","0.40","-1.1","-2.4","47.71","81.14","0.58","SciCam","/SciCam.20240819_031531645.jpg","PilotCam","/PilotCam.20240819_031531645.jpg","BrowCam","/BrowCam.20240819_031531645.jpg","UserSelect","/UserSelect.20240819_031531645.jpg","","","-999.99","6.95","-999.99","-999.99","66c2b8d3111b2e001a29f1f7"
"2024-08-19T03:15:46.663Z","44.6336824","-124.3081200","ASNAP","","admin","","","","","","","","-3.26","0.44","0.0","-6.0","29.40","80.57","0.58","SciCam","/SciCam.20240819_031546663.jpg","PilotCam","/PilotCam.20240819_031546663.jpg","BrowCam","/BrowCam.20240819_031546663.jpg","UserSelect","/UserSelect.20240819_031546663.jpg","","","-999.99","7.27","-999.99","-999.99","66c2b8e2111b2e001a29f1fb"
"2024-08-19T03:16:01.693Z","44.6336828","-124.3081070","ASNAP","","admin","","","","","","","","-2.23","0.49","0.5","-3.5","11.78","81.10","0.58","SciCam","/SciCam.20240819_031601693.jpg","PilotCam","/PilotCam.20240819_031601693.jpg","BrowCam","/BrowCam.20240819_031601693.jpg","UserSelect","/UserSelect.20240819_031601693.jpg","","","-999.99","7.41","-999.99","-999.99","66c2b8f1111b2e001a29f1ff"
"2024-08-19T03:16:16.720Z","44.6336831","-124.3081080","ROV Actions","release hydrophone from aft side of BEP","guest","","(Starboard) Manipulator in use","","","","","","-2.31","0.52","1.0","-4.2","9.75","81.09","0.58","SciCam","/SciCam.20240819_031616720.jpg","PilotCam","/PilotCam.20240819_031616720.jpg","BrowCam","/BrowCam.20240819_031616720.jpg","UserSelect","/UserSelect.20240819_031616720.jpg","","","-999.99","7.42","-999.99","-999.99","66c2b900111b2e001a29f203"
