Date/Time (UTC),vehicleRealtimeNavData.latitude (ddeg),vehicleRealtimeNavData.longitude (ddeg),event_value,event_free_text,event_author,event_option.milestone,event_option.actions,event_option.type,event_option.filename,event_option.cabled_plug,event_option.highlights,vehicleRealtimeNavData.local_x (meters),vehicleRealtimeNavData.local_y (meters),vehicleRealtimeNavData.roll (deg),vehicleRealtimeNavData.pitch (deg),vehicleRealtimeNavData.heading (deg),vehicleRealtimeNavData.depth (meters),vehicleRealtimeNavData.altitude (meters),vehicleRealtimeFramegrabberData.camera_name_1,vehicleRealtimeFramegrabberData.filename_1,vehicleRealtimeFramegrabberData.camera_name_2,vehicleRealtimeFramegrabberData.filename_2,vehicleRealtimeFramegrabberData.camera_name_3,vehicleRealtimeFramegrabberData.filename_3,vehicleRealtimeFramegrabberData.camera_name_4,vehicleRealtimeFramegrabberData.filename_4,vehicleReNavData.pitch (deg),vehicleReNavData.roll (deg),vehicleTemperatureProbe.probe1_temperature (degC),vehicleTemperatureProbe.probe2_temperature (degC),vehicleTemperatureProbe.probe3_temperature (degC),vehicleTemperatureProbe.probe4_temperature (degC),id
"2024-09-02T08:24:38.649Z","45.9166573","-130.0250244","VEHICLE","","guest","Jason in water","","","","","","-1.89","-1.04","-0.4","-1.5","236.41","0.84","0.58","SciCam","/SciCam.20240902_082438649.jpg","PilotCam","/PilotCam.20240902_082438649.jpg","BrowCam","/BrowCam.20240902_082438649.jpg","UserSelect","/UserSelect.20240902_082438649.jpg","","","-999.99","15.94","-999.99","-999.99","66d57646f9835f001a80d7c1"
"2024-09-02T08:24:51.539Z","45.9166583","-130.0250237","ASNAP","","admin","","","","","","","-1.84","-0.93","5.0","-9.1","238.09","2.41","0.58","SciCam","/SciCam.20240902_082451539.jpg","PilotCam","/PilotCam.20240902_082451539.jpg","BrowCam","/BrowCam.20240902_082451539.jpg","UserSelect","/UserSelect.20240902_082451539.jpg","","","-999.99","16.46","-999.99","-999.99","66d57653f9835f001a80d7c5"
"2024-09-02T08:25:06.568Z","45.9166629","-130.0250250","ASNAP","","admin","","","","","","","-1.94","-0.42","0.6","-7.6","249.81","2.51","0.58","SciCam","/SciCam.20240902_082506568.jpg","PilotCam","/PilotCam.20240902_082506568.jpg","BrowCam","/BrowCam.20240902_082506568.jpg","UserSelect","/UserSelect.20240902_082506568.jpg","","","-999.99","17.43","-999.99","-999.99","66d57662f9835f001a80d7c9"
"2024-09-02T08:25:21.600Z","45.9166612","-130.0250253","ASNAP","","admin","","","","","","","-1.96","-0.61","1.8","-2.4","245.35","2.92","0.58","SciCam","/SciCam.20240902_082521600.jpg","PilotCam","/PilotCam.20240902_082521600.jpg","BrowCam","/BrowCam.20240902_082521600.jpg","UserSelect","/UserSelect.20240902_082521600.jpg","","","-999.99","17.89","-999.99","-999.99","66d57671f9835f001a80d7cd"
"2024-09-02T08:25:36.631Z","45.9166610","-130.0250249","ASNAP","","admin","","","","","","","-1.93","-0.63","-0.3","-5.8","244.67","6.29","0.58","SciCam","/SciCam.20240902_082536631.jpg","PilotCam","/PilotCam.20240902_082536631.jpg","BrowCam","/BrowCam.20240902_082536631.jpg","UserSelect","/UserSelect.20240902_082536631.jpg","","","-999.99","18.09","-999.99","-999.99","66d57680f9835f001a80d7d1"
"2024-09-02T08:25:51.659Z","45.9166627","-130.0250253","ASNAP","","admin","","","","","","","-1.96","-0.44","2.5","-4.3","248.90","5.71","0.58","SciCam","/SciCam.20240902_082551659.jpg","PilotCam","/PilotCam.20240902_082551659.jpg","BrowCam","/BrowCam.20240902_082551659.jpg","UserSelect","/UserSelect.20240902_082551659.jpg","","","-999.99","18.10","-999.99","-999.99","66d5768ff9835f001a80d7d5"
"2024-09-02T08:26:06.688Z","45.9166635","-130.0250257","ASNAP","","admin","","","","","","","-1.99","-0.35","-1.1","-3.9","249.98","5.73","0.58","SciCam","/SciCam.20240902_082606688.jpg","PilotCam","/PilotCam.20240902_082606688.jpg","BrowCam","/BrowCam.20240902_082606688.jpg","UserSelect","/UserSelect.20240902_082606688.jpg","","","-999.99","18.24","-999.99","-999.99","66d5769ef9835f001a80d7d9"
"2024-09-02T08:26:21.718Z","45.9166633","-130.0250258","ASNAP","","admin","","","","","","","-2.00","-0.37","-2.9","-3.0","249.67","5.82","0.58","SciCam","/SciCam.20240902_082621718.jpg","PilotCam","/PilotCam.20240902_082621718.jpg","BrowCam","/BrowCam.20240902_082621718.jpg","UserSelect","/UserSelect.20240902_082621718.jpg","","","-999.99","18.31","-999.99","-999.99","66d576adf9835f001a80d7dd"
"2024-09-02T08:26:36.748Z","45.9166626","-130.0250254","ASNAP","","admin","","","","","","","-1.97","-0.45","0.3","-4.8","248.37","5.78","0.58","SciCam","/SciCam.20240902_082636748.jpg","PilotCam","/PilotCam.20240902_082636748.jpg","BrowCam","/BrowCam.20240902_082636748.jpg","UserSelect","/UserSelect.20240902_082636748.jpg","","","-999.99","18.09","-999.99","-999.99","66d576bcf9835f001a80d7e1"
"2024-09-02T08:26:51.778Z","45.9166633","-130.0250254","ASNAP","","admin","","","","","","","-1.97","-0.37","3.4","-4.8","250.53","5.62","0.58","SciCam","/SciCam.20240902_082651778.jpg","PilotCam","/PilotCam.20240902_082651778.jpg","BrowCam","/BrowCam.20240902_082651778.jpg","UserSelect","/UserSelect.20240902_082651778.jpg","","","-999.99","18.14","-999.99","-999.99","66d576cbf9835f001a80d7e5"
"2024-09-02T08:27:06.803Z","45.9166631","-130.0250255","ASNAP","","admin","","","","","","","-1.98","-0.40","-1.0","-4.1","248.79","5.83","0.58","SciCam","/SciCam.20240902_082706803.jpg","PilotCam","/PilotCam.20240902_082706803.jpg","BrowCam","/BrowCam.20240902_082706803.jpg","UserSelect","/UserSelect.20240902_082706803.jpg","","","-999.99","17.99","-999.99","-999.99","66d576daf9835f001a80d7e9"
"2024-09-02T08:27:11.395Z","45.9166634","-130.0250254","ROV Actions"," ","guest","","First Football on","","","","","-1.97","-0.36","-1.5","-5.2","249.74","5.79","0.58","SciCam","/SciCam.20240902_082711395.jpg","PilotCam","/PilotCam.20240902_082711395.jpg","BrowCam","/BrowCam.20240902_082711395.jpg","UserSelect","/UserSelect.20240902_082711395.jpg","","","-999.99","18.12","-999.99","-999.99","66d576dff9835f001a80d7f1"
"2024-09-02T08:27:21.836Z","45.9166630","-130.0250254","ASNAP","","admin","","","","","","","-1.97","-0.41","3.9","-3.5","250.09","6.48","0.58","SciCam","/SciCam.20240902_082721836.jpg","PilotCam","/PilotCam.20240902_082721836.jpg","BrowCam","/BrowCam.20240902_082721836.jpg","UserSelect","/UserSelect.20240902_082721836.jpg","","","-999.99","18.22","-999.99","-999.99","66d576e9f9835f001a80d7f5"
"2024-09-02T08:27:36.864Z","45.9166632","-130.0250251","ASNAP","","admin","","","","","","","-1.95","-0.39","0.4","-6.7","249.21","10.56","0.58","SciCam","/SciCam.20240902_082736864.jpg","PilotCam","/PilotCam.20240902_082736864.jpg","BrowCam","/BrowCam.20240902_082736864.jpg","UserSelect","/UserSelect.20240902_082736864.jpg","","","-999.99","18.19","-999.99","-999.99","66d576f8f9835f001a80d7f9"
"2024-09-02T08:27:51.893Z","45.9166627","-130.0250257","ASNAP","","admin","","","","","","","-1.99","-0.44","-1.1","-2.8","248.28","11.07","0.58","SciCam","/SciCam.20240902_082751893.jpg","PilotCam","/PilotCam.20240902_082751893.jpg","BrowCam","/BrowCam.20240902_082751893.jpg","UserSelect","/UserSelect.20240902_082751893.jpg","","","-999.99","18.16","-999.99","-999.99","66d57707f9835f001a80d7fd"
"2024-09-02T08:28:06.920Z","45.9166632","-130.0250257","ASNAP","","admin","","","","","","","-1.99","-0.39","0.0","-3.1","249.67","11.28","0.58","SciCam","/SciCam.20240902_082806920.jpg","PilotCam","/PilotCam.20240902_082806920.jpg","BrowCam","/BrowCam.20240902_082806920.jpg","UserSelect","/UserSelect.20240902_082806920.jpg","","","-999.99","18.16","-999.99","-999.99","66d57716f9835f001a80d801"
"2024-09-02T08:28:21.944Z","45.9166650","-130.0250255","ASNAP","","admin","","","","","","","-1.98","-0.18","-1.1","-5.5","253.56","11.12","0.58","SciCam","/SciCam.20240902_082821944.jpg","PilotCam","/PilotCam.20240902_082821944.jpg","BrowCam","/BrowCam.20240902_082821944.jpg","UserSelect","/UserSelect.20240902_082821944.jpg","","","-999.99","18.33","-999.99","-999.99","66d57725f9835f001a80d805"
"2024-09-02T08:28:36.973Z","45.9166636","-130.0250258","ASNAP","","admin","","","","","","","-2.00","-0.34","-1.1","-2.2","250.40","12.38","0.58","SciCam","/SciCam.20240902_082836973.jpg","PilotCam","/PilotCam.20240902_082836973.jpg","BrowCam","/BrowCam.20240902_082836973.jpg","UserSelect","/UserSelect.20240902_082836973.jpg","","","-999.99","18.26","-999.99","-999.99","66d57734f9835f001a80d809"
"2024-09-02T08:28:52.008Z","45.9166634","-130.0250253","ASNAP","","admin","","","","","","","-1.96","-0.36","1.7","-5.7","250.24","16.53","0.58","SciCam","/SciCam.20240902_082852008.jpg","PilotCam","/PilotCam.20240902_082852008.jpg","BrowCam","/BrowCam.20240902_082852008.jpg","UserSelect","/UserSelect.20240902_082852008.jpg","","","-999.99","18.21","-999.99","-999.99","66d57744f9835f001a80d80d"
"2024-09-02T08:29:07.039Z","45.9166638","-130.0250255","ASNAP","","admin","","","","","","","-1.98","-0.32","0.6","-4.5","251.00","15.63","0.58","SciCam","/SciCam.20240902_082907039.jpg","PilotCam","/PilotCam.20240902_082907039.jpg","BrowCam","/BrowCam.20240902_082907039.jpg","UserSelect","/UserSelect.20240902_082907039.jpg","","","-999.99","18.17","-999.99","-999.99","66d57753f9835f001a80d811"
"2024-09-02T08:29:22.070Z","45.9166628","-130.0250255","ASNAP","","admin","","","","","","","-1.98","-0.43","0.7","-3.6","248.97","16.25","0.58","SciCam","/SciCam.20240902_082922070.jpg","PilotCam","/PilotCam.20240902_082922070.jpg","BrowCam","/BrowCam.20240902_082922070.jpg","UserSelect","/UserSelect.20240902_082922070.jpg","","","-999.99","18.18","-999.99","-999.99","66d57762f9835f001a80d815"
"2024-09-02T08:29:37.100Z","45.9166628","-130.0250255","ASNAP","","admin","","","","","","","-1.98","-0.43","0.4","-4.0","248.97","20.37","0.58","SciCam","/SciCam.20240902_082937100.jpg","PilotCam","/PilotCam.20240902_082937100.jpg","BrowCam","/BrowCam.20240902_082937100.jpg","UserSelect","/UserSelect.20240902_082937100.jpg","","","-999.99","17.99","-999.99","-999.99","66d57771f9835f001a80d819"
"2024-09-02T08:29:52.127Z","45.9166632","-130.0250254","ASNAP","","admin","","","","","","","-1.97","-0.38","1.6","-4.8","249.76","21.71","0.58","SciCam","/SciCam.20240902_082952127.jpg","PilotCam","/PilotCam.20240902_082952127.jpg","BrowCam","/BrowCam.20240902_082952127.jpg","UserSelect","/UserSelect.20240902_082952127.jpg","","","-999.99","18.04","-999.99","-999.99","66d57780f9835f001a80d81d"
"2024-09-02T08:30:07.160Z","45.9166639","-130.0250255","ASNAP","","admin","","","","","","","-1.98","-0.31","-1.0","-4.9","250.81","20.96","0.58","SciCam","/SciCam.20240902_083007160.jpg","PilotCam","/PilotCam.20240902_083007160.jpg","BrowCam","/BrowCam.20240902_083007160.jpg","UserSelect","/UserSelect.20240902_083007160.jpg","","","-999.99","18.10","-999.99","-999.99","66d5778ff9835f001a80d821"
"2024-09-02T08:30:22.193Z","45.9166632","-130.0250254","ASNAP","","admin","","","","","","","-1.97","-0.39","0.4","-4.8","249.28","20.64","0.58","SciCam","/SciCam.20240902_083022193.jpg","PilotCam","/PilotCam.20240902_083022193.jpg","BrowCam","/BrowCam.20240902_083022193.jpg","UserSelect","/UserSelect.20240902_083022193.jpg","","","-999.99","18.14","-999.99","-999.99","66d5779ef9835f001a80d825"
"2024-09-02T08:30:37.216Z","45.9166633","-130.0250254","ASNAP","","admin","","","","","","","-1.97","-0.37","0.6","-4.8","250.09","25.36","0.58","SciCam","/SciCam.20240902_083037216.jpg","PilotCam","/PilotCam.20240902_083037216.jpg","BrowCam","/BrowCam.20240902_083037216.jpg","UserSelect","/UserSelect.20240902_083037216.jpg","","","-999.99","18.01","-999.99","-999.99","66d577adf9835f001a80d829"
"2024-09-02T08:30:52.246Z","45.9166635","-130.0250253","ASNAP","","admin","","","","","","","-1.96","-0.35","1.1","-6.0","250.27","26.44","0.58","SciCam","/SciCam.20240902_083052246.jpg","PilotCam","/PilotCam.20240902_083052246.jpg","BrowCam","/BrowCam.20240902_083052246.jpg","UserSelect","/UserSelect.20240902_083052246.jpg","","","-999.99","18.16","-999.99","-999.99","66d577bcf9835f001a80d82d"
"2024-09-02T08:31:05.943Z","45.9166634","-130.0250255","ROV Actions"," ","guest","","Last Football on","","","","","-1.98","-0.36","0.1","-4.6","250.06","25.58","0.58","SciCam","/SciCam.20240902_083105943.jpg","PilotCam","/PilotCam.20240902_083105943.jpg","BrowCam","/BrowCam.20240902_083105943.jpg","UserSelect","/UserSelect.20240902_083105943.jpg","","","-999.99","18.14","-999.99","-999.99","66d577c9f9835f001a80d831"
"2024-09-02T08:31:07.280Z","45.9166634","-130.0250255","ASNAP","","admin","","","","","","","-1.98","-0.36","0.0","-4.6","250.04","25.59","0.58","SciCam","/SciCam.20240902_083107280.jpg","PilotCam","/PilotCam.20240902_083107280.jpg","BrowCam","/BrowCam.20240902_083107280.jpg","UserSelect","/UserSelect.20240902_083107280.jpg","","","-999.99","18.10","-999.99","-999.99","66d577cbf9835f001a80d835"
"2024-09-02T08:31:22.314Z","45.9166622","-130.0250255","ASNAP","","admin","","","","","","","-1.98","-0.50","0.0","-2.4","247.56","28.49","0.58","SciCam","/SciCam.20240902_083122314.jpg","PilotCam","/PilotCam.20240902_083122314.jpg","BrowCam","/BrowCam.20240902_083122314.jpg","UserSelect","/UserSelect.20240902_083122314.jpg","","","-999.99","18.06","-999.99","-999.99","66d577daf9835f001a80d839"
"2024-09-02T08:31:37.346Z","45.9166638","-130.0250257","ASNAP","","admin","","","","","","","-1.99","-0.32","-1.0","-4.0","250.87","38.62","0.58","SciCam","/SciCam.20240902_083137346.jpg","PilotCam","/PilotCam.20240902_083137346.jpg","BrowCam","/BrowCam.20240902_083137346.jpg","UserSelect","/UserSelect.20240902_083137346.jpg","","","-999.99","17.19","-999.99","-999.99","66d577e9f9835f001a80d83d"
"2024-09-02T08:31:52.379Z","45.9166635","-130.0250253","ASNAP","","admin","","","","","","","-1.96","-0.35","0.3","-6.5","250.22","45.84","0.58","SciCam","/SciCam.20240902_083152379.jpg","PilotCam","/PilotCam.20240902_083152379.jpg","BrowCam","/BrowCam.20240902_083152379.jpg","UserSelect","/UserSelect.20240902_083152379.jpg","","","-999.99","15.68","-999.99","-999.99","66d577f8f9835f001a80d841"
"2024-09-02T08:32:07.410Z","45.9166632","-130.0250254","ASNAP","","admin","","","","","","","-1.97","-0.38","0.3","-5.0","249.58","50.37","0.58","SciCam","/SciCam.20240902_083207410.jpg","PilotCam","/PilotCam.20240902_083207410.jpg","BrowCam","/BrowCam.20240902_083207410.jpg","UserSelect","/UserSelect.20240902_083207410.jpg","","","-999.99","14.63","-999.99","-999.99","66d57807f9835f001a80d845"
"2024-09-02T08:32:22.440Z","45.9166634","-130.0250254","ASNAP","","admin","","","","","","","-1.97","-0.36","0.3","-5.7","249.84","56.30","0.58","SciCam","/SciCam.20240902_083222440.jpg","PilotCam","/PilotCam.20240902_083222440.jpg","BrowCam","/BrowCam.20240902_083222440.jpg","UserSelect","/UserSelect.20240902_083222440.jpg","","","-999.99","13.65","-999.99","-999.99","66d57816f9835f001a80d849"
"2024-09-02T08:32:37.466Z","45.9166632","-130.0250254","ASNAP","","admin","","","","","","","-1.97","-0.38","-0.1","-5.4","249.60","58.71","0.58","SciCam","/SciCam.20240902_083237466.jpg","PilotCam","/PilotCam.20240902_083237466.jpg","BrowCam","/BrowCam.20240902_083237466.jpg","UserSelect","/UserSelect.20240902_083237466.jpg","","","-999.99","13.15","-999.99","-999.99","66d57825f9835f001a80d84d"
"2024-09-02T08:32:52.488Z","45.9166632","-130.0250254","ASNAP","","admin","","","","","","","-1.97","-0.38","0.8","-5.2","249.82","63.84","0.58","SciCam","/SciCam.20240902_083252488.jpg","PilotCam","/PilotCam.20240902_083252488.jpg","BrowCam","/BrowCam.20240902_083252488.jpg","UserSelect","/UserSelect.20240902_083252488.jpg","","","-999.99","12.26","-999.99","-999.99","66d57834f9835f001a80d851"
"2024-09-02T08:33:07.517Z","45.9166632","-130.0250254","ASNAP","","admin","","","","","","","-1.97","-0.38","0.5","-4.9","249.66","69.73","0.58","SciCam","/SciCam.20240902_083307517.jpg","PilotCam","/PilotCam.20240902_083307517.jpg","BrowCam","/BrowCam.20240902_083307517.jpg","UserSelect","/UserSelect.20240902_083307517.jpg","","","-999.99","11.57","-999.99","-999.99","66d57843f9835f001a80d855"
"2024-09-02T08:33:22.549Z","45.9166632","-130.0250254","ASNAP","","admin","","","","","","","-1.97","-0.39","0.7","-4.9","249.58","75.84","0.58","SciCam","/SciCam.20240902_083322549.jpg","PilotCam","/PilotCam.20240902_083322549.jpg","BrowCam","/BrowCam.20240902_083322549.jpg","UserSelect","/UserSelect.20240902_083322549.jpg","","","-999.99","10.93","-999.99","-999.99","66d57852f9835f001a80d859"
"2024-09-02T08:33:37.580Z","45.9166632","-130.0250255","ASNAP","","admin","","","","","","","-1.98","-0.39","0.5","-4.3","249.51","82.33","0.58","SciCam","/SciCam.20240902_083337580.jpg","PilotCam","/PilotCam.20240902_083337580.jpg","BrowCam","/BrowCam.20240902_083337580.jpg","UserSelect","/UserSelect.20240902_083337580.jpg","","","-999.99","10.56","-999.99","-999.99","66d57861f9835f001a80d85d"
"2024-09-02T08:33:52.610Z","45.9166631","-130.0250254","ASNAP","","admin","","","","","","","-1.97","-0.40","0.8","-4.9","249.41","88.65","0.58","SciCam","/SciCam.20240902_083352610.jpg","PilotCam","/PilotCam.20240902_083352610.jpg","BrowCam","/BrowCam.20240902_083352610.jpg","UserSelect","/UserSelect.20240902_083352610.jpg","","","-999.99","10.23","-999.99","-999.99","66d57870f9835f001a80d861"
"2024-09-02T08:34:07.639Z","45.9166627","-130.0250254","ASNAP","","admin","","","","","","","-1.97","-0.44","0.3","-4.2","248.64","93.63","0.58","SciCam","/SciCam.20240902_083407639.jpg","PilotCam","/PilotCam.20240902_083407639.jpg","BrowCam","/BrowCam.20240902_083407639.jpg","UserSelect","/UserSelect.20240902_083407639.jpg","","","-999.99","10.00","-999.99","-999.99","66d5787ff9835f001a80d865"
"2024-09-02T08:34:22.658Z","45.9166620","-130.0250251","ASNAP","","admin","","","","","","","-1.95","-0.52","0.5","-5.2","247.34","96.98","0.58","SciCam","/SciCam.20240902_083422658.jpg","PilotCam","/PilotCam.20240902_083422658.jpg","BrowCam","/BrowCam.20240902_083422658.jpg","UserSelect","/UserSelect.20240902_083422658.jpg","","","-999.99","9.70","-999.99","-999.99","66d5788ef9835f001a80d869"
"2024-09-02T08:34:37.692Z","45.9166632","-130.0250254","ASNAP","","admin","","","","","","","-1.97","-0.38","0.6","-4.8","249.70","100.56","0.58","SciCam","/SciCam.20240902_083437692.jpg","PilotCam","/PilotCam.20240902_083437692.jpg","BrowCam","/BrowCam.20240902_083437692.jpg","UserSelect","/UserSelect.20240902_083437692.jpg","","","-999.99","9.43","-999.99","-999.99","66d5789df9835f001a80d86d"
"2024-09-02T08:34:52.724Z","45.9166635","-130.0250254","ASNAP","","admin","","","","","","","-1.97","-0.35","0.6","-5.4","250.20","106.13","0.58","SciCam","/SciCam.20240902_083452724.jpg","PilotCam","/PilotCam.20240902_083452724.jpg","BrowCam","/BrowCam.20240902_083452724.jpg","UserSelect","/UserSelect.20240902_083452724.jpg","","","-999.99","9.00","-999.99","-999.99","66d578acf9835f001a80d871"
"2024-09-02T08:35:07.749Z","45.9166634","-130.0250255","ASNAP","","admin","","","","","","","-1.98","-0.36","-0.0","-4.6","250.20","113.53","0.58","SciCam","/SciCam.20240902_083507749.jpg","PilotCam","/PilotCam.20240902_083507749.jpg","BrowCam","/BrowCam.20240902_083507749.jpg","UserSelect","/UserSelect.20240902_083507749.jpg","","","-999.99","8.54","-999.99","-999.99","66d578bbf9835f001a80d875"
"2024-09-02T08:35:22.781Z","45.9166639","-130.0250258","ASNAP","","admin","","","","","","","-2.00","-0.31","-1.2","-3.4","250.87","120.11","0.58","SciCam","/SciCam.20240902_083522781.jpg","PilotCam","/PilotCam.20240902_083522781.jpg","BrowCam","/BrowCam.20240902_083522781.jpg","UserSelect","/UserSelect.20240902_083522781.jpg","","","-999.99","8.34","-999.99","-999.99","66d578caf9835f001a80d879"
"2024-09-02T08:35:37.815Z","45.9166634","-130.0250253","ASNAP","","admin","","","","","","","-1.96","-0.36","0.6","-6.1","250.10","126.01","0.58","SciCam","/SciCam.20240902_083537815.jpg","PilotCam","/PilotCam.20240902_083537815.jpg","BrowCam","/BrowCam.20240902_083537815.jpg","UserSelect","/UserSelect.20240902_083537815.jpg","","","-999.99","8.08","-999.99","-999.99","66d578d9f9835f001a80d87d"
"2024-09-02T08:35:51.688Z","45.9166633","-130.0250253","ROV Actions"," ","guest","","Transponder on","","","","","-1.96","-0.37","0.6","-5.8","249.81","128.10","0.58","SciCam","/SciCam.20240902_083551688.jpg","PilotCam","/PilotCam.20240902_083551688.jpg","BrowCam","/BrowCam.20240902_083551688.jpg","UserSelect","/UserSelect.20240902_083551688.jpg","","","-999.99","7.95","-999.99","-999.99","66d578e7f9835f001a80d881"
"2024-09-02T08:35:52.844Z","45.9166632","-130.0250253","ASNAP","","admin","","","","","","","-1.96","-0.38","1.0","-5.9","249.79","128.10","0.58","SciCam","/SciCam.20240902_083552844.jpg","PilotCam","/PilotCam.20240902_083552844.jpg","BrowCam","/BrowCam.20240902_083552844.jpg","UserSelect","/UserSelect.20240902_083552844.jpg","","","-999.99","8.04","-999.99","-999.99","66d578e8f9835f001a80d885"
"2024-09-02T08:36:07.864Z","45.9166632","-130.0250253","ASNAP","","admin","","","","","","","-1.96","-0.39","0.6","-5.5","249.41","127.55","0.58","SciCam","/SciCam.20240902_083607864.jpg","PilotCam","/PilotCam.20240902_083607864.jpg","BrowCam","/BrowCam.20240902_083607864.jpg","UserSelect","/UserSelect.20240902_083607864.jpg","","","-999.99","7.91","-999.99","-999.99","66d578f7f9835f001a80d889"
"2024-09-02T08:36:22.898Z","45.9166633","-130.0250254","ASNAP","","admin","","","","","","","-1.97","-0.37","0.5","-5.4","249.81","127.75","0.58","SciCam","/SciCam.20240902_083622898.jpg","PilotCam","/PilotCam.20240902_083622898.jpg","BrowCam","/BrowCam.20240902_083622898.jpg","UserSelect","/UserSelect.20240902_083622898.jpg","","","-999.99","7.96","-999.99","-999.99","66d57906f9835f001a80d88d"
"2024-09-02T08:36:37.931Z","45.9166633","-130.0250254","ASNAP","","admin","","","","","","","-1.97","-0.37","0.5","-5.5","249.83","127.66","0.58","SciCam","/SciCam.20240902_083637931.jpg","PilotCam","/PilotCam.20240902_083637931.jpg","BrowCam","/BrowCam.20240902_083637931.jpg","UserSelect","/UserSelect.20240902_083637931.jpg","","","-999.99","7.89","-999.99","-999.99","66d57915f9835f001a80d891"
"2024-09-02T08:36:52.965Z","45.9166633","-130.0250254","ASNAP","","admin","","","","","","","-1.97","-0.37","0.6","-5.5","249.83","127.70","0.58","SciCam","/SciCam.20240902_083652965.jpg","PilotCam","/PilotCam.20240902_083652965.jpg","BrowCam","/BrowCam.20240902_083652965.jpg","UserSelect","/UserSelect.20240902_083652965.jpg","","","-999.99","7.92","-999.99","-999.99","66d57924f9835f001a80d895"
"2024-09-02T08:37:08.001Z","45.9166633","-130.0250254","ASNAP","","admin","","","","","","","-1.97","-0.37","0.6","-5.5","249.86","127.73","0.58","SciCam","/SciCam.20240902_083708001.jpg","PilotCam","/PilotCam.20240902_083708001.jpg","BrowCam","/BrowCam.20240902_083708001.jpg","UserSelect","/UserSelect.20240902_083708001.jpg","","","-999.99","7.89","-999.99","-999.99","66d57934f9835f001a80d899"
"2024-09-02T08:37:23.036Z","45.9166632","-130.0250254","ASNAP","","admin","","","","","","","-1.97","-0.38","0.0","-5.1","249.60","128.43","0.58","SciCam","/SciCam.20240902_083723036.jpg","PilotCam","/PilotCam.20240902_083723036.jpg","BrowCam","/BrowCam.20240902_083723036.jpg","UserSelect","/UserSelect.20240902_083723036.jpg","","","-999.99","7.90","-999.99","-999.99","66d57943f9835f001a80d89d"
"2024-09-02T08:37:38.068Z","45.9166634","-130.0250254","ASNAP","","admin","","","","","","","-1.97","-0.36","-0.0","-5.6","249.87","135.02","0.58","SciCam","/SciCam.20240902_083738068.jpg","PilotCam","/PilotCam.20240902_083738068.jpg","BrowCam","/BrowCam.20240902_083738068.jpg","UserSelect","/UserSelect.20240902_083738068.jpg","","","-999.99","7.91","-999.99","-999.99","66d57952f9835f001a80d8a1"
"2024-09-02T08:37:53.100Z","45.9166632","-130.0250254","ASNAP","","admin","","","","","","","-1.97","-0.38","0.8","-4.6","249.73","140.49","0.58","SciCam","/SciCam.20240902_083753100.jpg","PilotCam","/PilotCam.20240902_083753100.jpg","BrowCam","/BrowCam.20240902_083753100.jpg","UserSelect","/UserSelect.20240902_083753100.jpg","","","-999.99","7.87","-999.99","-999.99","66d57961f9835f001a80d8a5"
"2024-09-02T08:38:08.128Z","45.9166632","-130.0250254","ASNAP","","admin","","","","","","","-1.97","-0.39","1.2","-4.6","250.11","144.61","0.58","SciCam","/SciCam.20240902_083808128.jpg","PilotCam","/PilotCam.20240902_083808128.jpg","BrowCam","/BrowCam.20240902_083808128.jpg","UserSelect","/UserSelect.20240902_083808128.jpg","","","-999.99","7.80","-999.99","-999.99","66d57970f9835f001a80d8a9"
"2024-09-02T08:38:23.159Z","45.9166633","-130.0250254","ASNAP","","admin","","","","","","","-1.97","-0.37","0.7","-5.4","249.93","144.46","0.58","SciCam","/SciCam.20240902_083823159.jpg","PilotCam","/PilotCam.20240902_083823159.jpg","BrowCam","/BrowCam.20240902_083823159.jpg","UserSelect","/UserSelect.20240902_083823159.jpg","","","-999.99","7.68","-999.99","-999.99","66d5797ff9835f001a80d8ad"
"2024-09-02T08:38:38.189Z","45.9166633","-130.0250254","ASNAP","","admin","","","","","","","-1.97","-0.37","0.5","-5.4","249.84","144.51","0.58","SciCam","/SciCam.20240902_083838189.jpg","PilotCam","/PilotCam.20240902_083838189.jpg","BrowCam","/BrowCam.20240902_083838189.jpg","UserSelect","/UserSelect.20240902_083838189.jpg","","","-999.99","7.61","-999.99","-999.99","66d5798ef9835f001a80d8b1"
"2024-09-02T08:38:53.220Z","45.9166633","-130.0250254","ASNAP","","admin","","","","","","","-1.97","-0.37","0.6","-5.4","249.82","144.36","0.58","SciCam","/SciCam.20240902_083853220.jpg","PilotCam","/PilotCam.20240902_083853220.jpg","BrowCam","/BrowCam.20240902_083853220.jpg","UserSelect","/UserSelect.20240902_083853220.jpg","","","-999.99","7.73","-999.99","-999.99","66d5799df9835f001a80d8b5"
"2024-09-02T08:39:08.250Z","45.9166633","-130.0250254","ASNAP","","admin","","","","","","","-1.97","-0.37","0.6","-5.5","249.88","144.42","0.58","SciCam","/SciCam.20240902_083908250.jpg","PilotCam","/PilotCam.20240902_083908250.jpg","BrowCam","/BrowCam.20240902_083908250.jpg","UserSelect","/UserSelect.20240902_083908250.jpg","","","-999.99","7.72","-999.99","-999.99","66d579acf9835f001a80d8b9"
"2024-09-02T08:39:23.286Z","45.9166632","-130.0250254","ASNAP","","admin","","","","","","","-1.97","-0.38","0.6","-5.4","249.66","144.44","0.58","SciCam","/SciCam.20240902_083923286.jpg","PilotCam","/PilotCam.20240902_083923286.jpg","BrowCam","/BrowCam.20240902_083923286.jpg","UserSelect","/UserSelect.20240902_083923286.jpg","","","-999.99","7.86","-999.99","-999.99","66d579bbf9835f001a80d8bd"
"2024-09-02T08:39:38.320Z","45.9166629","-130.0250255","ASNAP","","admin","","","","","","","-1.98","-0.42","0.5","-3.9","249.04","150.30","0.58","SciCam","/SciCam.20240902_083938320.jpg","PilotCam","/PilotCam.20240902_083938320.jpg","BrowCam","/BrowCam.20240902_083938320.jpg","UserSelect","/UserSelect.20240902_083938320.jpg","","","-999.99","7.73","-999.99","-999.99","66d579caf9835f001a80d8c1"
"2024-09-02T08:39:53.348Z","45.9166629","-130.0250255","ASNAP","","admin","","","","","","","-1.98","-0.42","0.4","-3.2","249.03","160.34","0.58","SciCam","/SciCam.20240902_083953348.jpg","PilotCam","/PilotCam.20240902_083953348.jpg","BrowCam","/BrowCam.20240902_083953348.jpg","UserSelect","/UserSelect.20240902_083953348.jpg","","","-999.99","7.33","-999.99","-999.99","66d579d9f9835f001a80d8c5"
"2024-09-02T08:40:08.381Z","45.9166629","-130.0250257","ASNAP","","admin","","","","","","","-1.99","-0.42","0.3","-2.9","249.10","170.63","0.58","SciCam","/SciCam.20240902_084008381.jpg","PilotCam","/PilotCam.20240902_084008381.jpg","BrowCam","/BrowCam.20240902_084008381.jpg","UserSelect","/UserSelect.20240902_084008381.jpg","","","-999.99","7.57","-999.99","-999.99","66d579e8f9835f001a80d8c9"
"2024-09-02T08:40:23.397Z","45.9166630","-130.0250255","ASNAP","","admin","","","","","","","-1.98","-0.41","0.2","-3.2","249.21","180.73","0.58","SciCam","/SciCam.20240902_084023397.jpg","PilotCam","/PilotCam.20240902_084023397.jpg","BrowCam","/BrowCam.20240902_084023397.jpg","UserSelect","/UserSelect.20240902_084023397.jpg","","","-999.99","7.36","-999.99","-999.99","66d579f7f9835f001a80d8cd"
"2024-09-02T08:40:38.427Z","45.9166631","-130.0250257","ASNAP","","admin","","","","","","","-1.99","-0.40","0.2","-2.7","249.46","190.27","0.58","SciCam","/SciCam.20240902_084038427.jpg","PilotCam","/PilotCam.20240902_084038427.jpg","BrowCam","/BrowCam.20240902_084038427.jpg","UserSelect","/UserSelect.20240902_084038427.jpg","","","-999.99","7.24","-999.99","-999.99","66d57a06f9835f001a80d8d1"
"2024-09-02T08:40:53.460Z","45.9166634","-130.0250251","ASNAP","","admin","","","","","","","-1.95","-0.36","0.0","-9.1","249.86","197.01","0.58","SciCam","/SciCam.20240902_084053460.jpg","PilotCam","/PilotCam.20240902_084053460.jpg","BrowCam","/BrowCam.20240902_084053460.jpg","UserSelect","/UserSelect.20240902_084053460.jpg","","","-999.99","7.39","-999.99","-999.99","66d57a15f9835f001a80d8d5"
"2024-09-02T08:41:08.493Z","45.9166630","-130.0250254","ASNAP","","admin","","","","","","","-1.97","-0.41","0.6","-4.8","249.27","203.56","0.58","SciCam","/SciCam.20240902_084108493.jpg","PilotCam","/PilotCam.20240902_084108493.jpg","BrowCam","/BrowCam.20240902_084108493.jpg","UserSelect","/UserSelect.20240902_084108493.jpg","","","-999.99","7.17","-999.99","-999.99","66d57a24f9835f001a80d8d9"
"2024-09-02T08:41:23.524Z","45.9166632","-130.0250254","ASNAP","","admin","","","","","","","-1.97","-0.39","0.4","-4.9","249.60","210.62","0.58","SciCam","/SciCam.20240902_084123524.jpg","PilotCam","/PilotCam.20240902_084123524.jpg","BrowCam","/BrowCam.20240902_084123524.jpg","UserSelect","/UserSelect.20240902_084123524.jpg","","","-999.99","7.02","-999.99","-999.99","66d57a33f9835f001a80d8dd"
"2024-09-02T08:41:38.554Z","45.9166632","-130.0250255","ASNAP","","admin","","","","","","","-1.98","-0.39","0.4","-4.1","249.65","217.93","0.58","SciCam","/SciCam.20240902_084138554.jpg","PilotCam","/PilotCam.20240902_084138554.jpg","BrowCam","/BrowCam.20240902_084138554.jpg","UserSelect","/UserSelect.20240902_084138554.jpg","","","-999.99","6.96","-999.99","-999.99","66d57a42f9835f001a80d8e1"
"2024-09-02T08:41:53.587Z","45.9166632","-130.0250255","ASNAP","","admin","","","","","","","-1.98","-0.39","0.4","-4.4","249.61","225.24","0.58","SciCam","/SciCam.20240902_084153587.jpg","PilotCam","/PilotCam.20240902_084153587.jpg","BrowCam","/BrowCam.20240902_084153587.jpg","UserSelect","/UserSelect.20240902_084153587.jpg","","","-999.99","6.87","-999.99","-999.99","66d57a51f9835f001a80d8e5"
"2024-09-02T08:42:08.619Z","45.9166631","-130.0250254","ASNAP","","admin","","","","","","","-1.97","-0.40","0.5","-4.6","249.43","232.50","0.58","SciCam","/SciCam.20240902_084208619.jpg","PilotCam","/PilotCam.20240902_084208619.jpg","BrowCam","/BrowCam.20240902_084208619.jpg","UserSelect","/UserSelect.20240902_084208619.jpg","","","-999.99","6.73","-999.99","-999.99","66d57a60f9835f001a80d8e9"
"2024-09-02T08:42:23.647Z","45.9166631","-130.0250255","ASNAP","","admin","","","","","","","-1.98","-0.40","0.3","-4.2","249.40","240.45","0.58","SciCam","/SciCam.20240902_084223647.jpg","PilotCam","/PilotCam.20240902_084223647.jpg","BrowCam","/BrowCam.20240902_084223647.jpg","UserSelect","/UserSelect.20240902_084223647.jpg","","","-999.99","6.65","-999.99","-999.99","66d57a6ff9835f001a80d8ed"
"2024-09-02T08:42:38.677Z","45.9166632","-130.0250255","ASNAP","","admin","","","","","","","-1.98","-0.39","0.5","-4.3","249.57","247.80","0.58","SciCam","/SciCam.20240902_084238677.jpg","PilotCam","/PilotCam.20240902_084238677.jpg","BrowCam","/BrowCam.20240902_084238677.jpg","UserSelect","/UserSelect.20240902_084238677.jpg","","","-999.99","6.65","-999.99","-999.99","66d57a7ef9835f001a80d8f1"
"2024-09-02T08:42:53.710Z","45.9166631","-130.0250254","ASNAP","","admin","","","","","","","-1.97","-0.40","0.3","-4.4","249.42","255.19","0.58","SciCam","/SciCam.20240902_084253710.jpg","PilotCam","/PilotCam.20240902_084253710.jpg","BrowCam","/BrowCam.20240902_084253710.jpg","UserSelect","/UserSelect.20240902_084253710.jpg","","","-999.99","6.60","-999.99","-999.99","66d57a8df9835f001a80d8f5"
"2024-09-02T08:43:08.744Z","45.9166632","-130.0250255","ASNAP","","admin","","","","","","","-1.98","-0.39","0.6","-4.1","249.68","262.64","0.58","SciCam","/SciCam.20240902_084308744.jpg","PilotCam","/PilotCam.20240902_084308744.jpg","BrowCam","/BrowCam.20240902_084308744.jpg","UserSelect","/UserSelect.20240902_084308744.jpg","","","-999.99","6.42","-999.99","-999.99","66d57a9cf9835f001a80d8f9"
"2024-09-02T08:43:23.776Z","45.9166632","-130.0250254","ASNAP","","admin","","","","","","","-1.97","-0.39","0.2","-4.6","249.51","269.94","0.58","SciCam","/SciCam.20240902_084323776.jpg","PilotCam","/PilotCam.20240902_084323776.jpg","BrowCam","/BrowCam.20240902_084323776.jpg","UserSelect","/UserSelect.20240902_084323776.jpg","","","-999.99","6.41","-999.99","-999.99","66d57aabf9835f001a80d8fd"
"2024-09-02T08:43:38.804Z","45.9166632","-130.0250254","ASNAP","","admin","","","","","","","-1.97","-0.39","0.4","-4.8","249.52","276.31","0.58","SciCam","/SciCam.20240902_084338804.jpg","PilotCam","/PilotCam.20240902_084338804.jpg","BrowCam","/BrowCam.20240902_084338804.jpg","UserSelect","/UserSelect.20240902_084338804.jpg","","","-999.99","6.39","-999.99","-999.99","66d57abaf9835f001a80d901"
"2024-09-02T08:43:53.839Z","45.9166632","-130.0250254","ASNAP","","admin","","","","","","","-1.97","-0.39","0.5","-4.6","249.63","282.76","0.58","SciCam","/SciCam.20240902_084353839.jpg","PilotCam","/PilotCam.20240902_084353839.jpg","BrowCam","/BrowCam.20240902_084353839.jpg","UserSelect","/UserSelect.20240902_084353839.jpg","","","-999.99","6.36","-999.99","-999.99","66d57ac9f9835f001a80d905"
"2024-09-02T08:44:08.872Z","45.9166632","-130.0250254","ASNAP","","admin","","","","","","","-1.97","-0.38","0.4","-4.6","249.67","289.25","0.58","SciCam","/SciCam.20240902_084408872.jpg","PilotCam","/PilotCam.20240902_084408872.jpg","BrowCam","/BrowCam.20240902_084408872.jpg","UserSelect","/UserSelect.20240902_084408872.jpg","","","-999.99","6.29","-999.99","-999.99","66d57ad8f9835f001a80d909"
"2024-09-02T08:44:23.892Z","45.9166632","-130.0250254","ASNAP","","admin","","","","","","","-1.97","-0.39","0.3","-4.6","249.56","295.80","0.58","SciCam","/SciCam.20240902_084423892.jpg","PilotCam","/PilotCam.20240902_084423892.jpg","BrowCam","/BrowCam.20240902_084423892.jpg","UserSelect","/UserSelect.20240902_084423892.jpg","","","-999.99","6.09","-999.99","-999.99","66d57ae7f9835f001a80d90d"
"2024-09-02T08:44:38.927Z","45.9166632","-130.0250254","ASNAP","","admin","","","","","","","-1.97","-0.39","0.5","-4.5","249.55","302.35","0.58","SciCam","/SciCam.20240902_084438927.jpg","PilotCam","/PilotCam.20240902_084438927.jpg","BrowCam","/BrowCam.20240902_084438927.jpg","UserSelect","/UserSelect.20240902_084438927.jpg","","","-999.99","6.02","-999.99","-999.99","66d57af6f9835f001a80d911"
"2024-09-02T08:44:53.960Z","45.9166632","-130.0250254","ASNAP","","admin","","","","","","","-1.97","-0.38","0.4","-4.8","249.72","308.79","0.58","SciCam","/SciCam.20240902_084453960.jpg","PilotCam","/PilotCam.20240902_084453960.jpg","BrowCam","/BrowCam.20240902_084453960.jpg","UserSelect","/UserSelect.20240902_084453960.jpg","","","-999.99","6.04","-999.99","-999.99","66d57b05f9835f001a80d915"
"2024-09-02T08:45:08.984Z","45.9166632","-130.0250254","ASNAP","","admin","","","","","","","-1.97","-0.38","0.4","-4.6","249.68","315.00","0.58","SciCam","/SciCam.20240902_084508984.jpg","PilotCam","/PilotCam.20240902_084508984.jpg","BrowCam","/BrowCam.20240902_084508984.jpg","UserSelect","/UserSelect.20240902_084508984.jpg","","","-999.99","6.09","-999.99","-999.99","66d57b14f9835f001a80d919"
"2024-09-02T08:45:24.014Z","45.9166632","-130.0250254","ASNAP","","admin","","","","","","","-1.97","-0.38","0.7","-4.6","249.82","321.18","0.58","SciCam","/SciCam.20240902_084524014.jpg","PilotCam","/PilotCam.20240902_084524014.jpg","BrowCam","/BrowCam.20240902_084524014.jpg","UserSelect","/UserSelect.20240902_084524014.jpg","","","-999.99","6.04","-999.99","-999.99","66d57b24f9835f001a80d91d"
"2024-09-02T08:45:39.047Z","45.9166632","-130.0250254","ASNAP","","admin","","","","","","","-1.97","-0.39","0.4","-4.7","249.62","327.38","0.58","SciCam","/SciCam.20240902_084539047.jpg","PilotCam","/PilotCam.20240902_084539047.jpg","BrowCam","/BrowCam.20240902_084539047.jpg","UserSelect","/UserSelect.20240902_084539047.jpg","","","-999.99","5.92","-999.99","-999.99","66d57b33f9835f001a80d921"
"2024-09-02T08:45:54.078Z","45.9166632","-130.0250254","ASNAP","","admin","","","","","","","-1.97","-0.39","0.4","-4.7","249.64","333.55","0.58","SciCam","/SciCam.20240902_084554078.jpg","PilotCam","/PilotCam.20240902_084554078.jpg","BrowCam","/BrowCam.20240902_084554078.jpg","UserSelect","/UserSelect.20240902_084554078.jpg","","","-999.99","5.67","-999.99","-999.99","66d57b42f9835f001a80d925"
"2024-09-02T08:46:09.109Z","45.9166632","-130.0250254","ASNAP","","admin","","","","","","","-1.97","-0.38","0.5","-4.8","249.66","339.76","0.58","SciCam","/SciCam.20240902_084609109.jpg","PilotCam","/PilotCam.20240902_084609109.jpg","BrowCam","/BrowCam.20240902_084609109.jpg","UserSelect","/UserSelect.20240902_084609109.jpg","","","-999.99","5.77","-999.99","-999.99","66d57b51f9835f001a80d929"
"2024-09-02T08:46:24.144Z","45.9166632","-130.0250254","ASNAP","","admin","","","","","","","-1.97","-0.38","0.6","-4.7","249.67","345.96","0.58","SciCam","/SciCam.20240902_084624144.jpg","PilotCam","/PilotCam.20240902_084624144.jpg","BrowCam","/BrowCam.20240902_084624144.jpg","UserSelect","/UserSelect.20240902_084624144.jpg","","","-999.99","5.75","-999.99","-999.99","66d57b60f9835f001a80d92d"
"2024-09-02T08:46:39.176Z","45.9166632","-130.0250254","ASNAP","","admin","","","","","","","-1.97","-0.38","0.4","-4.7","249.77","352.17","0.58","SciCam","/SciCam.20240902_084639176.jpg","PilotCam","/PilotCam.20240902_084639176.jpg","BrowCam","/BrowCam.20240902_084639176.jpg","UserSelect","/UserSelect.20240902_084639176.jpg","","","-999.99","5.49","-999.99","-999.99","66d57b6ff9835f001a80d931"
"2024-09-02T08:46:54.207Z","45.9166632","-130.0250254","ASNAP","","admin","","","","","","","-1.97","-0.39","0.5","-4.6","249.55","358.32","0.58","SciCam","/SciCam.20240902_084654207.jpg","PilotCam","/PilotCam.20240902_084654207.jpg","BrowCam","/BrowCam.20240902_084654207.jpg","UserSelect","/UserSelect.20240902_084654207.jpg","","","-999.99","5.57","-999.99","-999.99","66d57b7ef9835f001a80d935"
"2024-09-02T08:47:09.241Z","45.9166632","-130.0250254","ASNAP","","admin","","","","","","","-1.97","-0.39","0.5","-4.7","249.61","364.51","0.58","SciCam","/SciCam.20240902_084709241.jpg","PilotCam","/PilotCam.20240902_084709241.jpg","BrowCam","/BrowCam.20240902_084709241.jpg","UserSelect","/UserSelect.20240902_084709241.jpg","","","-999.99","5.81","-999.99","-999.99","66d57b8df9835f001a80d939"
"2024-09-02T08:47:24.271Z","45.9166632","-130.0250254","ASNAP","","admin","","","","","","","-1.97","-0.39","0.4","-4.6","249.62","370.71","0.58","SciCam","/SciCam.20240902_084724271.jpg","PilotCam","/PilotCam.20240902_084724271.jpg","BrowCam","/BrowCam.20240902_084724271.jpg","UserSelect","/UserSelect.20240902_084724271.jpg","","","-999.99","5.37","-999.99","-999.99","66d57b9cf9835f001a80d93d"
"2024-09-02T08:47:39.305Z","45.9166632","-130.0250254","ASNAP","","admin","","","","","","","-1.97","-0.39","0.5","-4.7","249.55","376.81","0.58","SciCam","/SciCam.20240902_084739305.jpg","PilotCam","/PilotCam.20240902_084739305.jpg","BrowCam","/BrowCam.20240902_084739305.jpg","UserSelect","/UserSelect.20240902_084739305.jpg","","","-999.99","5.27","-999.99","-999.99","66d57babf9835f001a80d941"
"2024-09-02T08:47:54.336Z","45.9166632","-130.0250254","ASNAP","","admin","","","","","","","-1.97","-0.39","0.6","-4.7","249.65","382.95","0.58","SciCam","/SciCam.20240902_084754336.jpg","PilotCam","/PilotCam.20240902_084754336.jpg","BrowCam","/BrowCam.20240902_084754336.jpg","UserSelect","/UserSelect.20240902_084754336.jpg","","","-999.99","5.42","-999.99","-999.99","66d57bbaf9835f001a80d945"
"2024-09-02T08:48:09.368Z","45.9166632","-130.0250254","ASNAP","","admin","","","","","","","-1.97","-0.39","0.5","-4.6","249.64","389.02","0.58","SciCam","/SciCam.20240902_084809368.jpg","PilotCam","/PilotCam.20240902_084809368.jpg","BrowCam","/BrowCam.20240902_084809368.jpg","UserSelect","/UserSelect.20240902_084809368.jpg","","","-999.99","4.87","-999.99","-999.99","66d57bc9f9835f001a80d949"
"2024-09-02T08:48:24.387Z","45.9166632","-130.0250254","ASNAP","","admin","","","","","","","-1.97","-0.38","0.5","-4.7","249.75","395.10","0.58","SciCam","/SciCam.20240902_084824387.jpg","PilotCam","/PilotCam.20240902_084824387.jpg","BrowCam","/BrowCam.20240902_084824387.jpg","UserSelect","/UserSelect.20240902_084824387.jpg","","","-999.99","5.53","-999.99","-999.99","66d57bd8f9835f001a80d94d"
"2024-09-02T08:48:39.420Z","45.9166632","-130.0250254","ASNAP","","admin","","","","","","","-1.97","-0.39","0.5","-4.7","249.64","401.16","0.58","SciCam","/SciCam.20240902_084839420.jpg","PilotCam","/PilotCam.20240902_084839420.jpg","BrowCam","/BrowCam.20240902_084839420.jpg","UserSelect","/UserSelect.20240902_084839420.jpg","","","-999.99","5.41","-999.99","-999.99","66d57be7f9835f001a80d951"
"2024-09-02T08:48:54.450Z","45.9166632","-130.0250254","ASNAP","","admin","","","","","","","-1.97","-0.38","0.5","-4.6","249.79","407.27","0.58","SciCam","/SciCam.20240902_084854450.jpg","PilotCam","/PilotCam.20240902_084854450.jpg","BrowCam","/BrowCam.20240902_084854450.jpg","UserSelect","/UserSelect.20240902_084854450.jpg","","","-999.99","5.67","-999.99","-999.99","66d57bf6f9835f001a80d955"
"2024-09-02T08:49:09.483Z","45.9166631","-130.0250255","ASNAP","","admin","","","","","","","-1.98","-0.40","0.5","-4.1","249.32","414.30","0.58","SciCam","/SciCam.20240902_084909483.jpg","PilotCam","/PilotCam.20240902_084909483.jpg","BrowCam","/BrowCam.20240902_084909483.jpg","UserSelect","/UserSelect.20240902_084909483.jpg","","","-999.99","5.30","-999.99","-999.99","66d57c05f9835f001a80d959"
"2024-09-02T08:49:24.514Z","45.9166631","-130.0250255","ASNAP","","admin","","","","","","","-1.98","-0.40","0.7","-3.9","249.40","422.02","0.58","SciCam","/SciCam.20240902_084924514.jpg","PilotCam","/PilotCam.20240902_084924514.jpg","BrowCam","/BrowCam.20240902_084924514.jpg","UserSelect","/UserSelect.20240902_084924514.jpg","","","-999.99","5.22","-999.99","-999.99","66d57c14f9835f001a80d95d"
"2024-09-02T08:49:39.539Z","45.9166630","-130.0250255","ASNAP","","admin","","","","","","","-1.98","-0.41","0.3","-3.2","249.31","430.48","0.58","SciCam","/SciCam.20240902_084939539.jpg","PilotCam","/PilotCam.20240902_084939539.jpg","BrowCam","/BrowCam.20240902_084939539.jpg","UserSelect","/UserSelect.20240902_084939539.jpg","","","-999.99","5.25","-999.99","-999.99","66d57c23f9835f001a80d961"
"2024-09-02T08:49:54.569Z","45.9166631","-130.0250257","ASNAP","","admin","","","","","","","-1.99","-0.40","0.0","-3.2","249.46","440.20","0.58","SciCam","/SciCam.20240902_084954569.jpg","PilotCam","/PilotCam.20240902_084954569.jpg","BrowCam","/BrowCam.20240902_084954569.jpg","UserSelect","/UserSelect.20240902_084954569.jpg","","","-999.99","5.06","-999.99","-999.99","66d57c32f9835f001a80d965"
"2024-09-02T08:50:09.601Z","45.9166628","-130.0250257","ASNAP","","admin","","","","","","","-1.99","-0.43","0.2","-2.7","248.81","449.98","0.58","SciCam","/SciCam.20240902_085009601.jpg","PilotCam","/PilotCam.20240902_085009601.jpg","BrowCam","/BrowCam.20240902_085009601.jpg","UserSelect","/UserSelect.20240902_085009601.jpg","","","-999.99","5.14","-999.99","-999.99","66d57c41f9835f001a80d969"
"2024-09-02T08:50:24.633Z","45.9166629","-130.0250257","ASNAP","","admin","","","","","","","-1.99","-0.42","0.5","-2.9","249.13","459.62","0.58","SciCam","/SciCam.20240902_085024633.jpg","PilotCam","/PilotCam.20240902_085024633.jpg","BrowCam","/BrowCam.20240902_085024633.jpg","UserSelect","/UserSelect.20240902_085024633.jpg","","","-999.99","5.01","-999.99","-999.99","66d57c50f9835f001a80d96d"
"2024-09-02T08:50:39.665Z","45.9166630","-130.0250255","ASNAP","","admin","","","","","","","-1.98","-0.41","0.4","-3.2","249.21","469.24","0.58","SciCam","/SciCam.20240902_085039665.jpg","PilotCam","/PilotCam.20240902_085039665.jpg","BrowCam","/BrowCam.20240902_085039665.jpg","UserSelect","/UserSelect.20240902_085039665.jpg","","","-999.99","4.95","-999.99","-999.99","66d57c5ff9835f001a80d971"
"2024-09-02T08:50:54.697Z","45.9166631","-130.0250257","ASNAP","","admin","","","","","","","-1.99","-0.40","0.4","-2.8","249.51","479.42","0.58","SciCam","/SciCam.20240902_085054697.jpg","PilotCam","/PilotCam.20240902_085054697.jpg","BrowCam","/BrowCam.20240902_085054697.jpg","UserSelect","/UserSelect.20240902_085054697.jpg","","","-999.99","4.97","-999.99","-999.99","66d57c6ef9835f001a80d975"
"2024-09-02T08:51:09.726Z","45.9166629","-130.0250257","ASNAP","","admin","","","","","","","-1.99","-0.42","0.4","-2.3","249.16","488.51","0.58","SciCam","/SciCam.20240902_085109726.jpg","PilotCam","/PilotCam.20240902_085109726.jpg","BrowCam","/BrowCam.20240902_085109726.jpg","UserSelect","/UserSelect.20240902_085109726.jpg","","","-999.99","4.88","-999.99","-999.99","66d57c7df9835f001a80d979"
"2024-09-02T08:51:24.757Z","45.9166632","-130.0250255","ASNAP","","admin","","","","","","","-1.98","-0.39","1.0","-3.4","249.77","497.20","0.58","SciCam","/SciCam.20240902_085124757.jpg","PilotCam","/PilotCam.20240902_085124757.jpg","BrowCam","/BrowCam.20240902_085124757.jpg","UserSelect","/UserSelect.20240902_085124757.jpg","","","-999.99","4.83","-999.99","-999.99","66d57c8cf9835f001a80d97d"
"2024-09-02T08:51:39.787Z","45.9166760","-130.0250237","ASNAP","","admin","","","","","","","-1.84","1.04","1.5","-5.3","279.06","504.92","0.58","SciCam","/SciCam.20240902_085139787.jpg","PilotCam","/PilotCam.20240902_085139787.jpg","BrowCam","/BrowCam.20240902_085139787.jpg","UserSelect","/UserSelect.20240902_085139787.jpg","","","-999.99","4.85","-999.99","-999.99","66d57c9bf9835f001a80d981"
"2024-09-02T08:51:54.816Z","45.9166880","-130.0249861","ASNAP","","admin","","","","","","","1.08","2.37","0.4","-6.3","20.54","511.88","0.58","SciCam","/SciCam.20240902_085154816.jpg","PilotCam","/PilotCam.20240902_085154816.jpg","BrowCam","/BrowCam.20240902_085154816.jpg","UserSelect","/UserSelect.20240902_085154816.jpg","","","-999.99","4.89","-999.99","-999.99","66d57caaf9835f001a80d985"
"2024-09-02T08:52:09.849Z","45.9166410","-130.0249997","ASNAP","","admin","","","","","","","0.02","-2.85","0.2","-5.3","168.74","519.24","0.58","SciCam","/SciCam.20240902_085209849.jpg","PilotCam","/PilotCam.20240902_085209849.jpg","BrowCam","/BrowCam.20240902_085209849.jpg","UserSelect","/UserSelect.20240902_085209849.jpg","","","-999.99","4.71","-999.99","-999.99","66d57cb9f9835f001a80d989"
"2024-09-02T08:52:24.881Z","45.9166890","-130.0250126","ASNAP","","admin","","","","","","","-0.98","2.48","0.5","-5.1","318.67","526.46","0.58","SciCam","/SciCam.20240902_085224881.jpg","PilotCam","/PilotCam.20240902_085224881.jpg","BrowCam","/BrowCam.20240902_085224881.jpg","UserSelect","/UserSelect.20240902_085224881.jpg","","","-999.99","4.82","-999.99","-999.99","66d57cc8f9835f001a80d98d"
"2024-09-02T08:52:39.914Z","45.9166541","-130.0249777","ASNAP","","admin","","","","","","","1.73","-1.40","-1.3","-5.5","108.25","533.92","0.58","SciCam","/SciCam.20240902_085239914.jpg","PilotCam","/PilotCam.20240902_085239914.jpg","BrowCam","/BrowCam.20240902_085239914.jpg","UserSelect","/UserSelect.20240902_085239914.jpg","","","-999.99","4.78","-999.99","-999.99","66d57cd7f9835f001a80d991"
"2024-09-02T08:52:54.948Z","45.9166669","-130.0250257","ASNAP","","admin","","","","","","","-1.99","0.03","0.7","-4.8","258.92","541.21","0.58","SciCam","/SciCam.20240902_085254948.jpg","PilotCam","/PilotCam.20240902_085254948.jpg","BrowCam","/BrowCam.20240902_085254948.jpg","UserSelect","/UserSelect.20240902_085254948.jpg","","","-999.99","4.78","-999.99","-999.99","66d57ce6f9835f001a80d995"
"2024-09-02T08:53:09.979Z","45.9166787","-130.0249773","ASNAP","","admin","","","","","","","1.76","1.34","-0.2","-4.7","50.32","548.43","0.58","SciCam","/SciCam.20240902_085309979.jpg","PilotCam","/PilotCam.20240902_085309979.jpg","BrowCam","/BrowCam.20240902_085309979.jpg","UserSelect","/UserSelect.20240902_085309979.jpg","","","-999.99","4.87","-999.99","-999.99","66d57cf5f9835f001a80d999"
"2024-09-02T08:53:25.011Z","45.9166436","-130.0250113","ASNAP","","admin","","","","","","","-0.88","-2.56","-0.1","-5.1","198.61","555.95","0.58","SciCam","/SciCam.20240902_085325011.jpg","PilotCam","/PilotCam.20240902_085325011.jpg","BrowCam","/BrowCam.20240902_085325011.jpg","UserSelect","/UserSelect.20240902_085325011.jpg","","","-999.99","4.73","-999.99","-999.99","66d57d05f9835f001a80d99d"
"2024-09-02T08:53:40.042Z","45.9166525","-130.0250217","ASNAP","","admin","","","","","","","-1.68","-1.57","0.4","-3.8","224.37","561.90","0.58","SciCam","/SciCam.20240902_085340042.jpg","PilotCam","/PilotCam.20240902_085340042.jpg","BrowCam","/BrowCam.20240902_085340042.jpg","UserSelect","/UserSelect.20240902_085340042.jpg","","","-999.99","4.83","-999.99","-999.99","66d57d14f9835f001a80d9a1"
"2024-09-02T08:53:55.075Z","45.9166528","-130.0250217","ASNAP","","admin","","","","","","","-1.68","-1.54","0.7","-4.2","225.00","568.98","0.58","SciCam","/SciCam.20240902_085355075.jpg","PilotCam","/PilotCam.20240902_085355075.jpg","BrowCam","/BrowCam.20240902_085355075.jpg","UserSelect","/UserSelect.20240902_085355075.jpg","","","-999.99","4.78","-999.99","-999.99","66d57d23f9835f001a80d9a5"
"2024-09-02T08:54:10.106Z","45.9166526","-130.0250217","ASNAP","","admin","","","","","","","-1.68","-1.56","0.1","-4.0","224.55","576.63","0.58","SciCam","/SciCam.20240902_085410106.jpg","PilotCam","/PilotCam.20240902_085410106.jpg","BrowCam","/BrowCam.20240902_085410106.jpg","UserSelect","/UserSelect.20240902_085410106.jpg","","","-999.99","4.74","-999.99","-999.99","66d57d32f9835f001a80d9a9"
"2024-09-02T08:54:25.137Z","45.9166525","-130.0250215","ASNAP","","admin","","","","","","","-1.67","-1.58","0.5","-4.0","224.01","584.29","0.58","SciCam","/SciCam.20240902_085425137.jpg","PilotCam","/PilotCam.20240902_085425137.jpg","BrowCam","/BrowCam.20240902_085425137.jpg","UserSelect","/UserSelect.20240902_085425137.jpg","","","-999.99","4.61","-999.99","-999.99","66d57d41f9835f001a80d9ad"
"2024-09-02T08:54:40.167Z","45.9166526","-130.0250215","ASNAP","","admin","","","","","","","-1.67","-1.56","0.3","-4.5","224.31","591.74","0.58","SciCam","/SciCam.20240902_085440167.jpg","PilotCam","/PilotCam.20240902_085440167.jpg","BrowCam","/BrowCam.20240902_085440167.jpg","UserSelect","/UserSelect.20240902_085440167.jpg","","","-999.99","4.78","-999.99","-999.99","66d57d50f9835f001a80d9b1"
"2024-09-02T08:54:55.198Z","45.9166528","-130.0250217","ASNAP","","admin","","","","","","","-1.68","-1.54","0.5","-4.6","224.78","599.43","0.58","SciCam","/SciCam.20240902_085455198.jpg","PilotCam","/PilotCam.20240902_085455198.jpg","BrowCam","/BrowCam.20240902_085455198.jpg","UserSelect","/UserSelect.20240902_085455198.jpg","","","-999.99","4.68","-999.99","-999.99","66d57d5ff9835f001a80d9b5"
"2024-09-02T08:55:10.231Z","45.9166525","-130.0250215","ASNAP","","admin","","","","","","","-1.67","-1.58","0.8","-4.2","224.10","607.13","0.58","SciCam","/SciCam.20240902_085510231.jpg","PilotCam","/PilotCam.20240902_085510231.jpg","BrowCam","/BrowCam.20240902_085510231.jpg","UserSelect","/UserSelect.20240902_085510231.jpg","","","-999.99","4.63","-999.99","-999.99","66d57d6ef9835f001a80d9b9"
"2024-09-02T08:55:25.260Z","45.9166527","-130.0250217","ASNAP","","admin","","","","","","","-1.68","-1.55","0.4","-4.2","224.64","615.21","0.58","SciCam","/SciCam.20240902_085525260.jpg","PilotCam","/PilotCam.20240902_085525260.jpg","BrowCam","/BrowCam.20240902_085525260.jpg","UserSelect","/UserSelect.20240902_085525260.jpg","","","-999.99","4.61","-999.99","-999.99","66d57d7df9835f001a80d9bd"
"2024-09-02T08:55:40.292Z","45.9166525","-130.0250215","ASNAP","","admin","","","","","","","-1.67","-1.57","0.9","-4.4","224.28","623.30","0.58","SciCam","/SciCam.20240902_085540292.jpg","PilotCam","/PilotCam.20240902_085540292.jpg","BrowCam","/BrowCam.20240902_085540292.jpg","UserSelect","/UserSelect.20240902_085540292.jpg","","","-999.99","4.53","-999.99","-999.99","66d57d8cf9835f001a80d9c1"
"2024-09-02T08:55:55.325Z","45.9166527","-130.0250215","ASNAP","","admin","","","","","","","-1.67","-1.55","0.3","-4.9","224.46","631.25","0.58","SciCam","/SciCam.20240902_085555325.jpg","PilotCam","/PilotCam.20240902_085555325.jpg","BrowCam","/BrowCam.20240902_085555325.jpg","UserSelect","/UserSelect.20240902_085555325.jpg","","","-999.99","4.50","-999.99","-999.99","66d57d9bf9835f001a80d9c5"
"2024-09-02T08:56:10.353Z","45.9166526","-130.0250215","ASNAP","","admin","","","","","","","-1.67","-1.56","0.3","-4.4","224.33","639.40","0.58","SciCam","/SciCam.20240902_085610353.jpg","PilotCam","/PilotCam.20240902_085610353.jpg","BrowCam","/BrowCam.20240902_085610353.jpg","UserSelect","/UserSelect.20240902_085610353.jpg","","","-999.99","4.60","-999.99","-999.99","66d57daaf9835f001a80d9c9"
"2024-09-02T08:56:25.387Z","45.9166525","-130.0250214","ASNAP","","admin","","","","","","","-1.66","-1.58","1.2","-4.4","224.12","647.49","0.58","SciCam","/SciCam.20240902_085625387.jpg","PilotCam","/PilotCam.20240902_085625387.jpg","BrowCam","/BrowCam.20240902_085625387.jpg","UserSelect","/UserSelect.20240902_085625387.jpg","","","-999.99","4.52","-999.99","-999.99","66d57db9f9835f001a80d9cd"
"2024-09-02T08:56:40.418Z","45.9166525","-130.0250214","ASNAP","","admin","","","","","","","-1.66","-1.58","0.4","-4.5","224.01","655.47","0.58","SciCam","/SciCam.20240902_085640418.jpg","PilotCam","/PilotCam.20240902_085640418.jpg","BrowCam","/BrowCam.20240902_085640418.jpg","UserSelect","/UserSelect.20240902_085640418.jpg","","","-999.99","4.38","-999.99","-999.99","66d57dc8f9835f001a80d9d1"
"2024-09-02T08:56:55.440Z","45.9166526","-130.0250215","ASNAP","","admin","","","","","","","-1.67","-1.56","0.5","-4.3","224.42","663.61","0.58","SciCam","/SciCam.20240902_085655440.jpg","PilotCam","/PilotCam.20240902_085655440.jpg","BrowCam","/BrowCam.20240902_085655440.jpg","UserSelect","/UserSelect.20240902_085655440.jpg","","","-999.99","4.48","-999.99","-999.99","66d57dd7f9835f001a80d9d5"
"2024-09-02T08:57:10.473Z","45.9166524","-130.0250214","ASNAP","","admin","","","","","","","-1.66","-1.59","0.8","-4.2","223.86","671.61","0.58","SciCam","/SciCam.20240902_085710473.jpg","PilotCam","/PilotCam.20240902_085710473.jpg","BrowCam","/BrowCam.20240902_085710473.jpg","UserSelect","/UserSelect.20240902_085710473.jpg","","","-999.99","4.38","-999.99","-999.99","66d57de6f9835f001a80d9d9"
"2024-09-02T08:57:25.489Z","45.9166526","-130.0250217","ASNAP","","admin","","","","","","","-1.68","-1.56","0.3","-4.2","224.54","679.71","0.58","SciCam","/SciCam.20240902_085725489.jpg","PilotCam","/PilotCam.20240902_085725489.jpg","BrowCam","/BrowCam.20240902_085725489.jpg","UserSelect","/UserSelect.20240902_085725489.jpg","","","-999.99","4.36","-999.99","-999.99","66d57df5f9835f001a80d9dd"
"2024-09-02T08:57:40.523Z","45.9166526","-130.0250215","ASNAP","","admin","","","","","","","-1.67","-1.56","1.0","-4.6","224.36","687.33","0.58","SciCam","/SciCam.20240902_085740523.jpg","PilotCam","/PilotCam.20240902_085740523.jpg","BrowCam","/BrowCam.20240902_085740523.jpg","UserSelect","/UserSelect.20240902_085740523.jpg","","","-999.99","4.35","-999.99","-999.99","66d57e04f9835f001a80d9e1"
"2024-09-02T08:57:55.557Z","45.9166525","-130.0250215","ASNAP","","admin","","","","","","","-1.67","-1.57","0.7","-4.6","224.22","695.46","0.58","SciCam","/SciCam.20240902_085755557.jpg","PilotCam","/PilotCam.20240902_085755557.jpg","BrowCam","/BrowCam.20240902_085755557.jpg","UserSelect","/UserSelect.20240902_085755557.jpg","","","-999.99","4.35","-999.99","-999.99","66d57e13f9835f001a80d9e5"
"2024-09-02T08:58:10.590Z","45.9166527","-130.0250217","ASNAP","","admin","","","","","","","-1.68","-1.55","0.2","-4.4","224.65","703.65","0.58","SciCam","/SciCam.20240902_085810590.jpg","PilotCam","/PilotCam.20240902_085810590.jpg","BrowCam","/BrowCam.20240902_085810590.jpg","UserSelect","/UserSelect.20240902_085810590.jpg","","","-999.99","4.36","-999.99","-999.99","66d57e22f9835f001a80d9e9"
"2024-09-02T08:58:25.622Z","45.9166525","-130.0250215","ASNAP","","admin","","","","","","","-1.67","-1.58","1.0","-4.1","224.09","711.73","0.58","SciCam","/SciCam.20240902_085825622.jpg","PilotCam","/PilotCam.20240902_085825622.jpg","BrowCam","/BrowCam.20240902_085825622.jpg","UserSelect","/UserSelect.20240902_085825622.jpg","","","-999.99","4.31","-999.99","-999.99","66d57e31f9835f001a80d9ed"
"2024-09-02T08:58:40.653Z","45.9166525","-130.0250215","ASNAP","","admin","","","","","","","-1.67","-1.57","0.5","-4.1","224.26","719.78","0.58","SciCam","/SciCam.20240902_085840653.jpg","PilotCam","/PilotCam.20240902_085840653.jpg","BrowCam","/BrowCam.20240902_085840653.jpg","UserSelect","/UserSelect.20240902_085840653.jpg","","","-999.99","4.33","-999.99","-999.99","66d57e40f9835f001a80d9f1"
"2024-09-02T08:58:55.684Z","45.9166526","-130.0250217","ASNAP","","admin","","","","","","","-1.68","-1.56","0.3","-4.1","224.54","727.77","0.58","SciCam","/SciCam.20240902_085855684.jpg","PilotCam","/PilotCam.20240902_085855684.jpg","BrowCam","/BrowCam.20240902_085855684.jpg","UserSelect","/UserSelect.20240902_085855684.jpg","","","-999.99","4.24","-999.99","-999.99","66d57e4ff9835f001a80d9f5"
"2024-09-02T08:59:10.710Z","45.9166525","-130.0250215","ASNAP","","admin","","","","","","","-1.67","-1.57","1.2","-4.3","224.28","735.87","0.58","SciCam","/SciCam.20240902_085910710.jpg","PilotCam","/PilotCam.20240902_085910710.jpg","BrowCam","/BrowCam.20240902_085910710.jpg","UserSelect","/UserSelect.20240902_085910710.jpg","","","-999.99","4.12","-999.99","-999.99","66d57e5ef9835f001a80d9f9"
"2024-09-02T08:59:25.738Z","45.9166526","-130.0250215","ASNAP","","admin","","","","","","","-1.67","-1.56","0.4","-4.6","224.38","744.41","0.58","SciCam","/SciCam.20240902_085925738.jpg","PilotCam","/PilotCam.20240902_085925738.jpg","BrowCam","/BrowCam.20240902_085925738.jpg","UserSelect","/UserSelect.20240902_085925738.jpg","","","-999.99","4.22","-999.99","-999.99","66d57e6df9835f001a80d9fd"
"2024-09-02T08:59:40.769Z","45.9166527","-130.0250217","ASNAP","","admin","","","","","","","-1.68","-1.55","0.5","-4.4","224.58","752.44","0.58","SciCam","/SciCam.20240902_085940769.jpg","PilotCam","/PilotCam.20240902_085940769.jpg","BrowCam","/BrowCam.20240902_085940769.jpg","UserSelect","/UserSelect.20240902_085940769.jpg","","","-999.99","4.11","-999.99","-999.99","66d57e7cf9835f001a80da01"
"2024-09-02T08:59:55.791Z","45.9166525","-130.0250215","ASNAP","","admin","","","","","","","-1.67","-1.57","0.8","-4.3","224.16","760.24","0.58","SciCam","/SciCam.20240902_085955791.jpg","PilotCam","/PilotCam.20240902_085955791.jpg","BrowCam","/BrowCam.20240902_085955791.jpg","UserSelect","/UserSelect.20240902_085955791.jpg","","","-999.99","4.21","-999.99","-999.99","66d57e8bf9835f001a80da05"
"2024-09-02T09:00:10.824Z","45.9166525","-130.0250215","ASNAP","","admin","","","","","","","-1.67","-1.57","0.3","-4.4","224.25","768.40","0.58","SciCam","/SciCam.20240902_090010824.jpg","PilotCam","/PilotCam.20240902_090010824.jpg","BrowCam","/BrowCam.20240902_090010824.jpg","UserSelect","/UserSelect.20240902_090010824.jpg","","","-999.99","4.11","-999.99","-999.99","66d57e9af9835f001a80da09"
"2024-09-02T09:00:25.853Z","45.9166527","-130.0250217","ASNAP","","admin","","","","","","","-1.68","-1.55","0.3","-4.4","224.71","776.06","0.58","SciCam","/SciCam.20240902_090025853.jpg","PilotCam","/PilotCam.20240902_090025853.jpg","BrowCam","/BrowCam.20240902_090025853.jpg","UserSelect","/UserSelect.20240902_090025853.jpg","","","-999.99","4.13","-999.99","-999.99","66d57ea9f9835f001a80da0d"
