Date/Time (UTC),vehicleRealtimeNavData.latitude (ddeg),vehicleRealtimeNavData.longitude (ddeg),event_value,event_free_text,event_author,event_option.actions,event_option.milestone,event_option.filename,event_option.event_comment,event_option.type,event_option.cabled_plug,event_option.highlights,vehicleRealtimeNavData.local_x (meters),vehicleRealtimeNavData.local_y (meters),vehicleRealtimeNavData.roll (deg),vehicleRealtimeNavData.pitch (deg),vehicleRealtimeNavData.heading (deg),vehicleRealtimeNavData.depth (meters),vehicleRealtimeNavData.altitude (meters),vehicleRealtimeFramegrabberData.camera_name_1,vehicleRealtimeFramegrabberData.filename_1,vehicleRealtimeFramegrabberData.camera_name_2,vehicleRealtimeFramegrabberData.filename_2,vehicleRealtimeFramegrabberData.camera_name_3,vehicleRealtimeFramegrabberData.filename_3,vehicleRealtimeFramegrabberData.camera_name_4,vehicleRealtimeFramegrabberData.filename_4,vehicleReNavData.pitch (deg),vehicleReNavData.roll (deg),vehicleTemperatureProbe.probe1_temperature (degC),vehicleTemperatureProbe.probe2_temperature (degC),vehicleTemperatureProbe.probe3_temperature (degC),vehicleTemperatureProbe.probe4_temperature (degC),id
"2024-09-01T10:45:29.969Z","45.9166406","-130.0250022","ROV Actions","undervator","guest","Latching to","","","","","","","-0.17","-2.90","-0.5","-1.0","172.24","0.85","0.58","SciCam","/SciCam.20240901_104529969.jpg","PilotCam","/PilotCam.20240901_104529969.jpg","BrowCam","/BrowCam.20240901_104529969.jpg","UserSelect","/UserSelect.20240901_104529969.jpg","","","-999.99","16.17","-999.99","-999.99","66d445c9f9835f001a808180"
"2024-09-01T10:46:51.130Z","45.9166406","-130.0250028","Name","John R Teal Jr.","guest","","","","","","","","-0.22","-2.90","-0.3","-0.2","173.69","0.86","0.58","SciCam","/SciCam.20240901_104651130.jpg","PilotCam","/PilotCam.20240901_104651130.jpg","BrowCam","/BrowCam.20240901_104651130.jpg","UserSelect","/UserSelect.20240901_104651130.jpg","","","-999.99","16.16","-999.99","-999.99","66d4461bf9835f001a808184"
"2024-09-01T10:47:20.218Z","45.9166403","-130.0250022","VEHICLE","","guest","","Jason off deck","","","","","","-0.17","-2.93","-0.2","2.4","172.51","0.83","0.58","SciCam","/SciCam.20240901_104720218.jpg","PilotCam","/PilotCam.20240901_104720218.jpg","BrowCam","/BrowCam.20240901_104720218.jpg","UserSelect","/UserSelect.20240901_104720218.jpg","","","-999.99","16.17","-999.99","-999.99","66d44638f9835f001a80818c"
"2024-09-01T10:49:19.925Z","45.9166619","-130.0250259","VEHICLE","","guest","","Jason in water","","","","","","-2.01","-0.53","-0.0","0.4","247.09","0.87","0.58","SciCam","/SciCam.20240901_104919925.jpg","PilotCam","/PilotCam.20240901_104919925.jpg","BrowCam","/BrowCam.20240901_104919925.jpg","UserSelect","/UserSelect.20240901_104919925.jpg","","","-999.99","16.19","-999.99","-999.99","66d446aff9835f001a808190"
"2024-09-01T10:52:10.249Z","45.9166712","-130.0249948","ROV Actions"," ","guest","First Football on","","","","","","","0.40","0.50","-0.8","-3.0","268.57","25.78","2.26","SciCam","/SciCam.20240901_105210249.jpg","PilotCam","/PilotCam.20240901_105210249.jpg","BrowCam","/BrowCam.20240901_105210249.jpg","UserSelect","/UserSelect.20240901_105210249.jpg","","","-999.99","18.13","-999.99","-999.99","66d4475af9835f001a808194"
"2024-09-01T10:57:38.642Z","45.9166704","-130.0249955","ROV Actions","26 floats","guest","Last Football on","","","","","","","0.35","0.41","-1.1","-3.4","268.37","55.03","0.58","SciCam","/SciCam.20240901_105738642.jpg","PilotCam","/PilotCam.20240901_105738642.jpg","BrowCam","/BrowCam.20240901_105738642.jpg","UserSelect","/UserSelect.20240901_105738642.jpg","","","-999.99","11.82","-999.99","-999.99","66d448a2f9835f001a808198"
"2024-09-01T11:04:20.819Z","45.9166722","-130.0249835","ROV Actions","beacon on","guest","Transponder on","","","","","","","1.28","0.61","-0.7","-2.3","268.76","143.24","0.58","SciCam","/SciCam.20240901_110420819.jpg","PilotCam","/PilotCam.20240901_110420819.jpg","BrowCam","/BrowCam.20240901_110420819.jpg","UserSelect","/UserSelect.20240901_110420819.jpg","","","-999.99","7.90","-999.99","-999.99","66d44a34f9835f001a8081a0"
"2024-09-01T11:16:03.147Z","45.9166743","-130.0249785","ASNAP","","admin","","","","","","","","1.67","0.85","-1.3","-2.2","269.07","436.01","0.58","SciCam","/SciCam.20240901_111603147.jpg","PilotCam","/PilotCam.20240901_111603147.jpg","BrowCam","/BrowCam.20240901_111603147.jpg","UserSelect","/UserSelect.20240901_111603147.jpg","","","-999.99","5.31","-999.99","-999.99","66d44cf3f9835f001a8081a4"
"2024-09-01T11:16:18.180Z","45.9166742","-130.0249785","ASNAP","","admin","","","","","","","","1.67","0.84","-1.1","-1.3","269.00","443.06","0.58","SciCam","/SciCam.20240901_111618180.jpg","PilotCam","/PilotCam.20240901_111618180.jpg","BrowCam","/BrowCam.20240901_111618180.jpg","UserSelect","/UserSelect.20240901_111618180.jpg","","","-999.99","5.21","-999.99","-999.99","66d44d02f9835f001a8081a8"
"2024-09-01T11:16:33.195Z","45.9166744","-130.0249785","ASNAP","","admin","","","","","","","","1.67","0.86","-0.5","-1.2","269.39","450.71","0.58","SciCam","/SciCam.20240901_111633195.jpg","PilotCam","/PilotCam.20240901_111633195.jpg","BrowCam","/BrowCam.20240901_111633195.jpg","UserSelect","/UserSelect.20240901_111633195.jpg","","","-999.99","5.11","-999.99","-999.99","66d44d11f9835f001a8081ac"
"2024-09-01T11:16:48.228Z","45.9166747","-130.0249783","ASNAP","","admin","","","","","","","","1.68","0.89","-0.7","-1.8","270.06","459.33","0.58","SciCam","/SciCam.20240901_111648228.jpg","PilotCam","/PilotCam.20240901_111648228.jpg","BrowCam","/BrowCam.20240901_111648228.jpg","UserSelect","/UserSelect.20240901_111648228.jpg","","","-999.99","5.20","-999.99","-999.99","66d44d20f9835f001a8081b0"
"2024-09-01T11:17:03.259Z","45.9166742","-130.0249785","ASNAP","","admin","","","","","","","","1.67","0.84","-0.4","-2.3","268.99","467.12","0.58","SciCam","/SciCam.20240901_111703259.jpg","PilotCam","/PilotCam.20240901_111703259.jpg","BrowCam","/BrowCam.20240901_111703259.jpg","UserSelect","/UserSelect.20240901_111703259.jpg","","","-999.99","5.11","-999.99","-999.99","66d44d2ff9835f001a8081b4"
"2024-09-01T11:17:18.290Z","45.9166748","-130.0249781","ASNAP","","admin","","","","","","","","1.70","0.90","-1.0","-3.8","270.24","473.19","0.58","SciCam","/SciCam.20240901_111718290.jpg","PilotCam","/PilotCam.20240901_111718290.jpg","BrowCam","/BrowCam.20240901_111718290.jpg","UserSelect","/UserSelect.20240901_111718290.jpg","","","-999.99","5.03","-999.99","-999.99","66d44d3ef9835f001a8081b8"
"2024-09-01T11:17:33.323Z","45.9166747","-130.0249782","ASNAP","","admin","","","","","","","","1.69","0.89","-1.0","-2.8","270.00","481.69","0.58","SciCam","/SciCam.20240901_111733323.jpg","PilotCam","/PilotCam.20240901_111733323.jpg","BrowCam","/BrowCam.20240901_111733323.jpg","UserSelect","/UserSelect.20240901_111733323.jpg","","","-999.99","5.05","-999.99","-999.99","66d44d4df9835f001a8081bc"
"2024-09-01T11:17:48.351Z","45.9166743","-130.0249783","ASNAP","","admin","","","","","","","","1.68","0.85","-0.6","-2.8","269.23","487.51","0.58","SciCam","/SciCam.20240901_111748351.jpg","PilotCam","/PilotCam.20240901_111748351.jpg","BrowCam","/BrowCam.20240901_111748351.jpg","UserSelect","/UserSelect.20240901_111748351.jpg","","","-999.99","5.18","-999.99","-999.99","66d44d5cf9835f001a8081c0"
"2024-09-01T11:18:03.378Z","45.9166851","-130.0249330","ASNAP","","admin","","","","","","","","5.20","2.05","-2.3","-4.6","41.17","496.30","0.58","SciCam","/SciCam.20240901_111803378.jpg","PilotCam","/PilotCam.20240901_111803378.jpg","BrowCam","/BrowCam.20240901_111803378.jpg","UserSelect","/UserSelect.20240901_111803378.jpg","","","-999.99","5.01","-999.99","-999.99","66d44d6bf9835f001a8081c4"
"2024-09-01T11:18:18.407Z","45.9166456","-130.0249644","ASNAP","","admin","","","","","","","","2.76","-2.34","-1.3","-3.1","194.26","502.78","0.58","SciCam","/SciCam.20240901_111818407.jpg","PilotCam","/PilotCam.20240901_111818407.jpg","BrowCam","/BrowCam.20240901_111818407.jpg","UserSelect","/UserSelect.20240901_111818407.jpg","","","-999.99","4.95","-999.99","-999.99","66d44d7af9835f001a8081c8"
"2024-09-01T11:18:33.442Z","45.9166949","-130.0249548","ASNAP","","admin","","","","","","","","3.51","3.14","-1.3","-2.7","343.31","510.40","0.58","SciCam","/SciCam.20240901_111833442.jpg","PilotCam","/PilotCam.20240901_111833442.jpg","BrowCam","/BrowCam.20240901_111833442.jpg","UserSelect","/UserSelect.20240901_111833442.jpg","","","-999.99","4.96","-999.99","-999.99","66d44d89f9835f001a8081cc"
"2024-09-01T11:18:48.475Z","45.9166478","-130.0249380","ASNAP","","admin","","","","","","","","4.81","-2.10","0.1","-2.9","133.85","518.66","0.58","SciCam","/SciCam.20240901_111848475.jpg","PilotCam","/PilotCam.20240901_111848475.jpg","BrowCam","/BrowCam.20240901_111848475.jpg","UserSelect","/UserSelect.20240901_111848475.jpg","","","-999.99","5.04","-999.99","-999.99","66d44d98f9835f001a8081d0"
"2024-09-01T11:19:03.510Z","45.9166807","-130.0249760","ASNAP","","admin","","","","","","","","1.86","1.56","-0.4","-3.7","284.22","525.79","0.58","SciCam","/SciCam.20240901_111903510.jpg","PilotCam","/PilotCam.20240901_111903510.jpg","BrowCam","/BrowCam.20240901_111903510.jpg","UserSelect","/UserSelect.20240901_111903510.jpg","","","-999.99","4.90","-999.99","-999.99","66d44da7f9835f001a8081d4"
"2024-09-01T11:19:18.544Z","45.9166720","-130.0249272","ASNAP","","admin","","","","","","","","5.65","0.59","-2.6","-2.4","73.34","533.39","0.58","SciCam","/SciCam.20240901_111918544.jpg","PilotCam","/PilotCam.20240901_111918544.jpg","BrowCam","/BrowCam.20240901_111918544.jpg","UserSelect","/UserSelect.20240901_111918544.jpg","","","-999.99","4.85","-999.99","-999.99","66d44db6f9835f001a8081d8"
"2024-09-01T11:19:33.573Z","45.9166536","-130.0249740","ASNAP","","admin","","","","","","","","2.02","-1.45","-0.9","-3.0","222.09","540.40","0.58","SciCam","/SciCam.20240901_111933573.jpg","PilotCam","/PilotCam.20240901_111933573.jpg","BrowCam","/BrowCam.20240901_111933573.jpg","UserSelect","/UserSelect.20240901_111933573.jpg","","","-999.99","4.80","-999.99","-999.99","66d44dc5f9835f001a8081dc"
"2024-09-01T11:19:48.594Z","45.9166758","-130.0249781","ASNAP","","admin","","","","","","","","1.70","1.01","-0.7","-1.6","272.47","547.16","0.58","SciCam","/SciCam.20240901_111948594.jpg","PilotCam","/PilotCam.20240901_111948594.jpg","BrowCam","/BrowCam.20240901_111948594.jpg","UserSelect","/UserSelect.20240901_111948594.jpg","","","-999.99","4.78","-999.99","-999.99","66d44dd4f9835f001a8081e0"
"2024-09-01T11:20:03.624Z","45.9166760","-130.0249781","ASNAP","","admin","","","","","","","","1.70","1.04","0.1","-1.2","273.29","555.31","0.58","SciCam","/SciCam.20240901_112003624.jpg","PilotCam","/PilotCam.20240901_112003624.jpg","BrowCam","/BrowCam.20240901_112003624.jpg","UserSelect","/UserSelect.20240901_112003624.jpg","","","-999.99","4.89","-999.99","-999.99","66d44de3f9835f001a8081e4"
"2024-09-01T11:20:18.655Z","45.9166760","-130.0249778","ASNAP","","admin","","","","","","","","1.72","1.04","-0.5","-3.5","273.07","562.99","0.58","SciCam","/SciCam.20240901_112018655.jpg","PilotCam","/PilotCam.20240901_112018655.jpg","BrowCam","/BrowCam.20240901_112018655.jpg","UserSelect","/UserSelect.20240901_112018655.jpg","","","-999.99","4.75","-999.99","-999.99","66d44df2f9835f001a8081e8"
"2024-09-01T11:20:33.687Z","45.9166847","-130.0249737","ASNAP","","admin","","","","","","","","2.04","2.00","-1.5","-2.5","295.82","569.73","0.58","SciCam","/SciCam.20240901_112033687.jpg","PilotCam","/PilotCam.20240901_112033687.jpg","BrowCam","/BrowCam.20240901_112033687.jpg","UserSelect","/UserSelect.20240901_112033687.jpg","","","-999.99","4.72","-999.99","-999.99","66d44e01f9835f001a8081ec"
"2024-09-01T11:20:48.719Z","45.9166946","-130.0249562","ASNAP","","admin","","","","","","","","3.40","3.10","-0.6","-4.3","340.14","577.07","0.58","SciCam","/SciCam.20240901_112048719.jpg","PilotCam","/PilotCam.20240901_112048719.jpg","BrowCam","/BrowCam.20240901_112048719.jpg","UserSelect","/UserSelect.20240901_112048719.jpg","","","-999.99","4.83","-999.99","-999.99","66d44e10f9835f001a8081f0"
"2024-09-01T11:21:03.743Z","45.9166946","-130.0249564","ASNAP","","admin","","","","","","","","3.38","3.11","-0.9","-3.5","339.41","583.66","0.58","SciCam","/SciCam.20240901_112103743.jpg","PilotCam","/PilotCam.20240901_112103743.jpg","BrowCam","/BrowCam.20240901_112103743.jpg","UserSelect","/UserSelect.20240901_112103743.jpg","","","-999.99","4.86","-999.99","-999.99","66d44e1ff9835f001a8081f4"
"2024-09-01T11:21:18.775Z","45.9166946","-130.0249564","ASNAP","","admin","","","","","","","","3.38","3.11","-0.9","-2.8","339.48","591.45","0.58","SciCam","/SciCam.20240901_112118775.jpg","PilotCam","/PilotCam.20240901_112118775.jpg","BrowCam","/BrowCam.20240901_112118775.jpg","UserSelect","/UserSelect.20240901_112118775.jpg","","","-999.99","4.61","-999.99","-999.99","66d44e2ef9835f001a8081f8"
"2024-09-01T11:21:33.810Z","45.9166946","-130.0249563","ASNAP","","admin","","","","","","","","3.39","3.11","-1.1","-3.6","339.69","599.65","0.58","SciCam","/SciCam.20240901_112133810.jpg","PilotCam","/PilotCam.20240901_112133810.jpg","BrowCam","/BrowCam.20240901_112133810.jpg","UserSelect","/UserSelect.20240901_112133810.jpg","","","-999.99","4.67","-999.99","-999.99","66d44e3df9835f001a8081fc"
"2024-09-01T11:21:48.841Z","45.9166945","-130.0249566","ASNAP","","admin","","","","","","","","3.37","3.09","-0.9","-4.5","339.30","606.20","0.58","SciCam","/SciCam.20240901_112148841.jpg","PilotCam","/PilotCam.20240901_112148841.jpg","BrowCam","/BrowCam.20240901_112148841.jpg","UserSelect","/UserSelect.20240901_112148841.jpg","","","-999.99","4.70","-999.99","-999.99","66d44e4cf9835f001a808200"
"2024-09-01T11:22:03.872Z","45.9166944","-130.0249566","ASNAP","","admin","","","","","","","","3.37","3.08","-0.8","-5.4","339.08","613.87","0.58","SciCam","/SciCam.20240901_112203872.jpg","PilotCam","/PilotCam.20240901_112203872.jpg","BrowCam","/BrowCam.20240901_112203872.jpg","UserSelect","/UserSelect.20240901_112203872.jpg","","","-999.99","4.62","-999.99","-999.99","66d44e5bf9835f001a808204"
"2024-09-01T11:22:18.905Z","45.9166946","-130.0249566","ASNAP","","admin","","","","","","","","3.37","3.10","-1.0","-3.9","339.26","620.80","0.58","SciCam","/SciCam.20240901_112218905.jpg","PilotCam","/PilotCam.20240901_112218905.jpg","BrowCam","/BrowCam.20240901_112218905.jpg","UserSelect","/UserSelect.20240901_112218905.jpg","","","-999.99","4.65","-999.99","-999.99","66d44e6af9835f001a808208"
"2024-09-01T11:22:33.937Z","45.9166946","-130.0249566","ASNAP","","admin","","","","","","","","3.37","3.11","-0.7","-2.9","339.31","629.60","0.58","SciCam","/SciCam.20240901_112233937.jpg","PilotCam","/PilotCam.20240901_112233937.jpg","BrowCam","/BrowCam.20240901_112233937.jpg","UserSelect","/UserSelect.20240901_112233937.jpg","","","-999.99","4.42","-999.99","-999.99","66d44e79f9835f001a80820c"
"2024-09-01T11:22:48.971Z","45.9166946","-130.0249564","ASNAP","","admin","","","","","","","","3.38","3.11","-0.7","-3.3","339.53","635.94","0.58","SciCam","/SciCam.20240901_112248971.jpg","PilotCam","/PilotCam.20240901_112248971.jpg","BrowCam","/BrowCam.20240901_112248971.jpg","UserSelect","/UserSelect.20240901_112248971.jpg","","","-999.99","4.72","-999.99","-999.99","66d44e88f9835f001a808210"
"2024-09-01T11:23:04.006Z","45.9166945","-130.0249564","ASNAP","","admin","","","","","","","","3.38","3.09","-1.4","-5.3","339.45","643.40","0.58","SciCam","/SciCam.20240901_112304006.jpg","PilotCam","/PilotCam.20240901_112304006.jpg","BrowCam","/BrowCam.20240901_112304006.jpg","UserSelect","/UserSelect.20240901_112304006.jpg","","","-999.99","4.66","-999.99","-999.99","66d44e98f9835f001a808214"
"2024-09-01T11:23:19.041Z","45.9166949","-130.0249566","ASNAP","","admin","","","","","","","","3.37","3.14","-1.8","-1.1","339.33","651.66","0.58","SciCam","/SciCam.20240901_112319041.jpg","PilotCam","/PilotCam.20240901_112319041.jpg","BrowCam","/BrowCam.20240901_112319041.jpg","UserSelect","/UserSelect.20240901_112319041.jpg","","","-999.99","4.61","-999.99","-999.99","66d44ea7f9835f001a808218"
"2024-09-01T11:23:34.075Z","45.9166946","-130.0249566","ASNAP","","admin","","","","","","","","3.37","3.11","-0.9","-2.9","339.27","658.95","0.58","SciCam","/SciCam.20240901_112334075.jpg","PilotCam","/PilotCam.20240901_112334075.jpg","BrowCam","/BrowCam.20240901_112334075.jpg","UserSelect","/UserSelect.20240901_112334075.jpg","","","-999.99","4.47","-999.99","-999.99","66d44eb6f9835f001a80821c"
"2024-09-01T11:23:49.107Z","45.9166948","-130.0249567","ASNAP","","admin","","","","","","","","3.36","3.13","-1.2","-1.0","339.12","666.89","0.58","SciCam","/SciCam.20240901_112349107.jpg","PilotCam","/PilotCam.20240901_112349107.jpg","BrowCam","/BrowCam.20240901_112349107.jpg","UserSelect","/UserSelect.20240901_112349107.jpg","","","-999.99","4.35","-999.99","-999.99","66d44ec5f9835f001a808220"
"2024-09-01T11:24:04.139Z","45.9166946","-130.0249568","ASNAP","","admin","","","","","","","","3.35","3.11","-0.9","-2.9","338.77","674.43","0.58","SciCam","/SciCam.20240901_112404139.jpg","PilotCam","/PilotCam.20240901_112404139.jpg","BrowCam","/BrowCam.20240901_112404139.jpg","UserSelect","/UserSelect.20240901_112404139.jpg","","","-999.99","4.61","-999.99","-999.99","66d44ed4f9835f001a808224"
"2024-09-01T11:24:19.168Z","45.9166947","-130.0249564","ASNAP","","admin","","","","","","","","3.38","3.12","-1.4","-2.2","339.54","681.53","0.58","SciCam","/SciCam.20240901_112419168.jpg","PilotCam","/PilotCam.20240901_112419168.jpg","BrowCam","/BrowCam.20240901_112419168.jpg","UserSelect","/UserSelect.20240901_112419168.jpg","","","-999.99","4.36","-999.99","-999.99","66d44ee3f9835f001a808228"
"2024-09-01T11:24:34.199Z","45.9166947","-130.0249567","ASNAP","","admin","","","","","","","","3.36","3.12","-0.8","-1.6","339.18","689.34","0.58","SciCam","/SciCam.20240901_112434199.jpg","PilotCam","/PilotCam.20240901_112434199.jpg","BrowCam","/BrowCam.20240901_112434199.jpg","UserSelect","/UserSelect.20240901_112434199.jpg","","","-999.99","4.36","-999.99","-999.99","66d44ef2f9835f001a80822c"
"2024-09-01T11:24:49.233Z","45.9166947","-130.0249566","ASNAP","","admin","","","","","","","","3.37","3.12","-1.1","-2.7","339.39","696.14","0.58","SciCam","/SciCam.20240901_112449233.jpg","PilotCam","/PilotCam.20240901_112449233.jpg","BrowCam","/BrowCam.20240901_112449233.jpg","UserSelect","/UserSelect.20240901_112449233.jpg","","","-999.99","4.41","-999.99","-999.99","66d44f01f9835f001a808230"
"2024-09-01T11:25:04.266Z","45.9166947","-130.0249566","ASNAP","","admin","","","","","","","","3.37","3.12","-0.4","-1.8","339.60","704.43","0.58","SciCam","/SciCam.20240901_112504266.jpg","PilotCam","/PilotCam.20240901_112504266.jpg","BrowCam","/BrowCam.20240901_112504266.jpg","UserSelect","/UserSelect.20240901_112504266.jpg","","","-999.99","4.32","-999.99","-999.99","66d44f10f9835f001a808234"
"2024-09-01T11:25:19.288Z","45.9166947","-130.0249559","ASNAP","","admin","","","","","","","","3.42","3.12","-1.0","-3.6","340.58","711.64","0.58","SciCam","/SciCam.20240901_112519288.jpg","PilotCam","/PilotCam.20240901_112519288.jpg","BrowCam","/BrowCam.20240901_112519288.jpg","UserSelect","/UserSelect.20240901_112519288.jpg","","","-999.99","4.28","-999.99","-999.99","66d44f1ff9835f001a808238"
"2024-09-01T11:25:34.321Z","45.9166947","-130.0249564","ASNAP","","admin","","","","","","","","3.38","3.12","-0.9","-2.3","339.60","720.27","0.58","SciCam","/SciCam.20240901_112534321.jpg","PilotCam","/PilotCam.20240901_112534321.jpg","BrowCam","/BrowCam.20240901_112534321.jpg","UserSelect","/UserSelect.20240901_112534321.jpg","","","-999.99","4.17","-999.99","-999.99","66d44f2ef9835f001a80823c"
"2024-09-01T11:25:49.345Z","45.9166947","-130.0249566","ASNAP","","admin","","","","","","","","3.37","3.12","-1.1","-2.0","339.24","727.63","0.58","SciCam","/SciCam.20240901_112549345.jpg","PilotCam","/PilotCam.20240901_112549345.jpg","BrowCam","/BrowCam.20240901_112549345.jpg","UserSelect","/UserSelect.20240901_112549345.jpg","","","-999.99","4.30","-999.99","-999.99","66d44f3df9835f001a808240"
"2024-09-01T11:26:04.379Z","45.9166946","-130.0249566","ASNAP","","admin","","","","","","","","3.37","3.11","-0.9","-2.6","339.38","734.78","0.58","SciCam","/SciCam.20240901_112604379.jpg","PilotCam","/PilotCam.20240901_112604379.jpg","BrowCam","/BrowCam.20240901_112604379.jpg","UserSelect","/UserSelect.20240901_112604379.jpg","","","-999.99","4.35","-999.99","-999.99","66d44f4cf9835f001a808244"
"2024-09-01T11:26:19.408Z","45.9166949","-130.0249568","ASNAP","","admin","","","","","","","","3.35","3.14","-1.2","0.1","338.80","742.44","0.58","SciCam","/SciCam.20240901_112619408.jpg","PilotCam","/PilotCam.20240901_112619408.jpg","BrowCam","/BrowCam.20240901_112619408.jpg","UserSelect","/UserSelect.20240901_112619408.jpg","","","-999.99","4.29","-999.99","-999.99","66d44f5bf9835f001a808248"
"2024-09-01T11:26:34.438Z","45.9166946","-130.0249566","ASNAP","","admin","","","","","","","","3.37","3.10","-0.6","-3.6","339.43","749.11","0.58","SciCam","/SciCam.20240901_112634438.jpg","PilotCam","/PilotCam.20240901_112634438.jpg","BrowCam","/BrowCam.20240901_112634438.jpg","UserSelect","/UserSelect.20240901_112634438.jpg","","","-999.99","4.26","-999.99","-999.99","66d44f6af9835f001a80824c"
"2024-09-01T11:26:49.472Z","45.9166950","-130.0249564","ASNAP","","admin","","","","","","","","3.38","3.15","-0.9","-0.7","339.89","756.44","0.58","SciCam","/SciCam.20240901_112649472.jpg","PilotCam","/PilotCam.20240901_112649472.jpg","BrowCam","/BrowCam.20240901_112649472.jpg","UserSelect","/UserSelect.20240901_112649472.jpg","","","-999.99","4.16","-999.99","-999.99","66d44f79f9835f001a808250"
"2024-09-01T11:27:04.503Z","45.9166947","-130.0249563","ASNAP","","admin","","","","","","","","3.39","3.12","-1.3","-2.6","339.99","764.11","0.58","SciCam","/SciCam.20240901_112704503.jpg","PilotCam","/PilotCam.20240901_112704503.jpg","BrowCam","/BrowCam.20240901_112704503.jpg","UserSelect","/UserSelect.20240901_112704503.jpg","","","-999.99","4.27","-999.99","-999.99","66d44f88f9835f001a808254"
"2024-09-01T11:27:19.533Z","45.9166946","-130.0249567","ASNAP","","admin","","","","","","","","3.36","3.11","-0.9","-2.6","339.09","772.23","0.58","SciCam","/SciCam.20240901_112719533.jpg","PilotCam","/PilotCam.20240901_112719533.jpg","BrowCam","/BrowCam.20240901_112719533.jpg","UserSelect","/UserSelect.20240901_112719533.jpg","","","-999.99","4.24","-999.99","-999.99","66d44f97f9835f001a808258"
"2024-09-01T11:27:34.564Z","45.9166947","-130.0249567","ASNAP","","admin","","","","","","","","3.36","3.12","-1.0","-2.0","339.12","779.55","0.58","SciCam","/SciCam.20240901_112734564.jpg","PilotCam","/PilotCam.20240901_112734564.jpg","BrowCam","/BrowCam.20240901_112734564.jpg","UserSelect","/UserSelect.20240901_112734564.jpg","","","-999.99","4.19","-999.99","-999.99","66d44fa6f9835f001a80825c"
"2024-09-01T11:27:49.597Z","45.9166946","-130.0249567","ASNAP","","admin","","","","","","","","3.36","3.11","-1.1","-3.0","339.06","786.28","0.58","SciCam","/SciCam.20240901_112749597.jpg","PilotCam","/PilotCam.20240901_112749597.jpg","BrowCam","/BrowCam.20240901_112749597.jpg","UserSelect","/UserSelect.20240901_112749597.jpg","","","-999.99","4.19","-999.99","-999.99","66d44fb5f9835f001a808260"
"2024-09-01T11:28:04.631Z","45.9166947","-130.0249567","ASNAP","","admin","","","","","","","","3.36","3.12","-0.9","-2.5","339.12","794.12","0.58","SciCam","/SciCam.20240901_112804631.jpg","PilotCam","/PilotCam.20240901_112804631.jpg","BrowCam","/BrowCam.20240901_112804631.jpg","UserSelect","/UserSelect.20240901_112804631.jpg","","","-999.99","4.11","-999.99","-999.99","66d44fc4f9835f001a808264"
"2024-09-01T11:28:19.662Z","45.9166945","-130.0249567","ASNAP","","admin","","","","","","","","3.36","3.09","-1.0","-4.2","339.03","801.02","0.58","SciCam","/SciCam.20240901_112819662.jpg","PilotCam","/PilotCam.20240901_112819662.jpg","BrowCam","/BrowCam.20240901_112819662.jpg","UserSelect","/UserSelect.20240901_112819662.jpg","","","-999.99","4.11","-999.99","-999.99","66d44fd3f9835f001a808268"
"2024-09-01T11:28:34.693Z","45.9166947","-130.0249560","ASNAP","","admin","","","","","","","","3.41","3.12","-1.1","-3.2","340.38","808.03","0.58","SciCam","/SciCam.20240901_112834693.jpg","PilotCam","/PilotCam.20240901_112834693.jpg","BrowCam","/BrowCam.20240901_112834693.jpg","UserSelect","/UserSelect.20240901_112834693.jpg","","","-999.99","4.13","-999.99","-999.99","66d44fe2f9835f001a80826c"
"2024-09-01T11:28:49.725Z","45.9166946","-130.0249568","ASNAP","","admin","","","","","","","","3.35","3.11","-0.8","-2.7","338.83","816.48","0.58","SciCam","/SciCam.20240901_112849725.jpg","PilotCam","/PilotCam.20240901_112849725.jpg","BrowCam","/BrowCam.20240901_112849725.jpg","UserSelect","/UserSelect.20240901_112849725.jpg","","","-999.99","4.04","-999.99","-999.99","66d44ff1f9835f001a808270"
"2024-09-01T11:29:04.758Z","45.9166948","-130.0249560","ASNAP","","admin","","","","","","","","3.41","3.13","-1.1","-2.4","340.61","824.11","0.58","SciCam","/SciCam.20240901_112904758.jpg","PilotCam","/PilotCam.20240901_112904758.jpg","BrowCam","/BrowCam.20240901_112904758.jpg","UserSelect","/UserSelect.20240901_112904758.jpg","","","-999.99","4.13","-999.99","-999.99","66d45000f9835f001a808274"
"2024-09-01T11:29:19.791Z","45.9166946","-130.0249562","ASNAP","","admin","","","","","","","","3.40","3.11","-0.9","-3.6","340.07","831.78","0.58","SciCam","/SciCam.20240901_112919791.jpg","PilotCam","/PilotCam.20240901_112919791.jpg","BrowCam","/BrowCam.20240901_112919791.jpg","UserSelect","/UserSelect.20240901_112919791.jpg","","","-999.99","4.10","-999.99","-999.99","66d4500ff9835f001a808278"
"2024-09-01T11:29:34.822Z","45.9166946","-130.0249567","ASNAP","","admin","","","","","","","","3.36","3.11","-0.6","-2.9","339.23","838.84","0.58","SciCam","/SciCam.20240901_112934822.jpg","PilotCam","/PilotCam.20240901_112934822.jpg","BrowCam","/BrowCam.20240901_112934822.jpg","UserSelect","/UserSelect.20240901_112934822.jpg","","","-999.99","3.99","-999.99","-999.99","66d4501ef9835f001a80827c"
"2024-09-01T11:29:49.853Z","45.9166947","-130.0249564","ASNAP","","admin","","","","","","","","3.38","3.12","-0.9","-2.6","339.62","846.75","0.58","SciCam","/SciCam.20240901_112949853.jpg","PilotCam","/PilotCam.20240901_112949853.jpg","BrowCam","/BrowCam.20240901_112949853.jpg","UserSelect","/UserSelect.20240901_112949853.jpg","","","-999.99","3.90","-999.99","-999.99","66d4502df9835f001a808280"
"2024-09-01T11:30:04.885Z","45.9166947","-130.0249562","ASNAP","","admin","","","","","","","","3.40","3.12","-1.0","-2.7","340.10","854.79","0.58","SciCam","/SciCam.20240901_113004885.jpg","PilotCam","/PilotCam.20240901_113004885.jpg","BrowCam","/BrowCam.20240901_113004885.jpg","UserSelect","/UserSelect.20240901_113004885.jpg","","","-999.99","3.79","-999.99","-999.99","66d4503cf9835f001a808284"
"2024-09-01T11:30:19.908Z","45.9166947","-130.0249563","ASNAP","","admin","","","","","","","","3.39","3.12","-1.0","-2.5","339.98","862.15","0.58","SciCam","/SciCam.20240901_113019908.jpg","PilotCam","/PilotCam.20240901_113019908.jpg","BrowCam","/BrowCam.20240901_113019908.jpg","UserSelect","/UserSelect.20240901_113019908.jpg","","","-999.99","3.94","-999.99","-999.99","66d4504bf9835f001a808288"
"2024-09-01T11:30:34.936Z","45.9166946","-130.0249562","ASNAP","","admin","","","","","","","","3.40","3.11","-1.0","-3.5","340.26","868.79","0.58","SciCam","/SciCam.20240901_113034936.jpg","PilotCam","/PilotCam.20240901_113034936.jpg","BrowCam","/BrowCam.20240901_113034936.jpg","UserSelect","/UserSelect.20240901_113034936.jpg","","","-999.99","3.87","-999.99","-999.99","66d4505af9835f001a80828c"
"2024-09-01T11:30:49.966Z","45.9166948","-130.0249563","ASNAP","","admin","","","","","","","","3.39","3.13","-1.0","-2.1","340.05","877.33","0.58","SciCam","/SciCam.20240901_113049966.jpg","PilotCam","/PilotCam.20240901_113049966.jpg","BrowCam","/BrowCam.20240901_113049966.jpg","UserSelect","/UserSelect.20240901_113049966.jpg","","","-999.99","3.91","-999.99","-999.99","66d45069f9835f001a808290"
"2024-09-01T11:31:04.992Z","45.9166946","-130.0249563","ASNAP","","admin","","","","","","","","3.39","3.11","-0.9","-3.5","339.79","884.22","0.58","SciCam","/SciCam.20240901_113104992.jpg","PilotCam","/PilotCam.20240901_113104992.jpg","BrowCam","/BrowCam.20240901_113104992.jpg","UserSelect","/UserSelect.20240901_113104992.jpg","","","-999.99","3.83","-999.99","-999.99","66d45078f9835f001a808294"
"2024-09-01T11:31:20.021Z","45.9166947","-130.0249563","ASNAP","","admin","","","","","","","","3.39","3.12","-0.8","-2.4","340.03","892.20","0.58","SciCam","/SciCam.20240901_113120021.jpg","PilotCam","/PilotCam.20240901_113120021.jpg","BrowCam","/BrowCam.20240901_113120021.jpg","UserSelect","/UserSelect.20240901_113120021.jpg","","","-999.99","3.82","-999.99","-999.99","66d45088f9835f001a808298"
"2024-09-01T11:31:35.055Z","45.9166947","-130.0249566","ASNAP","","admin","","","","","","","","3.37","3.12","-0.8","-2.7","339.45","899.15","0.58","SciCam","/SciCam.20240901_113135055.jpg","PilotCam","/PilotCam.20240901_113135055.jpg","BrowCam","/BrowCam.20240901_113135055.jpg","UserSelect","/UserSelect.20240901_113135055.jpg","","","-999.99","3.86","-999.99","-999.99","66d45097f9835f001a80829c"
"2024-09-01T11:31:50.078Z","45.9166948","-130.0249563","ASNAP","","admin","","","","","","","","3.39","3.13","-0.8","-1.8","339.94","906.77","0.58","SciCam","/SciCam.20240901_113150078.jpg","PilotCam","/PilotCam.20240901_113150078.jpg","BrowCam","/BrowCam.20240901_113150078.jpg","UserSelect","/UserSelect.20240901_113150078.jpg","","","-999.99","3.79","-999.99","-999.99","66d450a6f9835f001a8082a0"
"2024-09-01T11:32:05.107Z","45.9166948","-130.0249564","ASNAP","","admin","","","","","","","","3.38","3.13","-0.7","-1.9","339.69","914.19","0.58","SciCam","/SciCam.20240901_113205107.jpg","PilotCam","/PilotCam.20240901_113205107.jpg","BrowCam","/BrowCam.20240901_113205107.jpg","UserSelect","/UserSelect.20240901_113205107.jpg","","","-999.99","3.84","-999.99","-999.99","66d450b5f9835f001a8082a4"
"2024-09-01T11:32:20.136Z","45.9166948","-130.0249564","ASNAP","","admin","","","","","","","","3.38","3.13","-0.6","-2.0","339.81","921.43","0.58","SciCam","/SciCam.20240901_113220136.jpg","PilotCam","/PilotCam.20240901_113220136.jpg","BrowCam","/BrowCam.20240901_113220136.jpg","UserSelect","/UserSelect.20240901_113220136.jpg","","","-999.99","3.78","-999.99","-999.99","66d450c4f9835f001a8082a8"
"2024-09-01T11:32:35.168Z","45.9166949","-130.0249563","ASNAP","","admin","","","","","","","","3.39","3.14","-0.6","-1.3","340.18","929.17","0.58","SciCam","/SciCam.20240901_113235168.jpg","PilotCam","/PilotCam.20240901_113235168.jpg","BrowCam","/BrowCam.20240901_113235168.jpg","UserSelect","/UserSelect.20240901_113235168.jpg","","","-999.99","3.79","-999.99","-999.99","66d450d3f9835f001a8082ac"
"2024-09-01T11:32:50.199Z","45.9166946","-130.0249560","ASNAP","","admin","","","","","","","","3.41","3.11","-0.8","-3.4","340.44","936.34","0.58","SciCam","/SciCam.20240901_113250199.jpg","PilotCam","/PilotCam.20240901_113250199.jpg","BrowCam","/BrowCam.20240901_113250199.jpg","UserSelect","/UserSelect.20240901_113250199.jpg","","","-999.99","3.68","-999.99","-999.99","66d450e2f9835f001a8082b0"
"2024-09-01T11:33:05.231Z","45.9166948","-130.0249563","ASNAP","","admin","","","","","","","","3.39","3.13","-0.8","-1.5","339.99","943.67","0.58","SciCam","/SciCam.20240901_113305231.jpg","PilotCam","/PilotCam.20240901_113305231.jpg","BrowCam","/BrowCam.20240901_113305231.jpg","UserSelect","/UserSelect.20240901_113305231.jpg","","","-999.99","3.67","-999.99","-999.99","66d450f1f9835f001a8082b4"
"2024-09-01T11:33:20.262Z","45.9166948","-130.0249560","ASNAP","","admin","","","","","","","","3.41","3.13","-0.6","-1.7","340.60","950.30","0.58","SciCam","/SciCam.20240901_113320262.jpg","PilotCam","/PilotCam.20240901_113320262.jpg","BrowCam","/BrowCam.20240901_113320262.jpg","UserSelect","/UserSelect.20240901_113320262.jpg","","","-999.99","3.70","-999.99","-999.99","66d45100f9835f001a8082b8"
"2024-09-01T11:33:35.289Z","45.9166946","-130.0249562","ASNAP","","admin","","","","","","","","3.40","3.10","-1.1","-4.0","339.93","958.99","0.58","SciCam","/SciCam.20240901_113335289.jpg","PilotCam","/PilotCam.20240901_113335289.jpg","BrowCam","/BrowCam.20240901_113335289.jpg","UserSelect","/UserSelect.20240901_113335289.jpg","","","-999.99","3.57","-999.99","-999.99","66d4510ff9835f001a8082bc"
"2024-09-01T11:33:50.322Z","45.9166944","-130.0249474","ASNAP","","admin","","","","","","","","4.08","3.08","-1.0","-2.2","1.63","967.16","0.58","SciCam","/SciCam.20240901_113350322.jpg","PilotCam","/PilotCam.20240901_113350322.jpg","BrowCam","/BrowCam.20240901_113350322.jpg","UserSelect","/UserSelect.20240901_113350322.jpg","","","-999.99","3.69","-999.99","-999.99","66d4511ef9835f001a8082c0"
"2024-09-01T11:34:05.340Z","45.9166738","-130.0249274","ASNAP","","admin","","","","","","","","5.63","0.79","-0.7","-1.9","66.56","973.97","0.58","SciCam","/SciCam.20240901_113405340.jpg","PilotCam","/PilotCam.20240901_113405340.jpg","BrowCam","/BrowCam.20240901_113405340.jpg","UserSelect","/UserSelect.20240901_113405340.jpg","","","-999.99","3.59","-999.99","-999.99","66d4512df9835f001a8082c4"
"2024-09-01T11:34:20.371Z","45.9166460","-130.0249407","ASNAP","","admin","","","","","","","","4.60","-2.30","-1.1","-1.9","139.44","980.53","0.58","SciCam","/SciCam.20240901_113420371.jpg","PilotCam","/PilotCam.20240901_113420371.jpg","BrowCam","/BrowCam.20240901_113420371.jpg","UserSelect","/UserSelect.20240901_113420371.jpg","","","-999.99","3.59","-999.99","-999.99","66d4513cf9835f001a8082c8"
"2024-09-01T11:34:35.403Z","45.9166542","-130.0249743","ASNAP","","admin","","","","","","","","1.99","-1.39","-0.8","-2.6","223.90","988.71","0.58","SciCam","/SciCam.20240901_113435403.jpg","PilotCam","/PilotCam.20240901_113435403.jpg","BrowCam","/BrowCam.20240901_113435403.jpg","UserSelect","/UserSelect.20240901_113435403.jpg","","","-999.99","3.47","-999.99","-999.99","66d4514bf9835f001a8082cc"
"2024-09-01T11:34:50.432Z","45.9166899","-130.0249684","ASNAP","","admin","","","","","","","","2.45","2.58","-1.1","-2.6","310.70","995.66","0.58","SciCam","/SciCam.20240901_113450432.jpg","PilotCam","/PilotCam.20240901_113450432.jpg","BrowCam","/BrowCam.20240901_113450432.jpg","UserSelect","/UserSelect.20240901_113450432.jpg","","","-999.99","3.49","-999.99","-999.99","66d4515af9835f001a8082d0"
"2024-09-01T11:35:05.463Z","45.9166838","-130.0249317","ASNAP","","admin","","","","","","","","5.30","1.90","-0.8","-2.4","42.54","1003.11","0.58","SciCam","/SciCam.20240901_113505463.jpg","PilotCam","/PilotCam.20240901_113505463.jpg","BrowCam","/BrowCam.20240901_113505463.jpg","UserSelect","/UserSelect.20240901_113505463.jpg","","","-999.99","3.43","-999.99","-999.99","66d45169f9835f001a8082d4"
"2024-09-01T11:35:20.482Z","45.9166487","-130.0249366","ASNAP","","admin","","","","","","","","4.92","-2.00","-1.5","-2.2","128.61","1010.14","0.58","SciCam","/SciCam.20240901_113520482.jpg","PilotCam","/PilotCam.20240901_113520482.jpg","BrowCam","/BrowCam.20240901_113520482.jpg","UserSelect","/UserSelect.20240901_113520482.jpg","","","-999.99","3.51","-999.99","-999.99","66d45178f9835f001a8082d8"
"2024-09-01T11:35:35.505Z","45.9166511","-130.0249719","ASNAP","","admin","","","","","","","","2.18","-1.73","-0.6","-3.0","213.96","1018.41","0.58","SciCam","/SciCam.20240901_113535505.jpg","PilotCam","/PilotCam.20240901_113535505.jpg","BrowCam","/BrowCam.20240901_113535505.jpg","UserSelect","/UserSelect.20240901_113535505.jpg","","","-999.99","3.57","-999.99","-999.99","66d45187f9835f001a8082dc"
"2024-09-01T11:35:50.536Z","45.9166861","-130.0249725","ASNAP","","admin","","","","","","","","2.13","2.16","-0.3","-2.6","302.26","1026.00","0.58","SciCam","/SciCam.20240901_113550536.jpg","PilotCam","/PilotCam.20240901_113550536.jpg","BrowCam","/BrowCam.20240901_113550536.jpg","UserSelect","/UserSelect.20240901_113550536.jpg","","","-999.99","3.45","-999.99","-999.99","66d45196f9835f001a8082e0"
"2024-09-01T11:36:05.552Z","45.9166901","-130.0249376","ASNAP","","admin","","","","","","","","4.84","2.60","-0.5","-1.3","25.77","1033.90","0.58","SciCam","/SciCam.20240901_113605552.jpg","PilotCam","/PilotCam.20240901_113605552.jpg","BrowCam","/BrowCam.20240901_113605552.jpg","UserSelect","/UserSelect.20240901_113605552.jpg","","","-999.99","3.45","-999.99","-999.99","66d451a5f9835f001a8082e4"
"2024-09-01T11:36:20.578Z","45.9166554","-130.0249308","ASNAP","","admin","","","","","","","","5.37","-1.25","-1.0","-1.6","110.06","1041.24","0.58","SciCam","/SciCam.20240901_113620578.jpg","PilotCam","/PilotCam.20240901_113620578.jpg","BrowCam","/BrowCam.20240901_113620578.jpg","UserSelect","/UserSelect.20240901_113620578.jpg","","","-999.99","3.44","-999.99","-999.99","66d451b4f9835f001a8082e8"
"2024-09-01T11:36:35.614Z","45.9166453","-130.0249640","ASNAP","","admin","","","","","","","","2.79","-2.37","-0.9","-2.6","195.25","1049.18","0.58","SciCam","/SciCam.20240901_113635614.jpg","PilotCam","/PilotCam.20240901_113635614.jpg","BrowCam","/BrowCam.20240901_113635614.jpg","UserSelect","/UserSelect.20240901_113635614.jpg","","","-999.99","3.44","-999.99","-999.99","66d451c3f9835f001a8082ec"
"2024-09-01T11:36:50.648Z","45.9166763","-130.0249780","ASNAP","","admin","","","","","","","","1.71","1.07","-0.5","-1.7","273.82","1055.99","0.58","SciCam","/SciCam.20240901_113650648.jpg","PilotCam","/PilotCam.20240901_113650648.jpg","BrowCam","/BrowCam.20240901_113650648.jpg","UserSelect","/UserSelect.20240901_113650648.jpg","","","-999.99","3.44","-999.99","-999.99","66d451d2f9835f001a8082f0"
"2024-09-01T11:37:05.682Z","45.9166749","-130.0249783","ASNAP","","admin","","","","","","","","1.68","0.91","-0.7","-1.7","270.39","1064.24","0.58","SciCam","/SciCam.20240901_113705682.jpg","PilotCam","/PilotCam.20240901_113705682.jpg","BrowCam","/BrowCam.20240901_113705682.jpg","UserSelect","/UserSelect.20240901_113705682.jpg","","","-999.99","3.38","-999.99","-999.99","66d451e1f9835f001a8082f4"
"2024-09-01T11:37:20.702Z","45.9166749","-130.0249783","ASNAP","","admin","","","","","","","","1.68","0.91","-0.7","-2.2","270.47","1070.69","0.58","SciCam","/SciCam.20240901_113720702.jpg","PilotCam","/PilotCam.20240901_113720702.jpg","BrowCam","/BrowCam.20240901_113720702.jpg","UserSelect","/UserSelect.20240901_113720702.jpg","","","-999.99","3.46","-999.99","-999.99","66d451f0f9835f001a8082f8"
"2024-09-01T11:37:35.731Z","45.9166749","-130.0249782","ASNAP","","admin","","","","","","","","1.69","0.91","-0.8","-2.7","270.30","1078.80","0.58","SciCam","/SciCam.20240901_113735731.jpg","PilotCam","/PilotCam.20240901_113735731.jpg","BrowCam","/BrowCam.20240901_113735731.jpg","UserSelect","/UserSelect.20240901_113735731.jpg","","","-999.99","3.33","-999.99","-999.99","66d451fff9835f001a8082fc"
"2024-09-01T11:37:50.763Z","45.9166749","-130.0249783","ASNAP","","admin","","","","","","","","1.68","0.91","-0.8","-2.1","270.34","1086.69","0.58","SciCam","/SciCam.20240901_113750763.jpg","PilotCam","/PilotCam.20240901_113750763.jpg","BrowCam","/BrowCam.20240901_113750763.jpg","UserSelect","/UserSelect.20240901_113750763.jpg","","","-999.99","3.27","-999.99","-999.99","66d4520ef9835f001a808300"
"2024-09-01T11:38:05.797Z","45.9166748","-130.0249783","ASNAP","","admin","","","","","","","","1.68","0.90","-0.8","-2.0","270.30","1094.15","0.58","SciCam","/SciCam.20240901_113805797.jpg","PilotCam","/PilotCam.20240901_113805797.jpg","BrowCam","/BrowCam.20240901_113805797.jpg","UserSelect","/UserSelect.20240901_113805797.jpg","","","-999.99","3.29","-999.99","-999.99","66d4521df9835f001a808304"
"2024-09-01T11:38:20.829Z","45.9166747","-130.0249782","ASNAP","","admin","","","","","","","","1.69","0.89","-0.7","-2.9","270.08","1101.89","0.58","SciCam","/SciCam.20240901_113820829.jpg","PilotCam","/PilotCam.20240901_113820829.jpg","BrowCam","/BrowCam.20240901_113820829.jpg","UserSelect","/UserSelect.20240901_113820829.jpg","","","-999.99","3.30","-999.99","-999.99","66d4522cf9835f001a808308"
"2024-09-01T11:38:35.863Z","45.9166748","-130.0249783","ASNAP","","admin","","","","","","","","1.68","0.90","-1.2","-1.6","270.08","1109.43","0.58","SciCam","/SciCam.20240901_113835863.jpg","PilotCam","/PilotCam.20240901_113835863.jpg","BrowCam","/BrowCam.20240901_113835863.jpg","UserSelect","/UserSelect.20240901_113835863.jpg","","","-999.99","3.27","-999.99","-999.99","66d4523bf9835f001a80830c"
"2024-09-01T11:38:50.895Z","45.9166750","-130.0249782","ASNAP","","admin","","","","","","","","1.69","0.93","-0.9","-2.4","270.66","1116.15","0.58","SciCam","/SciCam.20240901_113850895.jpg","PilotCam","/PilotCam.20240901_113850895.jpg","BrowCam","/BrowCam.20240901_113850895.jpg","UserSelect","/UserSelect.20240901_113850895.jpg","","","-999.99","3.28","-999.99","-999.99","66d4524af9835f001a808310"
"2024-09-01T11:39:05.927Z","45.9166747","-130.0249782","ASNAP","","admin","","","","","","","","1.69","0.89","-1.1","-3.6","270.01","1124.05","0.58","SciCam","/SciCam.20240901_113905927.jpg","PilotCam","/PilotCam.20240901_113905927.jpg","BrowCam","/BrowCam.20240901_113905927.jpg","UserSelect","/UserSelect.20240901_113905927.jpg","","","-999.99","3.24","-999.99","-999.99","66d45259f9835f001a808314"
"2024-09-01T11:39:20.960Z","45.9166746","-130.0249782","ASNAP","","admin","","","","","","","","1.69","0.88","-0.5","-3.7","269.80","1131.60","0.58","SciCam","/SciCam.20240901_113920960.jpg","PilotCam","/PilotCam.20240901_113920960.jpg","BrowCam","/BrowCam.20240901_113920960.jpg","UserSelect","/UserSelect.20240901_113920960.jpg","","","-999.99","3.21","-999.99","-999.99","66d45268f9835f001a808318"
"2024-09-01T11:39:35.993Z","45.9166748","-130.0249785","ASNAP","","admin","","","","","","","","1.67","0.90","-0.5","-1.1","270.33","1139.01","0.58","SciCam","/SciCam.20240901_113935993.jpg","PilotCam","/PilotCam.20240901_113935993.jpg","BrowCam","/BrowCam.20240901_113935993.jpg","UserSelect","/UserSelect.20240901_113935993.jpg","","","-999.99","3.23","-999.99","-999.99","66d45277f9835f001a80831c"
"2024-09-01T11:39:51.024Z","45.9166747","-130.0249783","ASNAP","","admin","","","","","","","","1.68","0.89","-0.7","-1.6","270.07","1146.45","0.58","SciCam","/SciCam.20240901_113951024.jpg","PilotCam","/PilotCam.20240901_113951024.jpg","BrowCam","/BrowCam.20240901_113951024.jpg","UserSelect","/UserSelect.20240901_113951024.jpg","","","-999.99","3.23","-999.99","-999.99","66d45287f9835f001a808320"
"2024-09-01T11:40:06.053Z","45.9166748","-130.0249783","ASNAP","","admin","","","","","","","","1.68","0.90","-1.0","-1.6","270.12","1154.44","0.58","SciCam","/SciCam.20240901_114006053.jpg","PilotCam","/PilotCam.20240901_114006053.jpg","BrowCam","/BrowCam.20240901_114006053.jpg","UserSelect","/UserSelect.20240901_114006053.jpg","","","-999.99","3.31","-999.99","-999.99","66d45296f9835f001a808324"
"2024-09-01T11:40:21.083Z","45.9166746","-130.0249783","ASNAP","","admin","","","","","","","","1.68","0.88","-0.9","-2.5","269.84","1161.64","0.58","SciCam","/SciCam.20240901_114021083.jpg","PilotCam","/PilotCam.20240901_114021083.jpg","BrowCam","/BrowCam.20240901_114021083.jpg","UserSelect","/UserSelect.20240901_114021083.jpg","","","-999.99","3.15","-999.99","-999.99","66d452a5f9835f001a808328"
"2024-09-01T11:40:36.115Z","45.9166750","-130.0249781","ASNAP","","admin","","","","","","","","1.70","0.93","-1.2","-3.2","270.79","1168.91","0.58","SciCam","/SciCam.20240901_114036115.jpg","PilotCam","/PilotCam.20240901_114036115.jpg","BrowCam","/BrowCam.20240901_114036115.jpg","UserSelect","/UserSelect.20240901_114036115.jpg","","","-999.99","3.24","-999.99","-999.99","66d452b4f9835f001a80832c"
"2024-09-01T11:40:51.146Z","45.9166749","-130.0249783","ASNAP","","admin","","","","","","","","1.68","0.92","-1.0","-1.9","270.58","1176.24","0.58","SciCam","/SciCam.20240901_114051146.jpg","PilotCam","/PilotCam.20240901_114051146.jpg","BrowCam","/BrowCam.20240901_114051146.jpg","UserSelect","/UserSelect.20240901_114051146.jpg","","","-999.99","3.31","-999.99","-999.99","66d452c3f9835f001a808330"
"2024-09-01T11:41:06.176Z","45.9166748","-130.0249783","ASNAP","","admin","","","","","","","","1.68","0.90","-1.6","-2.5","270.10","1182.93","0.58","SciCam","/SciCam.20240901_114106176.jpg","PilotCam","/PilotCam.20240901_114106176.jpg","BrowCam","/BrowCam.20240901_114106176.jpg","UserSelect","/UserSelect.20240901_114106176.jpg","","","-999.99","3.14","-999.99","-999.99","66d452d2f9835f001a808334"
"2024-09-01T11:41:21.210Z","45.9166749","-130.0249783","ASNAP","","admin","","","","","","","","1.68","0.91","-1.2","-2.4","270.27","1191.78","0.58","SciCam","/SciCam.20240901_114121210.jpg","PilotCam","/PilotCam.20240901_114121210.jpg","BrowCam","/BrowCam.20240901_114121210.jpg","UserSelect","/UserSelect.20240901_114121210.jpg","","","-999.99","3.21","-999.99","-999.99","66d452e1f9835f001a808338"
"2024-09-01T11:41:36.243Z","45.9166748","-130.0249781","ASNAP","","admin","","","","","","","","1.70","0.90","-0.3","-3.7","270.27","1198.91","0.58","SciCam","/SciCam.20240901_114136243.jpg","PilotCam","/PilotCam.20240901_114136243.jpg","BrowCam","/BrowCam.20240901_114136243.jpg","UserSelect","/UserSelect.20240901_114136243.jpg","","","-999.99","3.14","-999.99","-999.99","66d452f0f9835f001a80833c"
"2024-09-01T11:41:51.264Z","45.9166747","-130.0249782","ASNAP","","admin","","","","","","","","1.69","0.89","-0.8","-3.5","269.96","1206.44","0.58","SciCam","/SciCam.20240901_114151264.jpg","PilotCam","/PilotCam.20240901_114151264.jpg","BrowCam","/BrowCam.20240901_114151264.jpg","UserSelect","/UserSelect.20240901_114151264.jpg","","","-999.99","3.09","-999.99","-999.99","66d452fff9835f001a808340"
"2024-09-01T11:42:06.296Z","45.9166747","-130.0249782","ASNAP","","admin","","","","","","","","1.69","0.89","-0.2","-3.3","270.23","1213.97","0.58","SciCam","/SciCam.20240901_114206296.jpg","PilotCam","/PilotCam.20240901_114206296.jpg","BrowCam","/BrowCam.20240901_114206296.jpg","UserSelect","/UserSelect.20240901_114206296.jpg","","","-999.99","3.13","-999.99","-999.99","66d4530ef9835f001a808344"
"2024-09-01T11:42:21.330Z","45.9166745","-130.0249785","ASNAP","","admin","","","","","","","","1.67","0.87","-0.8","-1.8","269.61","1221.50","0.58","SciCam","/SciCam.20240901_114221330.jpg","PilotCam","/PilotCam.20240901_114221330.jpg","BrowCam","/BrowCam.20240901_114221330.jpg","UserSelect","/UserSelect.20240901_114221330.jpg","","","-999.99","3.06","-999.99","-999.99","66d4531df9835f001a808348"
"2024-09-01T11:42:36.363Z","45.9166747","-130.0249785","ASNAP","","admin","","","","","","","","1.67","0.89","-0.2","-1.3","270.22","1229.13","0.58","SciCam","/SciCam.20240901_114236363.jpg","PilotCam","/PilotCam.20240901_114236363.jpg","BrowCam","/BrowCam.20240901_114236363.jpg","UserSelect","/UserSelect.20240901_114236363.jpg","","","-999.99","2.95","-999.99","-999.99","66d4532cf9835f001a80834c"
"2024-09-01T11:42:51.387Z","45.9166746","-130.0249785","ASNAP","","admin","","","","","","","","1.67","0.88","-0.7","-1.6","269.99","1235.75","0.58","SciCam","/SciCam.20240901_114251387.jpg","PilotCam","/PilotCam.20240901_114251387.jpg","BrowCam","/BrowCam.20240901_114251387.jpg","UserSelect","/UserSelect.20240901_114251387.jpg","","","-999.99","2.92","-999.99","-999.99","66d4533bf9835f001a808350"
"2024-09-01T11:43:06.419Z","45.9166747","-130.0249782","ASNAP","","admin","","","","","","","","1.69","0.89","-0.7","-2.8","269.93","1242.63","0.58","SciCam","/SciCam.20240901_114306419.jpg","PilotCam","/PilotCam.20240901_114306419.jpg","BrowCam","/BrowCam.20240901_114306419.jpg","UserSelect","/UserSelect.20240901_114306419.jpg","","","-999.99","2.95","-999.99","-999.99","66d4534af9835f001a808354"
"2024-09-01T11:43:21.451Z","45.9166749","-130.0249781","ASNAP","","admin","","","","","","","","1.70","0.92","-0.6","-3.3","270.66","1250.66","0.58","SciCam","/SciCam.20240901_114321451.jpg","PilotCam","/PilotCam.20240901_114321451.jpg","BrowCam","/BrowCam.20240901_114321451.jpg","UserSelect","/UserSelect.20240901_114321451.jpg","","","-999.99","3.04","-999.99","-999.99","66d45359f9835f001a808358"
"2024-09-01T11:43:36.484Z","45.9166748","-130.0249783","ASNAP","","admin","","","","","","","","1.68","0.90","-1.2","-2.5","270.20","1258.79","0.58","SciCam","/SciCam.20240901_114336484.jpg","PilotCam","/PilotCam.20240901_114336484.jpg","BrowCam","/BrowCam.20240901_114336484.jpg","UserSelect","/UserSelect.20240901_114336484.jpg","","","-999.99","2.88","-999.99","-999.99","66d45368f9835f001a80835c"
"2024-09-01T11:43:51.504Z","45.9166746","-130.0249782","ASNAP","","admin","","","","","","","","1.69","0.88","0.3","-3.5","270.09","1266.11","0.58","SciCam","/SciCam.20240901_114351504.jpg","PilotCam","/PilotCam.20240901_114351504.jpg","BrowCam","/BrowCam.20240901_114351504.jpg","UserSelect","/UserSelect.20240901_114351504.jpg","","","-999.99","2.91","-999.99","-999.99","66d45377f9835f001a808360"
"2024-09-01T11:44:06.538Z","45.9166749","-130.0249783","ASNAP","","admin","","","","","","","","1.68","0.91","-0.6","-1.3","270.48","1273.48","0.58","SciCam","/SciCam.20240901_114406538.jpg","PilotCam","/PilotCam.20240901_114406538.jpg","BrowCam","/BrowCam.20240901_114406538.jpg","UserSelect","/UserSelect.20240901_114406538.jpg","","","-999.99","2.91","-999.99","-999.99","66d45386f9835f001a808364"
"2024-09-01T11:44:21.570Z","45.9166748","-130.0249782","ASNAP","","admin","","","","","","","","1.69","0.90","0.0","-3.3","270.37","1280.63","0.58","SciCam","/SciCam.20240901_114421570.jpg","PilotCam","/PilotCam.20240901_114421570.jpg","BrowCam","/BrowCam.20240901_114421570.jpg","UserSelect","/UserSelect.20240901_114421570.jpg","","","-999.99","2.93","-999.99","-999.99","66d45395f9835f001a808368"
"2024-09-01T11:44:36.601Z","45.9166745","-130.0249783","ASNAP","","admin","","","","","","","","1.68","0.87","0.7","-2.6","269.85","1287.46","0.58","SciCam","/SciCam.20240901_114436601.jpg","PilotCam","/PilotCam.20240901_114436601.jpg","BrowCam","/BrowCam.20240901_114436601.jpg","UserSelect","/UserSelect.20240901_114436601.jpg","","","-999.99","2.86","-999.99","-999.99","66d453a4f9835f001a80836c"
"2024-09-01T11:44:51.625Z","45.9166746","-130.0249783","ASNAP","","admin","","","","","","","","1.68","0.88","-0.3","-2.7","270.03","1294.99","0.58","SciCam","/SciCam.20240901_114451625.jpg","PilotCam","/PilotCam.20240901_114451625.jpg","BrowCam","/BrowCam.20240901_114451625.jpg","UserSelect","/UserSelect.20240901_114451625.jpg","","","-999.99","2.97","-999.99","-999.99","66d453b3f9835f001a808370"
"2024-09-01T11:45:06.656Z","45.9166747","-130.0249783","ASNAP","","admin","","","","","","","","1.68","0.89","-1.4","-2.4","269.82","1301.89","0.58","SciCam","/SciCam.20240901_114506656.jpg","PilotCam","/PilotCam.20240901_114506656.jpg","BrowCam","/BrowCam.20240901_114506656.jpg","UserSelect","/UserSelect.20240901_114506656.jpg","","","-999.99","2.82","-999.99","-999.99","66d453c2f9835f001a808374"
"2024-09-01T11:45:21.684Z","45.9166748","-130.0249783","ASNAP","","admin","","","","","","","","1.68","0.90","-0.6","-2.4","270.38","1309.63","0.58","SciCam","/SciCam.20240901_114521684.jpg","PilotCam","/PilotCam.20240901_114521684.jpg","BrowCam","/BrowCam.20240901_114521684.jpg","UserSelect","/UserSelect.20240901_114521684.jpg","","","-999.99","2.73","-999.99","-999.99","66d453d1f9835f001a808378"
"2024-09-01T11:45:36.718Z","45.9166747","-130.0249783","ASNAP","","admin","","","","","","","","1.68","0.89","-0.8","-2.3","270.00","1317.06","0.58","SciCam","/SciCam.20240901_114536718.jpg","PilotCam","/PilotCam.20240901_114536718.jpg","BrowCam","/BrowCam.20240901_114536718.jpg","UserSelect","/UserSelect.20240901_114536718.jpg","","","-999.99","2.80","-999.99","-999.99","66d453e0f9835f001a80837c"
"2024-09-01T11:45:51.753Z","45.9166748","-130.0249783","ASNAP","","admin","","","","","","","","1.68","0.90","-1.1","-2.0","270.16","1324.68","0.58","SciCam","/SciCam.20240901_114551753.jpg","PilotCam","/PilotCam.20240901_114551753.jpg","BrowCam","/BrowCam.20240901_114551753.jpg","UserSelect","/UserSelect.20240901_114551753.jpg","","","-999.99","2.82","-999.99","-999.99","66d453eff9835f001a808380"
"2024-09-01T11:46:06.786Z","45.9166745","-130.0249783","ASNAP","","admin","","","","","","","","1.68","0.87","-1.0","-3.0","269.52","1331.67","0.58","SciCam","/SciCam.20240901_114606786.jpg","PilotCam","/PilotCam.20240901_114606786.jpg","BrowCam","/BrowCam.20240901_114606786.jpg","UserSelect","/UserSelect.20240901_114606786.jpg","","","-999.99","2.88","-999.99","-999.99","66d453fef9835f001a808384"
"2024-09-01T11:46:21.807Z","45.9166748","-130.0249782","ASNAP","","admin","","","","","","","","1.69","0.90","-1.3","-2.9","270.16","1338.81","0.58","SciCam","/SciCam.20240901_114621807.jpg","PilotCam","/PilotCam.20240901_114621807.jpg","BrowCam","/BrowCam.20240901_114621807.jpg","UserSelect","/UserSelect.20240901_114621807.jpg","","","-999.99","2.82","-999.99","-999.99","66d4540df9835f001a808388"
"2024-09-01T11:46:36.839Z","45.9166748","-130.0249782","ASNAP","","admin","","","","","","","","1.69","0.90","-1.0","-3.2","270.26","1346.10","0.58","SciCam","/SciCam.20240901_114636839.jpg","PilotCam","/PilotCam.20240901_114636839.jpg","BrowCam","/BrowCam.20240901_114636839.jpg","UserSelect","/UserSelect.20240901_114636839.jpg","","","-999.99","2.71","-999.99","-999.99","66d4541cf9835f001a80838c"
"2024-09-01T11:46:51.872Z","45.9166743","-130.0249785","ASNAP","","admin","","","","","","","","1.67","0.85","-1.0","-1.9","269.20","1353.19","0.58","SciCam","/SciCam.20240901_114651872.jpg","PilotCam","/PilotCam.20240901_114651872.jpg","BrowCam","/BrowCam.20240901_114651872.jpg","UserSelect","/UserSelect.20240901_114651872.jpg","","","-999.99","2.69","-999.99","-999.99","66d4542bf9835f001a808390"
"2024-09-01T11:47:06.903Z","45.9166748","-130.0249782","ASNAP","","admin","","","","","","","","1.69","0.90","-1.4","-3.0","270.05","1360.55","0.58","SciCam","/SciCam.20240901_114706903.jpg","PilotCam","/PilotCam.20240901_114706903.jpg","BrowCam","/BrowCam.20240901_114706903.jpg","UserSelect","/UserSelect.20240901_114706903.jpg","","","-999.99","2.73","-999.99","-999.99","66d4543af9835f001a808394"
"2024-09-01T11:47:21.936Z","45.9166750","-130.0249780","ASNAP","","admin","","","","","","","","1.71","0.93","-0.7","-4.3","270.88","1367.84","0.58","SciCam","/SciCam.20240901_114721936.jpg","PilotCam","/PilotCam.20240901_114721936.jpg","BrowCam","/BrowCam.20240901_114721936.jpg","UserSelect","/UserSelect.20240901_114721936.jpg","","","-999.99","2.63","-999.99","-999.99","66d45449f9835f001a808398"
"2024-09-01T11:47:36.963Z","45.9166747","-130.0249781","ASNAP","","admin","","","","","","","","1.70","0.89","-0.2","-4.1","270.16","1375.31","0.58","SciCam","/SciCam.20240901_114736963.jpg","PilotCam","/PilotCam.20240901_114736963.jpg","BrowCam","/BrowCam.20240901_114736963.jpg","UserSelect","/UserSelect.20240901_114736963.jpg","","","-999.99","2.58","-999.99","-999.99","66d45458f9835f001a80839c"
"2024-09-01T11:47:51.993Z","45.9166747","-130.0249783","ASNAP","","admin","","","","","","","","1.68","0.89","-0.9","-1.7","269.98","1382.61","0.58","SciCam","/SciCam.20240901_114751993.jpg","PilotCam","/PilotCam.20240901_114751993.jpg","BrowCam","/BrowCam.20240901_114751993.jpg","UserSelect","/UserSelect.20240901_114751993.jpg","","","-999.99","2.62","-999.99","-999.99","66d45467f9835f001a8083a0"
"2024-09-01T11:48:07.016Z","45.9166745","-130.0249783","ASNAP","","admin","","","","","","","","1.68","0.87","-0.8","-1.9","269.69","1389.46","0.58","SciCam","/SciCam.20240901_114807016.jpg","PilotCam","/PilotCam.20240901_114807016.jpg","BrowCam","/BrowCam.20240901_114807016.jpg","UserSelect","/UserSelect.20240901_114807016.jpg","","","-999.99","2.54","-999.99","-999.99","66d45477f9835f001a8083a4"
"2024-09-01T11:48:22.047Z","45.9166743","-130.0249783","ASNAP","","admin","","","","","","","","1.68","0.85","-0.6","-2.8","269.17","1396.13","0.58","SciCam","/SciCam.20240901_114822047.jpg","PilotCam","/PilotCam.20240901_114822047.jpg","BrowCam","/BrowCam.20240901_114822047.jpg","UserSelect","/UserSelect.20240901_114822047.jpg","","","-999.99","2.58","-999.99","-999.99","66d45486f9835f001a8083a8"
"2024-09-01T11:48:37.072Z","45.9166749","-130.0249785","ASNAP","","admin","","","","","","","","1.67","0.91","-0.9","-0.6","270.37","1405.16","0.58","SciCam","/SciCam.20240901_114837072.jpg","PilotCam","/PilotCam.20240901_114837072.jpg","BrowCam","/BrowCam.20240901_114837072.jpg","UserSelect","/UserSelect.20240901_114837072.jpg","","","-999.99","2.57","-999.99","-999.99","66d45495f9835f001a8083ac"
"2024-09-01T11:48:52.089Z","45.9166744","-130.0249785","ASNAP","","admin","","","","","","","","1.67","0.86","0.4","-1.8","269.61","1412.24","0.58","SciCam","/SciCam.20240901_114852089.jpg","PilotCam","/PilotCam.20240901_114852089.jpg","BrowCam","/BrowCam.20240901_114852089.jpg","UserSelect","/UserSelect.20240901_114852089.jpg","","","-999.99","2.46","-999.99","-999.99","66d454a4f9835f001a8083b0"
"2024-09-01T11:49:07.121Z","45.9166750","-130.0249782","ASNAP","","admin","","","","","","","","1.69","0.93","-1.8","-3.2","270.59","1419.22","0.58","SciCam","/SciCam.20240901_114907121.jpg","PilotCam","/PilotCam.20240901_114907121.jpg","BrowCam","/BrowCam.20240901_114907121.jpg","UserSelect","/UserSelect.20240901_114907121.jpg","","","-999.99","2.48","-999.99","-999.99","66d454b3f9835f001a8083b4"
"2024-09-01T11:49:22.151Z","45.9166749","-130.0249783","ASNAP","","admin","","","","","","","","1.68","0.91","-1.2","-1.4","270.34","1427.07","0.58","SciCam","/SciCam.20240901_114922151.jpg","PilotCam","/PilotCam.20240901_114922151.jpg","BrowCam","/BrowCam.20240901_114922151.jpg","UserSelect","/UserSelect.20240901_114922151.jpg","","","-999.99","2.67","-999.99","-999.99","66d454c2f9835f001a8083b8"
"2024-09-01T11:49:37.175Z","45.9166749","-130.0249781","ASNAP","","admin","","","","","","","","1.70","0.91","-0.8","-3.7","270.40","1433.65","0.58","SciCam","/SciCam.20240901_114937175.jpg","PilotCam","/PilotCam.20240901_114937175.jpg","BrowCam","/BrowCam.20240901_114937175.jpg","UserSelect","/UserSelect.20240901_114937175.jpg","","","-999.99","2.51","-999.99","-999.99","66d454d1f9835f001a8083bc"
"2024-09-01T11:49:52.205Z","45.9166781","-130.0249773","ASNAP","","admin","","","","","","","","1.76","1.27","-1.5","-2.1","277.64","1441.63","0.58","SciCam","/SciCam.20240901_114952205.jpg","PilotCam","/PilotCam.20240901_114952205.jpg","BrowCam","/BrowCam.20240901_114952205.jpg","UserSelect","/UserSelect.20240901_114952205.jpg","","","-999.99","2.54","-999.99","-999.99","66d454e0f9835f001a8083c0"
"2024-09-01T11:50:07.236Z","45.9166941","-130.0249597","ASNAP","","admin","","","","","","","","3.13","3.05","-1.3","-2.3","332.98","1448.42","0.58","SciCam","/SciCam.20240901_115007236.jpg","PilotCam","/PilotCam.20240901_115007236.jpg","BrowCam","/BrowCam.20240901_115007236.jpg","UserSelect","/UserSelect.20240901_115007236.jpg","","","-999.99","2.56","-999.99","-999.99","66d454eff9835f001a8083c4"
"2024-09-01T11:50:22.272Z","45.9166850","-130.0249404","ASNAP","","admin","","","","","","","","4.62","2.04","-1.1","-2.7","26.46","1456.26","73.17","SciCam","/SciCam.20240901_115022272.jpg","PilotCam","/PilotCam.20240901_115022272.jpg","BrowCam","/BrowCam.20240901_115022272.jpg","UserSelect","/UserSelect.20240901_115022272.jpg","","","-999.99","2.43","-999.99","-999.99","66d454fef9835f001a8083c8"
"2024-09-01T11:50:37.305Z","45.9166625","-130.0249362","ASNAP","","admin","","","","","","","","4.95","-0.46","-0.4","-1.7","79.69","1463.57","67.32","SciCam","/SciCam.20240901_115037305.jpg","PilotCam","/PilotCam.20240901_115037305.jpg","BrowCam","/BrowCam.20240901_115037305.jpg","UserSelect","/UserSelect.20240901_115037305.jpg","","","-999.99","2.43","-999.99","-999.99","66d4550df9835f001a8083cc"
