Date/Time (UTC),vehicleRealtimeNavData.latitude (ddeg),vehicleRealtimeNavData.longitude (ddeg),event_value,event_free_text,event_author,event_option.milestone,event_option.actions,event_option.filename,event_option.event_comment,event_option.cabled_plug,event_option.dummy_plug,event_option.new_watchstander,event_option.type,event_option.nav,event_option.highlights,event_option.formation,vehicleRealtimeNavData.local_x (meters),vehicleRealtimeNavData.local_y (meters),vehicleRealtimeNavData.roll (deg),vehicleRealtimeNavData.pitch (deg),vehicleRealtimeNavData.heading (deg),vehicleRealtimeNavData.depth (meters),vehicleRealtimeNavData.altitude (meters),vehicleRealtimeFramegrabberData.camera_name_1,vehicleRealtimeFramegrabberData.filename_1,vehicleRealtimeFramegrabberData.camera_name_2,vehicleRealtimeFramegrabberData.filename_2,vehicleRealtimeFramegrabberData.camera_name_3,vehicleRealtimeFramegrabberData.filename_3,vehicleRealtimeFramegrabberData.camera_name_4,vehicleRealtimeFramegrabberData.filename_4,vehicleReNavData.pitch (deg),vehicleReNavData.roll (deg),vehicleTemperatureProbe.probe1_temperature (degC),vehicleTemperatureProbe.probe2_temperature (degC),vehicleTemperatureProbe.probe3_temperature (degC),vehicleTemperatureProbe.probe4_temperature (degC),id
"2024-08-30T21:23:05.372Z","45.9166412","-130.0250052","VEHICLE","","guest","Jason off deck","","","","","","","","","","","-0.40","-2.83","0.5","-2.6","178.86","1.00","0.58","SciCam","/SciCam.20240830_212305372.jpg","PilotCam","/PilotCam.20240830_212305372.jpg","BrowCam","/BrowCam.20240830_212305372.jpg","UserSelect","/UserSelect.20240830_212305372.jpg","","","-999.99","19.09","-999.99","-999.99","66d23839f9835f001a800b48"
"2024-08-30T21:29:42.771Z","45.9166410","-130.0250049","ROV Actions","latching to mj03b ","guest","","Latching to","","","","","","","","","","-0.38","-2.85","1.8","-1.3","178.61","0.96","0.58","SciCam","/SciCam.20240830_212942771.jpg","PilotCam","/PilotCam.20240830_212942771.jpg","BrowCam","/BrowCam.20240830_212942771.jpg","UserSelect","/UserSelect.20240830_212942771.jpg","","","-999.99","19.82","-999.99","-999.99","66d239c6f9835f001a800b4c"
"2024-08-30T21:32:45.887Z","45.9166712","-130.0250259","VEHICLE"," ","guest","Jason in water","","","","","","","","","","","-2.01","0.50","0.4","3.1","268.27","1.83","0.58","SciCam","/SciCam.20240830_213245887.jpg","PilotCam","/PilotCam.20240830_213245887.jpg","BrowCam","/BrowCam.20240830_213245887.jpg","UserSelect","/UserSelect.20240830_213245887.jpg","","","-999.99","20.81","-999.99","-999.99","66d23a7df9835f001a800b54"
"2024-08-30T21:34:48.936Z","45.9166765","-130.0250242","ROV Actions"," ","guest","","First Football on","","","","","","","","","","-1.88","1.09","-2.5","-1.4","279.02","26.39","0.58","SciCam","/SciCam.20240830_213448936.jpg","PilotCam","/PilotCam.20240830_213448936.jpg","BrowCam","/BrowCam.20240830_213448936.jpg","UserSelect","/UserSelect.20240830_213448936.jpg","","","-999.99","17.99","-999.99","-999.99","66d23af8f9835f001a800b58"
"2024-08-30T21:35:50.015Z","45.9166761","-130.0250242","ASNAP","","admin","","","","","","","","","","","","-1.88","1.05","0.3","-1.6","278.83","31.39","0.58","SciCam","/SciCam.20240830_213550015.jpg","PilotCam","/PilotCam.20240830_213550015.jpg","BrowCam","/BrowCam.20240830_213550015.jpg","UserSelect","/UserSelect.20240830_213550015.jpg","","","-999.99","15.53","-999.99","-999.99","66d23b36f9835f001a800b5c"
"2024-08-30T21:36:05.046Z","45.9166766","-130.0250238","ASNAP","","admin","","","","","","","","","","","","-1.85","1.10","1.0","-3.7","279.99","32.47","0.58","SciCam","/SciCam.20240830_213605046.jpg","PilotCam","/PilotCam.20240830_213605046.jpg","BrowCam","/BrowCam.20240830_213605046.jpg","UserSelect","/UserSelect.20240830_213605046.jpg","","","-999.99","15.05","-999.99","-999.99","66d23b45f9835f001a800b60"
"2024-08-30T21:36:20.077Z","45.9166774","-130.0250237","ASNAP","","admin","","","","","","","","","","","","-1.84","1.19","-0.6","-2.6","281.91","32.63","0.58","SciCam","/SciCam.20240830_213620077.jpg","PilotCam","/PilotCam.20240830_213620077.jpg","BrowCam","/BrowCam.20240830_213620077.jpg","UserSelect","/UserSelect.20240830_213620077.jpg","","","-999.99","14.46","-999.99","-999.99","66d23b54f9835f001a800b64"
"2024-08-30T21:36:35.107Z","45.9166765","-130.0250240","ASNAP","","admin","","","","","","","","","","","","-1.86","1.09","1.3","-2.6","279.72","34.41","0.58","SciCam","/SciCam.20240830_213635107.jpg","PilotCam","/PilotCam.20240830_213635107.jpg","BrowCam","/BrowCam.20240830_213635107.jpg","UserSelect","/UserSelect.20240830_213635107.jpg","","","-999.99","14.18","-999.99","-999.99","66d23b63f9835f001a800b68"
"2024-08-30T21:36:50.138Z","45.9166752","-130.0250245","ASNAP","","admin","","","","","","","","","","","","-1.90","0.95","-0.6","-2.2","276.38","37.45","0.58","SciCam","/SciCam.20240830_213650138.jpg","PilotCam","/PilotCam.20240830_213650138.jpg","BrowCam","/BrowCam.20240830_213650138.jpg","UserSelect","/UserSelect.20240830_213650138.jpg","","","-999.99","13.91","-999.99","-999.99","66d23b72f9835f001a800b6c"
"2024-08-30T21:37:05.168Z","45.9166767","-130.0250233","ASNAP","","admin","","","","","","","","","","","","-1.81","1.12","0.5","-6.8","280.65","35.66","0.58","SciCam","/SciCam.20240830_213705168.jpg","PilotCam","/PilotCam.20240830_213705168.jpg","BrowCam","/BrowCam.20240830_213705168.jpg","UserSelect","/UserSelect.20240830_213705168.jpg","","","-999.99","13.71","-999.99","-999.99","66d23b81f9835f001a800b70"
"2024-08-30T21:37:20.201Z","45.9166762","-130.0250247","ASNAP","","admin","","","","","","","","","","","","-1.92","1.06","-0.4","4.4","278.58","38.11","0.58","SciCam","/SciCam.20240830_213720201.jpg","PilotCam","/PilotCam.20240830_213720201.jpg","BrowCam","/BrowCam.20240830_213720201.jpg","UserSelect","/UserSelect.20240830_213720201.jpg","","","-999.99","13.36","-999.99","-999.99","66d23b90f9835f001a800b74"
"2024-08-30T21:37:35.232Z","45.9166767","-130.0250236","ASNAP","","admin","","","","","","","","","","","","-1.83","1.11","-0.3","-5.5","280.02","37.79","0.58","SciCam","/SciCam.20240830_213735232.jpg","PilotCam","/PilotCam.20240830_213735232.jpg","BrowCam","/BrowCam.20240830_213735232.jpg","UserSelect","/UserSelect.20240830_213735232.jpg","","","-999.99","13.08","-999.99","-999.99","66d23b9ff9835f001a800b78"
"2024-08-30T21:37:50.260Z","45.9166767","-130.0250238","ASNAP","","admin","","","","","","","","","","","","-1.85","1.12","-0.8","-3.4","280.27","38.80","0.58","SciCam","/SciCam.20240830_213750260.jpg","PilotCam","/PilotCam.20240830_213750260.jpg","BrowCam","/BrowCam.20240830_213750260.jpg","UserSelect","/UserSelect.20240830_213750260.jpg","","","-999.99","13.05","-999.99","-999.99","66d23baef9835f001a800b7c"
"2024-08-30T21:38:05.293Z","45.9166768","-130.0250242","ASNAP","","admin","","","","","","","","","","","","-1.88","1.13","-0.5","0.5","280.23","41.47","0.58","SciCam","/SciCam.20240830_213805293.jpg","PilotCam","/PilotCam.20240830_213805293.jpg","BrowCam","/BrowCam.20240830_213805293.jpg","UserSelect","/UserSelect.20240830_213805293.jpg","","","-999.99","12.86","-999.99","-999.99","66d23bbdf9835f001a800b80"
"2024-08-30T21:38:20.325Z","45.9166763","-130.0250240","ASNAP","","admin","","","","","","","","","","","","-1.86","1.07","-0.4","-3.2","279.14","41.10","0.58","SciCam","/SciCam.20240830_213820325.jpg","PilotCam","/PilotCam.20240830_213820325.jpg","BrowCam","/BrowCam.20240830_213820325.jpg","UserSelect","/UserSelect.20240830_213820325.jpg","","","-999.99","12.80","-999.99","-999.99","66d23bccf9835f001a800b84"
"2024-08-30T21:38:35.353Z","45.9166762","-130.0250241","ASNAP","","admin","","","","","","","","","","","","-1.87","1.06","-1.0","-2.4","278.90","42.53","0.58","SciCam","/SciCam.20240830_213835353.jpg","PilotCam","/PilotCam.20240830_213835353.jpg","BrowCam","/BrowCam.20240830_213835353.jpg","UserSelect","/UserSelect.20240830_213835353.jpg","","","-999.99","12.84","-999.99","-999.99","66d23bdbf9835f001a800b88"
"2024-08-30T21:38:50.386Z","45.9166764","-130.0250240","ASNAP","","admin","","","","","","","","","","","","-1.86","1.08","0.0","-3.0","279.38","43.43","0.58","SciCam","/SciCam.20240830_213850386.jpg","PilotCam","/PilotCam.20240830_213850386.jpg","BrowCam","/BrowCam.20240830_213850386.jpg","UserSelect","/UserSelect.20240830_213850386.jpg","","","-999.99","12.71","-999.99","-999.99","66d23beaf9835f001a800b8c"
"2024-08-30T21:39:05.411Z","45.9166765","-130.0250240","ASNAP","","admin","","","","","","","","","","","","-1.86","1.09","-0.9","-2.6","279.48","44.96","0.58","SciCam","/SciCam.20240830_213905411.jpg","PilotCam","/PilotCam.20240830_213905411.jpg","BrowCam","/BrowCam.20240830_213905411.jpg","UserSelect","/UserSelect.20240830_213905411.jpg","","","-999.99","12.76","-999.99","-999.99","66d23bf9f9835f001a800b90"
"2024-08-30T21:39:20.444Z","45.9166765","-130.0250240","ASNAP","","admin","","","","","","","","","","","","-1.86","1.09","0.0","-2.4","279.63","46.58","0.58","SciCam","/SciCam.20240830_213920444.jpg","PilotCam","/PilotCam.20240830_213920444.jpg","BrowCam","/BrowCam.20240830_213920444.jpg","UserSelect","/UserSelect.20240830_213920444.jpg","","","-999.99","12.51","-999.99","-999.99","66d23c08f9835f001a800b94"
"2024-08-30T21:39:35.467Z","45.9166767","-130.0250238","ASNAP","","admin","","","","","","","","","","","","-1.85","1.12","-0.2","-3.0","280.29","46.74","0.58","SciCam","/SciCam.20240830_213935467.jpg","PilotCam","/PilotCam.20240830_213935467.jpg","BrowCam","/BrowCam.20240830_213935467.jpg","UserSelect","/UserSelect.20240830_213935467.jpg","","","-999.99","12.39","-999.99","-999.99","66d23c17f9835f001a800b98"
"2024-08-30T21:39:50.499Z","45.9166761","-130.0250245","ASNAP","","admin","","","","","","","","","","","","-1.90","1.05","-0.5","-0.2","278.46","49.66","0.58","SciCam","/SciCam.20240830_213950499.jpg","PilotCam","/PilotCam.20240830_213950499.jpg","BrowCam","/BrowCam.20240830_213950499.jpg","UserSelect","/UserSelect.20240830_213950499.jpg","","","-999.99","12.49","-999.99","-999.99","66d23c26f9835f001a800b9c"
"2024-08-30T21:40:05.532Z","45.9166763","-130.0250241","ASNAP","","admin","","","","","","","","","","","","-1.87","1.07","-0.5","-2.4","279.05","49.98","0.58","SciCam","/SciCam.20240830_214005532.jpg","PilotCam","/PilotCam.20240830_214005532.jpg","BrowCam","/BrowCam.20240830_214005532.jpg","UserSelect","/UserSelect.20240830_214005532.jpg","","","-999.99","12.22","-999.99","-999.99","66d23c35f9835f001a800ba0"
"2024-08-30T21:40:20.561Z","45.9166761","-130.0250242","ASNAP","","admin","","","","","","","","","","","","-1.88","1.05","-0.5","-0.6","278.61","51.88","0.58","SciCam","/SciCam.20240830_214020561.jpg","PilotCam","/PilotCam.20240830_214020561.jpg","BrowCam","/BrowCam.20240830_214020561.jpg","UserSelect","/UserSelect.20240830_214020561.jpg","","","-999.99","12.05","-999.99","-999.99","66d23c44f9835f001a800ba4"
"2024-08-30T21:40:26.372Z","45.9166761","-130.0250242","ROV Actions"," ","guest","","Last Football on","","","","","","","","","","-1.88","1.05","0.0","-1.5","278.67","52.43","0.58","SciCam","/SciCam.20240830_214026372.jpg","PilotCam","/PilotCam.20240830_214026372.jpg","BrowCam","/BrowCam.20240830_214026372.jpg","UserSelect","/UserSelect.20240830_214026372.jpg","","","-999.99","12.09","-999.99","-999.99","66d23c4af9835f001a800ba8"
"2024-08-30T21:40:35.591Z","45.9166758","-130.0250242","ASNAP","","admin","","","","","","","","","","","","-1.88","1.01","0.3","-2.6","277.79","52.80","0.58","SciCam","/SciCam.20240830_214035591.jpg","PilotCam","/PilotCam.20240830_214035591.jpg","BrowCam","/BrowCam.20240830_214035591.jpg","UserSelect","/UserSelect.20240830_214035591.jpg","","","-999.99","12.02","-999.99","-999.99","66d23c53f9835f001a800bac"
"2024-08-30T21:40:50.620Z","45.9166755","-130.0250244","ASNAP","","admin","","","","","","","","","","","","-1.89","0.98","1.2","-2.6","277.44","57.66","0.58","SciCam","/SciCam.20240830_214050620.jpg","PilotCam","/PilotCam.20240830_214050620.jpg","BrowCam","/BrowCam.20240830_214050620.jpg","UserSelect","/UserSelect.20240830_214050620.jpg","","","-999.99","12.06","-999.99","-999.99","66d23c62f9835f001a800bb0"
"2024-08-30T21:41:05.653Z","45.9166758","-130.0250244","ASNAP","","admin","","","","","","","","","","","","-1.89","1.01","1.1","-1.3","277.98","63.27","0.58","SciCam","/SciCam.20240830_214105653.jpg","PilotCam","/PilotCam.20240830_214105653.jpg","BrowCam","/BrowCam.20240830_214105653.jpg","UserSelect","/UserSelect.20240830_214105653.jpg","","","-999.99","11.85","-999.99","-999.99","66d23c71f9835f001a800bb4"
"2024-08-30T21:41:20.685Z","45.9166762","-130.0250241","ASNAP","","admin","","","","","","","","","","","","-1.87","1.06","0.7","-2.6","279.33","68.14","0.58","SciCam","/SciCam.20240830_214120685.jpg","PilotCam","/PilotCam.20240830_214120685.jpg","BrowCam","/BrowCam.20240830_214120685.jpg","UserSelect","/UserSelect.20240830_214120685.jpg","","","-999.99","11.55","-999.99","-999.99","66d23c80f9835f001a800bb8"
"2024-08-30T21:41:35.721Z","45.9166758","-130.0250242","ASNAP","","admin","","","","","","","","","","","","-1.88","1.02","1.4","-2.5","278.42","73.72","0.58","SciCam","/SciCam.20240830_214135721.jpg","PilotCam","/PilotCam.20240830_214135721.jpg","BrowCam","/BrowCam.20240830_214135721.jpg","UserSelect","/UserSelect.20240830_214135721.jpg","","","-999.99","11.00","-999.99","-999.99","66d23c8ff9835f001a800bbc"
"2024-08-30T21:41:50.751Z","45.9166759","-130.0250244","ASNAP","","admin","","","","","","","","","","","","-1.89","1.03","0.4","-0.9","278.32","80.35","0.58","SciCam","/SciCam.20240830_214150751.jpg","PilotCam","/PilotCam.20240830_214150751.jpg","BrowCam","/BrowCam.20240830_214150751.jpg","UserSelect","/UserSelect.20240830_214150751.jpg","","","-999.99","10.80","-999.99","-999.99","66d23c9ef9835f001a800bc0"
"2024-08-30T21:42:05.784Z","45.9166763","-130.0250242","ASNAP","","admin","","","","","","","","","","","","-1.88","1.07","0.0","-0.5","279.09","85.33","0.58","SciCam","/SciCam.20240830_214205784.jpg","PilotCam","/PilotCam.20240830_214205784.jpg","BrowCam","/BrowCam.20240830_214205784.jpg","UserSelect","/UserSelect.20240830_214205784.jpg","","","-999.99","10.43","-999.99","-999.99","66d23cadf9835f001a800bc4"
"2024-08-30T21:42:20.816Z","45.9166761","-130.0250242","ASNAP","","admin","","","","","","","","","","","","-1.88","1.05","0.5","-1.9","278.90","91.20","0.58","SciCam","/SciCam.20240830_214220816.jpg","PilotCam","/PilotCam.20240830_214220816.jpg","BrowCam","/BrowCam.20240830_214220816.jpg","UserSelect","/UserSelect.20240830_214220816.jpg","","","-999.99","9.93","-999.99","-999.99","66d23cbcf9835f001a800bc8"
"2024-08-30T21:42:35.849Z","45.9166764","-130.0250240","ASNAP","","admin","","","","","","","","","","","","-1.86","1.08","0.3","-3.3","279.45","95.13","0.58","SciCam","/SciCam.20240830_214235849.jpg","PilotCam","/PilotCam.20240830_214235849.jpg","BrowCam","/BrowCam.20240830_214235849.jpg","UserSelect","/UserSelect.20240830_214235849.jpg","","","-999.99","9.54","-999.99","-999.99","66d23ccbf9835f001a800bcc"
"2024-08-30T21:42:50.881Z","45.9166758","-130.0250244","ASNAP","","admin","","","","","","","","","","","","-1.89","1.01","-0.4","-2.6","277.66","101.93","0.58","SciCam","/SciCam.20240830_214250881.jpg","PilotCam","/PilotCam.20240830_214250881.jpg","BrowCam","/BrowCam.20240830_214250881.jpg","UserSelect","/UserSelect.20240830_214250881.jpg","","","-999.99","9.26","-999.99","-999.99","66d23cdaf9835f001a800bd0"
"2024-08-30T21:43:05.915Z","45.9166759","-130.0250245","ASNAP","","admin","","","","","","","","","","","","-1.90","1.03","-0.1","-0.2","278.09","107.91","0.58","SciCam","/SciCam.20240830_214305915.jpg","PilotCam","/PilotCam.20240830_214305915.jpg","BrowCam","/BrowCam.20240830_214305915.jpg","UserSelect","/UserSelect.20240830_214305915.jpg","","","-999.99","9.02","-999.99","-999.99","66d23ce9f9835f001a800bd4"
"2024-08-30T21:43:20.944Z","45.9166764","-130.0250240","ASNAP","","admin","","","","","","","","","","","","-1.86","1.08","-0.3","-2.8","279.28","112.76","0.58","SciCam","/SciCam.20240830_214320944.jpg","PilotCam","/PilotCam.20240830_214320944.jpg","BrowCam","/BrowCam.20240830_214320944.jpg","UserSelect","/UserSelect.20240830_214320944.jpg","","","-999.99","8.83","-999.99","-999.99","66d23cf8f9835f001a800bd8"
"2024-08-30T21:43:35.975Z","45.9166762","-130.0250242","ASNAP","","admin","","","","","","","","","","","","-1.88","1.06","-0.4","-0.0","278.78","119.84","0.58","SciCam","/SciCam.20240830_214335975.jpg","PilotCam","/PilotCam.20240830_214335975.jpg","BrowCam","/BrowCam.20240830_214335975.jpg","UserSelect","/UserSelect.20240830_214335975.jpg","","","-999.99","8.55","-999.99","-999.99","66d23d07f9835f001a800bdc"
"2024-08-30T21:43:51.007Z","45.9166759","-130.0250244","ASNAP","","admin","","","","","","","","","","","","-1.89","1.03","-0.5","-2.1","278.27","125.86","0.58","SciCam","/SciCam.20240830_214351007.jpg","PilotCam","/PilotCam.20240830_214351007.jpg","BrowCam","/BrowCam.20240830_214351007.jpg","UserSelect","/UserSelect.20240830_214351007.jpg","","","-999.99","8.16","-999.99","-999.99","66d23d17f9835f001a800be0"
"2024-08-30T21:44:06.038Z","45.9166765","-130.0250238","ASNAP","","admin","","","","","","","","","","","","-1.85","1.09","0.2","-4.0","279.61","129.68","0.58","SciCam","/SciCam.20240830_214406038.jpg","PilotCam","/PilotCam.20240830_214406038.jpg","BrowCam","/BrowCam.20240830_214406038.jpg","UserSelect","/UserSelect.20240830_214406038.jpg","","","-999.99","7.92","-999.99","-999.99","66d23d26f9835f001a800be4"
"2024-08-30T21:44:21.070Z","45.9166758","-130.0250244","ASNAP","","admin","","","","","","","","","","","","-1.89","1.02","0.3","-0.8","278.23","137.82","0.58","SciCam","/SciCam.20240830_214421070.jpg","PilotCam","/PilotCam.20240830_214421070.jpg","BrowCam","/BrowCam.20240830_214421070.jpg","UserSelect","/UserSelect.20240830_214421070.jpg","","","-999.99","7.73","-999.99","-999.99","66d23d35f9835f001a800be8"
"2024-08-30T21:44:36.097Z","45.9166763","-130.0250242","ASNAP","","admin","","","","","","","","","","","","-1.88","1.07","0.2","-0.9","279.12","143.69","0.58","SciCam","/SciCam.20240830_214436097.jpg","PilotCam","/PilotCam.20240830_214436097.jpg","BrowCam","/BrowCam.20240830_214436097.jpg","UserSelect","/UserSelect.20240830_214436097.jpg","","","-999.99","7.87","-999.99","-999.99","66d23d44f9835f001a800bec"
"2024-08-30T21:44:51.126Z","45.9166760","-130.0250244","ASNAP","","admin","","","","","","","","","","","","-1.89","1.04","-0.2","-0.8","278.42","142.18","0.58","SciCam","/SciCam.20240830_214451126.jpg","PilotCam","/PilotCam.20240830_214451126.jpg","BrowCam","/BrowCam.20240830_214451126.jpg","UserSelect","/UserSelect.20240830_214451126.jpg","","","-999.99","7.70","-999.99","-999.99","66d23d53f9835f001a800bf0"
"2024-08-30T21:44:53.679Z","45.9166764","-130.0250241","ROV Actions","  ","guest","","Transponder on","","","","","","","","","","-1.87","1.08","-0.8","-2.3","279.26","141.33","0.58","SciCam","/SciCam.20240830_214453679.jpg","PilotCam","/PilotCam.20240830_214453679.jpg","BrowCam","/BrowCam.20240830_214453679.jpg","UserSelect","/UserSelect.20240830_214453679.jpg","","","-999.99","7.76","-999.99","-999.99","66d23d55f9835f001a800bf4"
"2024-08-30T21:45:06.158Z","45.9166761","-130.0250242","ASNAP","","admin","","","","","","","","","","","","-1.88","1.05","0.3","-1.3","278.78","141.26","0.58","SciCam","/SciCam.20240830_214506158.jpg","PilotCam","/PilotCam.20240830_214506158.jpg","BrowCam","/BrowCam.20240830_214506158.jpg","UserSelect","/UserSelect.20240830_214506158.jpg","","","-999.99","7.65","-999.99","-999.99","66d23d62f9835f001a800bf8"
"2024-08-30T21:45:21.189Z","45.9166755","-130.0250245","ASNAP","","admin","","","","","","","","","","","","-1.90","0.98","0.2","-1.1","277.26","143.70","0.58","SciCam","/SciCam.20240830_214521189.jpg","PilotCam","/PilotCam.20240830_214521189.jpg","BrowCam","/BrowCam.20240830_214521189.jpg","UserSelect","/UserSelect.20240830_214521189.jpg","","","-999.99","7.66","-999.99","-999.99","66d23d71f9835f001a800bfc"
"2024-08-30T21:45:36.216Z","45.9166763","-130.0250241","ASNAP","","admin","","","","","","","","","","","","-1.87","1.07","-0.3","-3.0","278.66","141.58","0.58","SciCam","/SciCam.20240830_214536216.jpg","PilotCam","/PilotCam.20240830_214536216.jpg","BrowCam","/BrowCam.20240830_214536216.jpg","UserSelect","/UserSelect.20240830_214536216.jpg","","","-999.99","7.53","-999.99","-999.99","66d23d80f9835f001a800c00"
"2024-08-30T21:45:51.248Z","45.9166755","-130.0250244","ASNAP","","admin","","","","","","","","","","","","-1.89","0.98","0.6","-2.1","276.99","141.40","0.58","SciCam","/SciCam.20240830_214551248.jpg","PilotCam","/PilotCam.20240830_214551248.jpg","BrowCam","/BrowCam.20240830_214551248.jpg","UserSelect","/UserSelect.20240830_214551248.jpg","","","-999.99","7.62","-999.99","-999.99","66d23d8ff9835f001a800c04"
"2024-08-30T21:46:06.276Z","45.9166753","-130.0250245","ASNAP","","admin","","","","","","","","","","","","-1.90","0.96","0.5","-1.8","276.90","145.54","0.58","SciCam","/SciCam.20240830_214606276.jpg","PilotCam","/PilotCam.20240830_214606276.jpg","BrowCam","/BrowCam.20240830_214606276.jpg","UserSelect","/UserSelect.20240830_214606276.jpg","","","-999.99","7.70","-999.99","-999.99","66d23d9ef9835f001a800c08"
"2024-08-30T21:46:21.307Z","45.9166756","-130.0250242","ASNAP","","admin","","","","","","","","","","","","-1.88","0.99","2.8","-2.6","278.10","149.58","0.58","SciCam","/SciCam.20240830_214621307.jpg","PilotCam","/PilotCam.20240830_214621307.jpg","BrowCam","/BrowCam.20240830_214621307.jpg","UserSelect","/UserSelect.20240830_214621307.jpg","","","-999.99","7.50","-999.99","-999.99","66d23dadf9835f001a800c0c"
"2024-08-30T21:46:36.333Z","45.9166761","-130.0250241","ASNAP","","admin","","","","","","","","","","","","-1.87","1.05","0.1","-3.0","278.70","153.78","0.58","SciCam","/SciCam.20240830_214636333.jpg","PilotCam","/PilotCam.20240830_214636333.jpg","BrowCam","/BrowCam.20240830_214636333.jpg","UserSelect","/UserSelect.20240830_214636333.jpg","","","-999.99","7.68","-999.99","-999.99","66d23dbcf9835f001a800c10"
"2024-08-30T21:46:51.369Z","45.9166753","-130.0250244","ASNAP","","admin","","","","","","","","","","","","-1.89","0.96","0.3","-2.7","276.81","159.35","0.58","SciCam","/SciCam.20240830_214651369.jpg","PilotCam","/PilotCam.20240830_214651369.jpg","BrowCam","/BrowCam.20240830_214651369.jpg","UserSelect","/UserSelect.20240830_214651369.jpg","","","-999.99","7.65","-999.99","-999.99","66d23dcbf9835f001a800c14"
"2024-08-30T21:47:06.400Z","45.9166754","-130.0250244","ASNAP","","admin","","","","","","","","","","","","-1.89","0.97","0.7","-3.4","277.34","163.43","0.58","SciCam","/SciCam.20240830_214706400.jpg","PilotCam","/PilotCam.20240830_214706400.jpg","BrowCam","/BrowCam.20240830_214706400.jpg","UserSelect","/UserSelect.20240830_214706400.jpg","","","-999.99","7.41","-999.99","-999.99","66d23ddaf9835f001a800c18"
"2024-08-30T21:47:21.428Z","45.9166758","-130.0250245","ASNAP","","admin","","","","","","","","","","","","-1.90","1.01","-1.9","-1.3","277.39","161.51","0.58","SciCam","/SciCam.20240830_214721428.jpg","PilotCam","/PilotCam.20240830_214721428.jpg","BrowCam","/BrowCam.20240830_214721428.jpg","UserSelect","/UserSelect.20240830_214721428.jpg","","","-999.99","7.38","-999.99","-999.99","66d23de9f9835f001a800c1c"
"2024-08-30T21:47:36.461Z","45.9166759","-130.0250242","ASNAP","","admin","","","","","","","","","","","","-1.88","1.03","0.6","-1.9","278.50","166.79","0.58","SciCam","/SciCam.20240830_214736461.jpg","PilotCam","/PilotCam.20240830_214736461.jpg","BrowCam","/BrowCam.20240830_214736461.jpg","UserSelect","/UserSelect.20240830_214736461.jpg","","","-999.99","7.60","-999.99","-999.99","66d23df8f9835f001a800c20"
"2024-08-30T21:47:51.483Z","45.9166757","-130.0250244","ASNAP","","admin","","","","","","","","","","","","-1.89","1.00","0.3","-2.5","277.64","167.45","0.58","SciCam","/SciCam.20240830_214751483.jpg","PilotCam","/PilotCam.20240830_214751483.jpg","BrowCam","/BrowCam.20240830_214751483.jpg","UserSelect","/UserSelect.20240830_214751483.jpg","","","-999.99","7.51","-999.99","-999.99","66d23e07f9835f001a800c24"
"2024-08-30T21:48:06.516Z","45.9166757","-130.0250244","ASNAP","","admin","","","","","","","","","","","","-1.89","1.00","0.9","-2.1","277.84","167.74","0.58","SciCam","/SciCam.20240830_214806516.jpg","PilotCam","/PilotCam.20240830_214806516.jpg","BrowCam","/BrowCam.20240830_214806516.jpg","UserSelect","/UserSelect.20240830_214806516.jpg","","","-999.99","7.55","-999.99","-999.99","66d23e16f9835f001a800c28"
"2024-08-30T21:48:21.548Z","45.9166761","-130.0250244","ASNAP","","admin","","","","","","","","","","","","-1.89","1.05","1.0","-1.1","278.90","167.64","0.58","SciCam","/SciCam.20240830_214821548.jpg","PilotCam","/PilotCam.20240830_214821548.jpg","BrowCam","/BrowCam.20240830_214821548.jpg","UserSelect","/UserSelect.20240830_214821548.jpg","","","-999.99","7.16","-999.99","-999.99","66d23e25f9835f001a800c2c"
"2024-08-30T21:48:36.580Z","45.9166759","-130.0250244","ASNAP","","admin","","","","","","","","","","","","-1.89","1.03","0.4","-1.8","278.41","168.51","0.58","SciCam","/SciCam.20240830_214836580.jpg","PilotCam","/PilotCam.20240830_214836580.jpg","BrowCam","/BrowCam.20240830_214836580.jpg","UserSelect","/UserSelect.20240830_214836580.jpg","","","-999.99","7.33","-999.99","-999.99","66d23e34f9835f001a800c30"
"2024-08-30T21:48:51.602Z","45.9166763","-130.0250241","ASNAP","","admin","","","","","","","","","","","","-1.87","1.07","0.7","-2.5","279.27","175.50","0.58","SciCam","/SciCam.20240830_214851602.jpg","PilotCam","/PilotCam.20240830_214851602.jpg","BrowCam","/BrowCam.20240830_214851602.jpg","UserSelect","/UserSelect.20240830_214851602.jpg","","","-999.99","7.33","-999.99","-999.99","66d23e43f9835f001a800c34"
"2024-08-30T21:49:06.634Z","45.9166760","-130.0250244","ASNAP","","admin","","","","","","","","","","","","-1.89","1.04","0.4","-1.4","278.64","183.18","0.58","SciCam","/SciCam.20240830_214906634.jpg","PilotCam","/PilotCam.20240830_214906634.jpg","BrowCam","/BrowCam.20240830_214906634.jpg","UserSelect","/UserSelect.20240830_214906634.jpg","","","-999.99","7.38","-999.99","-999.99","66d23e52f9835f001a800c38"
"2024-08-30T21:49:21.667Z","45.9166763","-130.0250241","ASNAP","","admin","","","","","","","","","","","","-1.87","1.07","0.3","-1.6","279.28","190.87","0.58","SciCam","/SciCam.20240830_214921667.jpg","PilotCam","/PilotCam.20240830_214921667.jpg","BrowCam","/BrowCam.20240830_214921667.jpg","UserSelect","/UserSelect.20240830_214921667.jpg","","","-999.99","7.25","-999.99","-999.99","66d23e61f9835f001a800c3c"
"2024-08-30T21:49:36.704Z","45.9166766","-130.0250238","ASNAP","","admin","","","","","","","","","","","","-1.85","1.10","0.2","-3.3","279.91","197.36","0.58","SciCam","/SciCam.20240830_214936704.jpg","PilotCam","/PilotCam.20240830_214936704.jpg","BrowCam","/BrowCam.20240830_214936704.jpg","UserSelect","/UserSelect.20240830_214936704.jpg","","","-999.99","7.10","-999.99","-999.99","66d23e70f9835f001a800c40"
"2024-08-30T21:49:51.737Z","45.9166769","-130.0250240","ASNAP","","admin","","","","","","","","","","","","-1.86","1.14","0.0","-1.8","280.52","205.32","0.58","SciCam","/SciCam.20240830_214951737.jpg","PilotCam","/PilotCam.20240830_214951737.jpg","BrowCam","/BrowCam.20240830_214951737.jpg","UserSelect","/UserSelect.20240830_214951737.jpg","","","-999.99","7.10","-999.99","-999.99","66d23e7ff9835f001a800c44"
"2024-08-30T21:50:06.765Z","45.9166768","-130.0250240","ASNAP","","admin","","","","","","","","","","","","-1.86","1.13","-0.2","-2.0","280.42","214.01","0.58","SciCam","/SciCam.20240830_215006765.jpg","PilotCam","/PilotCam.20240830_215006765.jpg","BrowCam","/BrowCam.20240830_215006765.jpg","UserSelect","/UserSelect.20240830_215006765.jpg","","","-999.99","7.06","-999.99","-999.99","66d23e8ef9835f001a800c48"
"2024-08-30T21:50:21.795Z","45.9166767","-130.0250240","ASNAP","","admin","","","","","","","","","","","","-1.86","1.11","0.5","-2.2","280.12","221.08","0.58","SciCam","/SciCam.20240830_215021795.jpg","PilotCam","/PilotCam.20240830_215021795.jpg","BrowCam","/BrowCam.20240830_215021795.jpg","UserSelect","/UserSelect.20240830_215021795.jpg","","","-999.99","7.04","-999.99","-999.99","66d23e9df9835f001a800c4c"
"2024-08-30T21:50:36.828Z","45.9166767","-130.0250240","ASNAP","","admin","","","","","","","","","","","","-1.86","1.12","0.0","-1.2","280.14","227.53","0.58","SciCam","/SciCam.20240830_215036828.jpg","PilotCam","/PilotCam.20240830_215036828.jpg","BrowCam","/BrowCam.20240830_215036828.jpg","UserSelect","/UserSelect.20240830_215036828.jpg","","","-999.99","6.84","-999.99","-999.99","66d23eacf9835f001a800c50"
"2024-08-30T21:50:51.863Z","45.9166767","-130.0250241","ASNAP","","admin","","","","","","","","","","","","-1.87","1.11","0.3","-1.6","279.95","235.85","0.58","SciCam","/SciCam.20240830_215051863.jpg","PilotCam","/PilotCam.20240830_215051863.jpg","BrowCam","/BrowCam.20240830_215051863.jpg","UserSelect","/UserSelect.20240830_215051863.jpg","","","-999.99","6.67","-999.99","-999.99","66d23ebbf9835f001a800c54"
"2024-08-30T21:51:06.895Z","45.9166767","-130.0250238","ASNAP","","admin","","","","","","","","","","","","-1.85","1.12","0.1","-2.4","280.25","244.05","0.58","SciCam","/SciCam.20240830_215106895.jpg","PilotCam","/PilotCam.20240830_215106895.jpg","BrowCam","/BrowCam.20240830_215106895.jpg","UserSelect","/UserSelect.20240830_215106895.jpg","","","-999.99","6.64","-999.99","-999.99","66d23ecaf9835f001a800c58"
"2024-08-30T21:51:21.926Z","45.9166767","-130.0250238","ASNAP","","admin","","","","","","","","","","","","-1.85","1.12","0.2","-2.9","280.33","250.98","0.58","SciCam","/SciCam.20240830_215121926.jpg","PilotCam","/PilotCam.20240830_215121926.jpg","BrowCam","/BrowCam.20240830_215121926.jpg","UserSelect","/UserSelect.20240830_215121926.jpg","","","-999.99","6.54","-999.99","-999.99","66d23ed9f9835f001a800c5c"
"2024-08-30T21:51:36.960Z","45.9166769","-130.0250240","ASNAP","","admin","","","","","","","","","","","","-1.86","1.14","0.1","-1.2","280.52","257.79","0.58","SciCam","/SciCam.20240830_215136960.jpg","PilotCam","/PilotCam.20240830_215136960.jpg","BrowCam","/BrowCam.20240830_215136960.jpg","UserSelect","/UserSelect.20240830_215136960.jpg","","","-999.99","6.56","-999.99","-999.99","66d23ee8f9835f001a800c60"
"2024-08-30T21:51:51.992Z","45.9166767","-130.0250241","ASNAP","","admin","","","","","","","","","","","","-1.87","1.11","0.1","-0.5","279.97","265.55","0.58","SciCam","/SciCam.20240830_215151992.jpg","PilotCam","/PilotCam.20240830_215151992.jpg","BrowCam","/BrowCam.20240830_215151992.jpg","UserSelect","/UserSelect.20240830_215151992.jpg","","","-999.99","6.42","-999.99","-999.99","66d23ef7f9835f001a800c64"
"2024-08-30T21:52:07.019Z","45.9166767","-130.0250241","ASNAP","","admin","","","","","","","","","","","","-1.87","1.12","0.2","-0.3","280.12","273.03","0.58","SciCam","/SciCam.20240830_215207019.jpg","PilotCam","/PilotCam.20240830_215207019.jpg","BrowCam","/BrowCam.20240830_215207019.jpg","UserSelect","/UserSelect.20240830_215207019.jpg","","","-999.99","6.30","-999.99","-999.99","66d23f07f9835f001a800c68"
"2024-08-30T21:52:22.052Z","45.9166767","-130.0250238","ASNAP","","admin","","","","","","","","","","","","-1.85","1.11","0.1","-3.6","280.06","280.98","0.58","SciCam","/SciCam.20240830_215222052.jpg","PilotCam","/PilotCam.20240830_215222052.jpg","BrowCam","/BrowCam.20240830_215222052.jpg","UserSelect","/UserSelect.20240830_215222052.jpg","","","-999.99","6.24","-999.99","-999.99","66d23f16f9835f001a800c6c"
"2024-08-30T21:52:37.081Z","45.9166767","-130.0250241","ASNAP","","admin","","","","","","","","","","","","-1.87","1.11","0.0","-1.0","280.03","288.61","0.58","SciCam","/SciCam.20240830_215237081.jpg","PilotCam","/PilotCam.20240830_215237081.jpg","BrowCam","/BrowCam.20240830_215237081.jpg","UserSelect","/UserSelect.20240830_215237081.jpg","","","-999.99","6.21","-999.99","-999.99","66d23f25f9835f001a800c70"
"2024-08-30T21:52:52.112Z","45.9166767","-130.0250241","ASNAP","","admin","","","","","","","","","","","","-1.87","1.11","0.0","-1.3","279.95","296.36","0.58","SciCam","/SciCam.20240830_215252112.jpg","PilotCam","/PilotCam.20240830_215252112.jpg","BrowCam","/BrowCam.20240830_215252112.jpg","UserSelect","/UserSelect.20240830_215252112.jpg","","","-999.99","6.07","-999.99","-999.99","66d23f34f9835f001a800c74"
"2024-08-30T21:53:07.143Z","45.9166767","-130.0250240","ASNAP","","admin","","","","","","","","","","","","-1.86","1.12","-0.1","-2.3","280.11","303.60","0.58","SciCam","/SciCam.20240830_215307143.jpg","PilotCam","/PilotCam.20240830_215307143.jpg","BrowCam","/BrowCam.20240830_215307143.jpg","UserSelect","/UserSelect.20240830_215307143.jpg","","","-999.99","5.95","-999.99","-999.99","66d23f43f9835f001a800c78"
"2024-08-30T21:53:22.174Z","45.9166767","-130.0250240","ASNAP","","admin","","","","","","","","","","","","-1.86","1.11","-0.1","-2.8","279.91","310.59","0.58","SciCam","/SciCam.20240830_215322174.jpg","PilotCam","/PilotCam.20240830_215322174.jpg","BrowCam","/BrowCam.20240830_215322174.jpg","UserSelect","/UserSelect.20240830_215322174.jpg","","","-999.99","5.90","-999.99","-999.99","66d23f52f9835f001a800c7c"
"2024-08-30T21:53:37.203Z","45.9166767","-130.0250238","ASNAP","","admin","","","","","","","","","","","","-1.85","1.12","0.1","-3.2","280.32","318.35","0.58","SciCam","/SciCam.20240830_215337203.jpg","PilotCam","/PilotCam.20240830_215337203.jpg","BrowCam","/BrowCam.20240830_215337203.jpg","UserSelect","/UserSelect.20240830_215337203.jpg","","","-999.99","5.93","-999.99","-999.99","66d23f61f9835f001a800c80"
"2024-08-30T21:53:52.234Z","45.9166767","-130.0250238","ASNAP","","admin","","","","","","","","","","","","-1.85","1.11","-0.0","-3.9","279.95","326.59","0.58","SciCam","/SciCam.20240830_215352234.jpg","PilotCam","/PilotCam.20240830_215352234.jpg","BrowCam","/BrowCam.20240830_215352234.jpg","UserSelect","/UserSelect.20240830_215352234.jpg","","","-999.99","5.92","-999.99","-999.99","66d23f70f9835f001a800c84"
"2024-08-30T21:54:07.265Z","45.9166766","-130.0250236","ASNAP","","admin","","","","","","","","","","","","-1.83","1.10","0.5","-4.9","280.11","333.48","0.58","SciCam","/SciCam.20240830_215407265.jpg","PilotCam","/PilotCam.20240830_215407265.jpg","BrowCam","/BrowCam.20240830_215407265.jpg","UserSelect","/UserSelect.20240830_215407265.jpg","","","-999.99","5.72","-999.99","-999.99","66d23f7ff9835f001a800c88"
"2024-08-30T21:54:22.299Z","45.9166767","-130.0250238","ASNAP","","admin","","","","","","","","","","","","-1.85","1.11","-0.2","-3.0","279.90","341.24","0.58","SciCam","/SciCam.20240830_215422299.jpg","PilotCam","/PilotCam.20240830_215422299.jpg","BrowCam","/BrowCam.20240830_215422299.jpg","UserSelect","/UserSelect.20240830_215422299.jpg","","","-999.99","5.82","-999.99","-999.99","66d23f8ef9835f001a800c8c"
"2024-08-30T21:54:37.329Z","45.9166767","-130.0250240","ASNAP","","admin","","","","","","","","","","","","-1.86","1.11","-0.0","-2.5","279.86","348.50","0.58","SciCam","/SciCam.20240830_215437329.jpg","PilotCam","/PilotCam.20240830_215437329.jpg","BrowCam","/BrowCam.20240830_215437329.jpg","UserSelect","/UserSelect.20240830_215437329.jpg","","","-999.99","5.61","-999.99","-999.99","66d23f9df9835f001a800c90"
"2024-08-30T21:54:52.357Z","45.9166766","-130.0250241","ASNAP","","admin","","","","","","","","","","","","-1.87","1.10","-0.0","-1.9","279.65","356.36","0.58","SciCam","/SciCam.20240830_215452357.jpg","PilotCam","/PilotCam.20240830_215452357.jpg","BrowCam","/BrowCam.20240830_215452357.jpg","UserSelect","/UserSelect.20240830_215452357.jpg","","","-999.99","5.58","-999.99","-999.99","66d23facf9835f001a800c94"
"2024-08-30T21:55:07.381Z","45.9166767","-130.0250238","ASNAP","","admin","","","","","","","","","","","","-1.85","1.11","0.1","-3.9","280.00","363.47","0.58","SciCam","/SciCam.20240830_215507381.jpg","PilotCam","/PilotCam.20240830_215507381.jpg","BrowCam","/BrowCam.20240830_215507381.jpg","UserSelect","/UserSelect.20240830_215507381.jpg","","","-999.99","5.64","-999.99","-999.99","66d23fbbf9835f001a800c98"
"2024-08-30T21:55:22.397Z","45.9166767","-130.0250238","ASNAP","","admin","","","","","","","","","","","","-1.85","1.11","-0.4","-2.8","280.02","371.46","0.58","SciCam","/SciCam.20240830_215522397.jpg","PilotCam","/PilotCam.20240830_215522397.jpg","BrowCam","/BrowCam.20240830_215522397.jpg","UserSelect","/UserSelect.20240830_215522397.jpg","","","-999.99","5.57","-999.99","-999.99","66d23fcaf9835f001a800c9c"
"2024-08-30T21:55:37.429Z","45.9166767","-130.0250238","ASNAP","","admin","","","","","","","","","","","","-1.85","1.11","0.0","-3.2","280.04","378.50","0.58","SciCam","/SciCam.20240830_215537429.jpg","PilotCam","/PilotCam.20240830_215537429.jpg","BrowCam","/BrowCam.20240830_215537429.jpg","UserSelect","/UserSelect.20240830_215537429.jpg","","","-999.99","5.53","-999.99","-999.99","66d23fd9f9835f001a800ca0"
"2024-08-30T21:55:52.461Z","45.9166767","-130.0250238","ASNAP","","admin","","","","","","","","","","","","-1.85","1.11","-0.4","-2.4","279.98","385.69","0.58","SciCam","/SciCam.20240830_215552461.jpg","PilotCam","/PilotCam.20240830_215552461.jpg","BrowCam","/BrowCam.20240830_215552461.jpg","UserSelect","/UserSelect.20240830_215552461.jpg","","","-999.99","5.54","-999.99","-999.99","66d23fe8f9835f001a800ca4"
"2024-08-30T21:56:07.494Z","45.9166765","-130.0250242","ASNAP","","admin","","","","","","","","","","","","-1.88","1.09","0.3","-0.9","279.66","393.88","0.58","SciCam","/SciCam.20240830_215607494.jpg","PilotCam","/PilotCam.20240830_215607494.jpg","BrowCam","/BrowCam.20240830_215607494.jpg","UserSelect","/UserSelect.20240830_215607494.jpg","","","-999.99","5.41","-999.99","-999.99","66d23ff7f9835f001a800ca8"
"2024-08-30T21:56:22.526Z","45.9166766","-130.0250237","ASNAP","","admin","","","","","","","","","","","","-1.84","1.10","-0.1","-4.6","279.81","401.77","0.58","SciCam","/SciCam.20240830_215622526.jpg","PilotCam","/PilotCam.20240830_215622526.jpg","BrowCam","/BrowCam.20240830_215622526.jpg","UserSelect","/UserSelect.20240830_215622526.jpg","","","-999.99","5.58","-999.99","-999.99","66d24006f9835f001a800cac"
"2024-08-30T21:56:37.555Z","45.9166767","-130.0250240","ASNAP","","admin","","","","","","","","","","","","-1.86","1.11","-0.2","-2.4","279.88","408.60","0.58","SciCam","/SciCam.20240830_215637555.jpg","PilotCam","/PilotCam.20240830_215637555.jpg","BrowCam","/BrowCam.20240830_215637555.jpg","UserSelect","/UserSelect.20240830_215637555.jpg","","","-999.99","5.40","-999.99","-999.99","66d24015f9835f001a800cb0"
"2024-08-30T21:56:52.587Z","45.9166767","-130.0250241","ASNAP","","admin","","","","","","","","","","","","-1.87","1.11","0.5","-0.5","280.05","415.61","0.58","SciCam","/SciCam.20240830_215652587.jpg","PilotCam","/PilotCam.20240830_215652587.jpg","BrowCam","/BrowCam.20240830_215652587.jpg","UserSelect","/UserSelect.20240830_215652587.jpg","","","-999.99","5.34","-999.99","-999.99","66d24024f9835f001a800cb4"
"2024-08-30T21:57:07.618Z","45.9166768","-130.0250237","ASNAP","","admin","","","","","","","","","","","","-1.84","1.13","0.0","-4.3","280.39","424.03","0.58","SciCam","/SciCam.20240830_215707618.jpg","PilotCam","/PilotCam.20240830_215707618.jpg","BrowCam","/BrowCam.20240830_215707618.jpg","UserSelect","/UserSelect.20240830_215707618.jpg","","","-999.99","5.37","-999.99","-999.99","66d24033f9835f001a800cb8"
"2024-08-30T21:57:22.651Z","45.9166767","-130.0250238","ASNAP","","admin","","","","","","","","","","","","-1.85","1.11","-0.1","-3.3","279.99","431.04","0.58","SciCam","/SciCam.20240830_215722651.jpg","PilotCam","/PilotCam.20240830_215722651.jpg","BrowCam","/BrowCam.20240830_215722651.jpg","UserSelect","/UserSelect.20240830_215722651.jpg","","","-999.99","5.33","-999.99","-999.99","66d24042f9835f001a800cbc"
"2024-08-30T21:57:37.682Z","45.9166767","-130.0250238","ASNAP","","admin","","","","","","","","","","","","-1.85","1.11","-0.7","-3.5","279.82","438.45","0.58","SciCam","/SciCam.20240830_215737682.jpg","PilotCam","/PilotCam.20240830_215737682.jpg","BrowCam","/BrowCam.20240830_215737682.jpg","UserSelect","/UserSelect.20240830_215737682.jpg","","","-999.99","5.33","-999.99","-999.99","66d24051f9835f001a800cc0"
"2024-08-30T21:57:52.716Z","45.9166862","-130.0250171","ASNAP","","admin","","","","","","","","","","","","-1.33","2.17","-1.0","-2.4","306.83","445.69","0.58","SciCam","/SciCam.20240830_215752716.jpg","PilotCam","/PilotCam.20240830_215752716.jpg","BrowCam","/BrowCam.20240830_215752716.jpg","UserSelect","/UserSelect.20240830_215752716.jpg","","","-999.99","5.34","-999.99","-999.99","66d24060f9835f001a800cc4"
"2024-08-30T21:58:07.749Z","45.9166558","-130.0249763","ASNAP","","admin","","","","","","","","","","","","1.84","-1.21","-0.5","-1.5","101.96","453.30","0.58","SciCam","/SciCam.20240830_215807749.jpg","PilotCam","/PilotCam.20240830_215807749.jpg","BrowCam","/BrowCam.20240830_215807749.jpg","UserSelect","/UserSelect.20240830_215807749.jpg","","","-999.99","5.13","-999.99","-999.99","66d2406ff9835f001a800cc8"
"2024-08-30T21:58:22.781Z","45.9166619","-130.0250255","ASNAP","","admin","","","","","","","","","","","","-1.98","-0.53","0.2","-2.3","250.83","461.77","0.58","SciCam","/SciCam.20240830_215822781.jpg","PilotCam","/PilotCam.20240830_215822781.jpg","BrowCam","/BrowCam.20240830_215822781.jpg","UserSelect","/UserSelect.20240830_215822781.jpg","","","-999.99","5.16","-999.99","-999.99","66d2407ef9835f001a800ccc"
"2024-08-30T21:58:37.811Z","45.9166834","-130.0249805","ASNAP","","admin","","","","","","","","","","","","1.51","1.86","-0.7","-4.2","39.96","468.41","0.58","SciCam","/SciCam.20240830_215837811.jpg","PilotCam","/PilotCam.20240830_215837811.jpg","BrowCam","/BrowCam.20240830_215837811.jpg","UserSelect","/UserSelect.20240830_215837811.jpg","","","-999.99","5.14","-999.99","-999.99","66d2408df9835f001a800cd0"
"2024-08-30T21:58:52.839Z","45.9166427","-130.0250103","ASNAP","","admin","","","","","","","","","","","","-0.80","-2.66","-0.6","-2.2","191.74","475.75","0.58","SciCam","/SciCam.20240830_215852839.jpg","PilotCam","/PilotCam.20240830_215852839.jpg","BrowCam","/BrowCam.20240830_215852839.jpg","UserSelect","/UserSelect.20240830_215852839.jpg","","","-999.99","5.07","-999.99","-999.99","66d2409cf9835f001a800cd4"
"2024-08-30T21:59:07.874Z","45.9166926","-130.0250030","ASNAP","","admin","","","","","","","","","","","","-0.23","2.88","-0.0","-2.3","340.88","484.16","0.58","SciCam","/SciCam.20240830_215907874.jpg","PilotCam","/PilotCam.20240830_215907874.jpg","BrowCam","/BrowCam.20240830_215907874.jpg","UserSelect","/UserSelect.20240830_215907874.jpg","","","-999.99","5.06","-999.99","-999.99","66d240abf9835f001a800cd8"
"2024-08-30T21:59:22.906Z","45.9166461","-130.0249841","ASNAP","","admin","","","","","","","","","","","","1.23","-2.29","-1.8","-2.8","130.32","491.86","0.58","SciCam","/SciCam.20240830_215922906.jpg","PilotCam","/PilotCam.20240830_215922906.jpg","BrowCam","/BrowCam.20240830_215922906.jpg","UserSelect","/UserSelect.20240830_215922906.jpg","","","-999.99","5.06","-999.99","-999.99","66d240baf9835f001a800cdc"
"2024-08-30T21:59:37.939Z","45.9166755","-130.0250244","ASNAP","","admin","","","","","","","","","","","","-1.89","0.98","0.4","-2.7","279.39","499.15","0.58","SciCam","/SciCam.20240830_215937939.jpg","PilotCam","/PilotCam.20240830_215937939.jpg","BrowCam","/BrowCam.20240830_215937939.jpg","UserSelect","/UserSelect.20240830_215937939.jpg","","","-999.99","4.97","-999.99","-999.99","66d240c9f9835f001a800ce0"
"2024-08-30T21:59:52.973Z","45.9166770","-130.0250240","ASNAP","","admin","","","","","","","","","","","","-1.86","1.15","0.4","-0.7","280.92","505.44","0.58","SciCam","/SciCam.20240830_215952973.jpg","PilotCam","/PilotCam.20240830_215952973.jpg","BrowCam","/BrowCam.20240830_215952973.jpg","UserSelect","/UserSelect.20240830_215952973.jpg","","","-999.99","4.97","-999.99","-999.99","66d240d8f9835f001a800ce4"
"2024-08-30T22:00:08.008Z","45.9166767","-130.0250238","ASNAP","","admin","","","","","","","","","","","","-1.85","1.11","-0.1","-3.4","279.97","514.06","0.58","SciCam","/SciCam.20240830_220008008.jpg","PilotCam","/PilotCam.20240830_220008008.jpg","BrowCam","/BrowCam.20240830_220008008.jpg","UserSelect","/UserSelect.20240830_220008008.jpg","","","-999.99","5.07","-999.99","-999.99","66d240e8f9835f001a800ce8"
"2024-08-30T22:00:23.000Z","","","SulisCam","","admin","","","sulis_20240830220023.jpg","","","","","","","","","","","","","","","","","","","","","","","","-4.980","-0.023","","","","","66d4c7d3f9835f001a80b2bf"
"2024-08-30T22:00:23.037Z","45.9166766","-130.0250237","ASNAP","","admin","","","","","","","","","","","","-1.84","1.10","-0.0","-5.0","279.94","521.46","0.58","SciCam","/SciCam.20240830_220023037.jpg","PilotCam","/PilotCam.20240830_220023037.jpg","BrowCam","/BrowCam.20240830_220023037.jpg","UserSelect","/UserSelect.20240830_220023037.jpg","","","-999.99","4.85","-999.99","-999.99","66d240f7f9835f001a800cec"
"2024-08-30T22:00:38.070Z","45.9166767","-130.0250238","ASNAP","","admin","","","","","","","","","","","","-1.85","1.11","0.0","-3.4","279.98","527.64","0.58","SciCam","/SciCam.20240830_220038070.jpg","PilotCam","/PilotCam.20240830_220038070.jpg","BrowCam","/BrowCam.20240830_220038070.jpg","UserSelect","/UserSelect.20240830_220038070.jpg","","","-999.99","4.97","-999.99","-999.99","66d24106f9835f001a800cf0"
"2024-08-30T22:00:53.100Z","45.9166767","-130.0250238","ASNAP","","admin","","","","","","","","","","","","-1.85","1.11","-0.2","-3.0","280.08","535.47","0.58","SciCam","/SciCam.20240830_220053100.jpg","PilotCam","/PilotCam.20240830_220053100.jpg","BrowCam","/BrowCam.20240830_220053100.jpg","UserSelect","/UserSelect.20240830_220053100.jpg","","","-999.99","4.89","-999.99","-999.99","66d24115f9835f001a800cf4"
"2024-08-30T22:01:08.133Z","45.9166766","-130.0250241","ASNAP","","admin","","","","","","","","","","","","-1.87","1.10","-0.2","-1.6","279.79","544.82","0.58","SciCam","/SciCam.20240830_220108133.jpg","PilotCam","/PilotCam.20240830_220108133.jpg","BrowCam","/BrowCam.20240830_220108133.jpg","UserSelect","/UserSelect.20240830_220108133.jpg","","","-999.99","4.88","-999.99","-999.99","66d24124f9835f001a800cf8"
"2024-08-30T22:01:23.162Z","45.9166767","-130.0250240","ASNAP","","admin","","","","","","","","","","","","-1.86","1.11","-0.2","-2.2","280.05","551.14","0.58","SciCam","/SciCam.20240830_220123162.jpg","PilotCam","/PilotCam.20240830_220123162.jpg","BrowCam","/BrowCam.20240830_220123162.jpg","UserSelect","/UserSelect.20240830_220123162.jpg","","","-999.99","4.92","-999.99","-999.99","66d24133f9835f001a800cfc"
"2024-08-30T22:01:38.194Z","45.9166766","-130.0250240","ASNAP","","admin","","","","","","","","","","","","-1.86","1.10","-0.3","-2.6","279.77","557.90","0.58","SciCam","/SciCam.20240830_220138194.jpg","PilotCam","/PilotCam.20240830_220138194.jpg","BrowCam","/BrowCam.20240830_220138194.jpg","UserSelect","/UserSelect.20240830_220138194.jpg","","","-999.99","4.79","-999.99","-999.99","66d24142f9835f001a800d00"
"2024-08-30T22:01:53.225Z","45.9166767","-130.0250241","ASNAP","","admin","","","","","","","","","","","","-1.87","1.11","-0.1","-1.2","279.91","566.09","0.58","SciCam","/SciCam.20240830_220153225.jpg","PilotCam","/PilotCam.20240830_220153225.jpg","BrowCam","/BrowCam.20240830_220153225.jpg","UserSelect","/UserSelect.20240830_220153225.jpg","","","-999.99","4.87","-999.99","-999.99","66d24151f9835f001a800d04"
"2024-08-30T22:02:08.256Z","45.9166767","-130.0250238","ASNAP","","admin","","","","","","","","","","","","-1.85","1.11","-0.3","-3.2","279.84","573.68","0.58","SciCam","/SciCam.20240830_220208256.jpg","PilotCam","/PilotCam.20240830_220208256.jpg","BrowCam","/BrowCam.20240830_220208256.jpg","UserSelect","/UserSelect.20240830_220208256.jpg","","","-999.99","4.83","-999.99","-999.99","66d24160f9835f001a800d08"
"2024-08-30T22:02:23.287Z","45.9166767","-130.0250238","ASNAP","","admin","","","","","","","","","","","","-1.85","1.12","-0.6","-3.5","280.10","580.41","0.58","SciCam","/SciCam.20240830_220223287.jpg","PilotCam","/PilotCam.20240830_220223287.jpg","BrowCam","/BrowCam.20240830_220223287.jpg","UserSelect","/UserSelect.20240830_220223287.jpg","","","-999.99","4.68","-999.99","-999.99","66d2416ff9835f001a800d0c"
"2024-08-30T22:02:38.319Z","45.9166767","-130.0250238","ASNAP","","admin","","","","","","","","","","","","-1.85","1.12","-0.1","-3.2","280.28","588.04","0.58","SciCam","/SciCam.20240830_220238319.jpg","PilotCam","/PilotCam.20240830_220238319.jpg","BrowCam","/BrowCam.20240830_220238319.jpg","UserSelect","/UserSelect.20240830_220238319.jpg","","","-999.99","4.85","-999.99","-999.99","66d2417ef9835f001a800d10"
"2024-08-30T22:02:53.349Z","45.9166767","-130.0250237","ASNAP","","admin","","","","","","","","","","","","-1.84","1.12","-0.3","-3.4","280.06","595.05","0.58","SciCam","/SciCam.20240830_220253349.jpg","PilotCam","/PilotCam.20240830_220253349.jpg","BrowCam","/BrowCam.20240830_220253349.jpg","UserSelect","/UserSelect.20240830_220253349.jpg","","","-999.99","4.48","-999.99","-999.99","66d2418df9835f001a800d14"
"2024-08-30T22:03:08.379Z","45.9166766","-130.0250238","ASNAP","","admin","","","","","","","","","","","","-1.85","1.10","-0.4","-4.4","279.65","603.37","0.58","SciCam","/SciCam.20240830_220308379.jpg","PilotCam","/PilotCam.20240830_220308379.jpg","BrowCam","/BrowCam.20240830_220308379.jpg","UserSelect","/UserSelect.20240830_220308379.jpg","","","-999.99","4.45","-999.99","-999.99","66d2419cf9835f001a800d18"
"2024-08-30T22:03:23.409Z","45.9166767","-130.0250241","ASNAP","","admin","","","","","","","","","","","","-1.87","1.12","-0.2","-0.9","280.17","610.55","0.58","SciCam","/SciCam.20240830_220323409.jpg","PilotCam","/PilotCam.20240830_220323409.jpg","BrowCam","/BrowCam.20240830_220323409.jpg","UserSelect","/UserSelect.20240830_220323409.jpg","","","-999.99","4.71","-999.99","-999.99","66d241abf9835f001a800d1c"
"2024-08-30T22:03:38.441Z","45.9166767","-130.0250238","ASNAP","","admin","","","","","","","","","","","","-1.85","1.11","-0.6","-3.0","279.88","618.38","0.58","SciCam","/SciCam.20240830_220338441.jpg","PilotCam","/PilotCam.20240830_220338441.jpg","BrowCam","/BrowCam.20240830_220338441.jpg","UserSelect","/UserSelect.20240830_220338441.jpg","","","-999.99","4.62","-999.99","-999.99","66d241baf9835f001a800d20"
"2024-08-30T22:03:53.473Z","45.9166767","-130.0250238","ASNAP","","admin","","","","","","","","","","","","-1.85","1.12","-0.5","-2.9","280.04","624.96","0.58","SciCam","/SciCam.20240830_220353473.jpg","PilotCam","/PilotCam.20240830_220353473.jpg","BrowCam","/BrowCam.20240830_220353473.jpg","UserSelect","/UserSelect.20240830_220353473.jpg","","","-999.99","4.62","-999.99","-999.99","66d241c9f9835f001a800d24"
"2024-08-30T22:04:08.499Z","45.9166767","-130.0250240","ASNAP","","admin","","","","","","","","","","","","-1.86","1.12","-0.6","-2.1","279.99","632.67","0.58","SciCam","/SciCam.20240830_220408499.jpg","PilotCam","/PilotCam.20240830_220408499.jpg","BrowCam","/BrowCam.20240830_220408499.jpg","UserSelect","/UserSelect.20240830_220408499.jpg","","","-999.99","4.48","-999.99","-999.99","66d241d8f9835f001a800d28"
"2024-08-30T22:04:23.530Z","45.9166767","-130.0250237","ASNAP","","admin","","","","","","","","","","","","-1.84","1.12","-0.5","-3.7","280.18","640.10","0.58","SciCam","/SciCam.20240830_220423530.jpg","PilotCam","/PilotCam.20240830_220423530.jpg","BrowCam","/BrowCam.20240830_220423530.jpg","UserSelect","/UserSelect.20240830_220423530.jpg","","","-999.99","4.47","-999.99","-999.99","66d241e7f9835f001a800d2c"
"2024-08-30T22:04:38.551Z","45.9166767","-130.0250238","ASNAP","","admin","","","","","","","","","","","","-1.85","1.11","-0.4","-3.4","280.03","648.22","0.58","SciCam","/SciCam.20240830_220438551.jpg","PilotCam","/PilotCam.20240830_220438551.jpg","BrowCam","/BrowCam.20240830_220438551.jpg","UserSelect","/UserSelect.20240830_220438551.jpg","","","-999.99","4.42","-999.99","-999.99","66d241f6f9835f001a800d30"
"2024-08-30T22:04:53.581Z","45.9166767","-130.0250237","ASNAP","","admin","","","","","","","","","","","","-1.84","1.12","-0.6","-4.3","280.09","654.95","0.58","SciCam","/SciCam.20240830_220453581.jpg","PilotCam","/PilotCam.20240830_220453581.jpg","BrowCam","/BrowCam.20240830_220453581.jpg","UserSelect","/UserSelect.20240830_220453581.jpg","","","-999.99","4.45","-999.99","-999.99","66d24205f9835f001a800d34"
"2024-08-30T22:05:08.609Z","45.9166767","-130.0250238","ASNAP","","admin","","","","","","","","","","","","-1.85","1.11","-0.4","-2.9","279.96","661.54","0.58","SciCam","/SciCam.20240830_220508609.jpg","PilotCam","/PilotCam.20240830_220508609.jpg","BrowCam","/BrowCam.20240830_220508609.jpg","UserSelect","/UserSelect.20240830_220508609.jpg","","","-999.99","4.42","-999.99","-999.99","66d24214f9835f001a800d38"
"2024-08-30T22:05:23.628Z","45.9166767","-130.0250240","ASNAP","","admin","","","","","","","","","","","","-1.86","1.12","-0.4","-2.4","280.03","669.24","0.58","SciCam","/SciCam.20240830_220523628.jpg","PilotCam","/PilotCam.20240830_220523628.jpg","BrowCam","/BrowCam.20240830_220523628.jpg","UserSelect","/UserSelect.20240830_220523628.jpg","","","-999.99","4.30","-999.99","-999.99","66d24223f9835f001a800d3c"
"2024-08-30T22:05:38.661Z","45.9166766","-130.0250238","ASNAP","","admin","","","","","","","","","","","","-1.85","1.10","-0.1","-3.5","279.76","677.23","0.58","SciCam","/SciCam.20240830_220538661.jpg","PilotCam","/PilotCam.20240830_220538661.jpg","BrowCam","/BrowCam.20240830_220538661.jpg","UserSelect","/UserSelect.20240830_220538661.jpg","","","-999.99","4.37","-999.99","-999.99","66d24232f9835f001a800d40"
"2024-08-30T22:05:53.694Z","45.9166767","-130.0250240","ASNAP","","admin","","","","","","","","","","","","-1.86","1.11","-0.2","-2.2","279.98","684.96","0.58","SciCam","/SciCam.20240830_220553694.jpg","PilotCam","/PilotCam.20240830_220553694.jpg","BrowCam","/BrowCam.20240830_220553694.jpg","UserSelect","/UserSelect.20240830_220553694.jpg","","","-999.99","4.35","-999.99","-999.99","66d24241f9835f001a800d44"
"2024-08-30T22:06:08.725Z","45.9166767","-130.0250237","ASNAP","","admin","","","","","","","","","","","","-1.84","1.12","-0.4","-4.1","280.13","692.39","0.58","SciCam","/SciCam.20240830_220608725.jpg","PilotCam","/PilotCam.20240830_220608725.jpg","BrowCam","/BrowCam.20240830_220608725.jpg","UserSelect","/UserSelect.20240830_220608725.jpg","","","-999.99","4.13","-999.99","-999.99","66d24250f9835f001a800d48"
"2024-08-30T22:06:23.757Z","45.9166767","-130.0250241","ASNAP","","admin","","","","","","","","","","","","-1.87","1.12","0.2","-0.7","280.14","698.50","0.58","SciCam","/SciCam.20240830_220623757.jpg","PilotCam","/PilotCam.20240830_220623757.jpg","BrowCam","/BrowCam.20240830_220623757.jpg","UserSelect","/UserSelect.20240830_220623757.jpg","","","-999.99","4.13","-999.99","-999.99","66d2425ff9835f001a800d4c"
"2024-08-30T22:06:38.791Z","45.9166767","-130.0250237","ASNAP","","admin","","","","","","","","","","","","-1.84","1.12","-0.2","-3.9","280.19","705.53","0.58","SciCam","/SciCam.20240830_220638791.jpg","PilotCam","/PilotCam.20240830_220638791.jpg","BrowCam","/BrowCam.20240830_220638791.jpg","UserSelect","/UserSelect.20240830_220638791.jpg","","","-999.99","4.33","-999.99","-999.99","66d2426ef9835f001a800d50"
"2024-08-30T22:06:53.819Z","45.9166768","-130.0250240","ASNAP","","admin","","","","","","","","","","","","-1.86","1.13","0.1","-1.5","280.46","714.53","0.58","SciCam","/SciCam.20240830_220653819.jpg","PilotCam","/PilotCam.20240830_220653819.jpg","BrowCam","/BrowCam.20240830_220653819.jpg","UserSelect","/UserSelect.20240830_220653819.jpg","","","-999.99","4.25","-999.99","-999.99","66d2427df9835f001a800d54"
"2024-08-30T22:07:08.851Z","45.9166767","-130.0250240","ASNAP","","admin","","","","","","","","","","","","-1.86","1.11","-0.5","-2.2","279.99","722.79","0.58","SciCam","/SciCam.20240830_220708851.jpg","PilotCam","/PilotCam.20240830_220708851.jpg","BrowCam","/BrowCam.20240830_220708851.jpg","UserSelect","/UserSelect.20240830_220708851.jpg","","","-999.99","4.08","-999.99","-999.99","66d2428cf9835f001a800d58"
"2024-08-30T22:07:23.884Z","45.9166768","-130.0250238","ASNAP","","admin","","","","","","","","","","","","-1.85","1.13","-0.2","-2.8","280.40","728.65","0.58","SciCam","/SciCam.20240830_220723884.jpg","PilotCam","/PilotCam.20240830_220723884.jpg","BrowCam","/BrowCam.20240830_220723884.jpg","UserSelect","/UserSelect.20240830_220723884.jpg","","","-999.99","4.14","-999.99","-999.99","66d2429bf9835f001a800d5c"
"2024-08-30T22:07:38.919Z","45.9166767","-130.0250240","ASNAP","","admin","","","","","","","","","","","","-1.86","1.12","-0.3","-2.6","280.07","736.36","0.58","SciCam","/SciCam.20240830_220738919.jpg","PilotCam","/PilotCam.20240830_220738919.jpg","BrowCam","/BrowCam.20240830_220738919.jpg","UserSelect","/UserSelect.20240830_220738919.jpg","","","-999.99","4.12","-999.99","-999.99","66d242aaf9835f001a800d60"
"2024-08-30T22:07:53.943Z","45.9166767","-130.0250237","ASNAP","","admin","","","","","","","","","","","","-1.84","1.12","-0.2","-3.8","280.19","744.01","0.58","SciCam","/SciCam.20240830_220753943.jpg","PilotCam","/PilotCam.20240830_220753943.jpg","BrowCam","/BrowCam.20240830_220753943.jpg","UserSelect","/UserSelect.20240830_220753943.jpg","","","-999.99","4.20","-999.99","-999.99","66d242b9f9835f001a800d64"
"2024-08-30T22:08:08.971Z","45.9166768","-130.0250241","ASNAP","","admin","","","","","","","","","","","","-1.87","1.13","-0.2","-0.6","280.39","751.51","0.58","SciCam","/SciCam.20240830_220808971.jpg","PilotCam","/PilotCam.20240830_220808971.jpg","BrowCam","/BrowCam.20240830_220808971.jpg","UserSelect","/UserSelect.20240830_220808971.jpg","","","-999.99","4.17","-999.99","-999.99","66d242c8f9835f001a800d68"
"2024-08-30T22:08:24.003Z","45.9166767","-130.0250238","ASNAP","","admin","","","","","","","","","","","","-1.85","1.12","-0.6","-2.8","280.10","759.77","0.58","SciCam","/SciCam.20240830_220824003.jpg","PilotCam","/PilotCam.20240830_220824003.jpg","BrowCam","/BrowCam.20240830_220824003.jpg","UserSelect","/UserSelect.20240830_220824003.jpg","","","-999.99","4.14","-999.99","-999.99","66d242d8f9835f001a800d6c"
"2024-08-30T22:08:39.040Z","45.9166767","-130.0250238","ASNAP","","admin","","","","","","","","","","","","-1.85","1.12","-0.4","-3.7","280.12","765.72","0.58","SciCam","/SciCam.20240830_220839040.jpg","PilotCam","/PilotCam.20240830_220839040.jpg","BrowCam","/BrowCam.20240830_220839040.jpg","UserSelect","/UserSelect.20240830_220839040.jpg","","","-999.99","4.10","-999.99","-999.99","66d242e7f9835f001a800d70"
"2024-08-30T22:08:54.070Z","45.9166768","-130.0250240","ASNAP","","admin","","","","","","","","","","","","-1.86","1.13","0.0","-0.8","280.41","771.67","0.58","SciCam","/SciCam.20240830_220854070.jpg","PilotCam","/PilotCam.20240830_220854070.jpg","BrowCam","/BrowCam.20240830_220854070.jpg","UserSelect","/UserSelect.20240830_220854070.jpg","","","-999.99","4.11","-999.99","-999.99","66d242f6f9835f001a800d74"
"2024-08-30T22:09:09.101Z","45.9166768","-130.0250238","ASNAP","","admin","","","","","","","","","","","","-1.85","1.13","-0.3","-2.2","280.28","781.31","0.58","SciCam","/SciCam.20240830_220909101.jpg","PilotCam","/PilotCam.20240830_220909101.jpg","BrowCam","/BrowCam.20240830_220909101.jpg","UserSelect","/UserSelect.20240830_220909101.jpg","","","-999.99","4.18","-999.99","-999.99","66d24305f9835f001a800d78"
"2024-08-30T22:09:24.132Z","45.9166767","-130.0250238","ASNAP","","admin","","","","","","","","","","","","-1.85","1.11","-0.0","-2.9","280.09","789.18","0.58","SciCam","/SciCam.20240830_220924132.jpg","PilotCam","/PilotCam.20240830_220924132.jpg","BrowCam","/BrowCam.20240830_220924132.jpg","UserSelect","/UserSelect.20240830_220924132.jpg","","","-999.99","4.10","-999.99","-999.99","66d24314f9835f001a800d7c"
