Date/Time (UTC),vehicleRealtimeNavData.latitude (ddeg),vehicleRealtimeNavData.longitude (ddeg),event_value,event_free_text,event_author,event_option.milestone,event_option.filename,event_option.actions,event_option.type,event_option.highlights,event_option.cabled_plug,event_option.dummy_plug,event_option.event_comment,event_option.nav,vehicleRealtimeNavData.local_x (meters),vehicleRealtimeNavData.local_y (meters),vehicleRealtimeNavData.roll (deg),vehicleRealtimeNavData.pitch (deg),vehicleRealtimeNavData.heading (deg),vehicleRealtimeNavData.depth (meters),vehicleRealtimeNavData.altitude (meters),vehicleRealtimeFramegrabberData.camera_name_1,vehicleRealtimeFramegrabberData.filename_1,vehicleRealtimeFramegrabberData.camera_name_2,vehicleRealtimeFramegrabberData.filename_2,vehicleRealtimeFramegrabberData.camera_name_3,vehicleRealtimeFramegrabberData.filename_3,vehicleRealtimeFramegrabberData.camera_name_4,vehicleRealtimeFramegrabberData.filename_4,vehicleReNavData.pitch (deg),vehicleReNavData.roll (deg),vehicleTemperatureProbe.probe1_temperature (degC),vehicleTemperatureProbe.probe2_temperature (degC),vehicleTemperatureProbe.probe3_temperature (degC),vehicleTemperatureProbe.probe4_temperature (degC),id
"2024-08-16T10:15:13.041Z","44.6336784","-124.3080789","ASNAP","","admin","","","","","","","","","","0.00","0.00","-0.4","-0.6","36.99","0.69","0.00","SciCam","/SciCam.20240816_101513041.jpg","PilotCam","/PilotCam.20240816_101513041.jpg","BrowCam","/BrowCam.20240816_101513041.jpg","UserSelect","/UserSelect.20240816_101513041.jpg","","","-999.99","14.81","-999.99","-999.99","66bf26b1111b2e001a29bc2b"
"2024-08-16T10:15:28.072Z","44.6336784","-124.3080789","ASNAP","","admin","","","","","","","","","","0.00","0.00","-0.1","-0.8","37.53","0.68","0.00","SciCam","/SciCam.20240816_101528072.jpg","PilotCam","/PilotCam.20240816_101528072.jpg","BrowCam","/BrowCam.20240816_101528072.jpg","UserSelect","/UserSelect.20240816_101528072.jpg","","","-999.99","14.85","-999.99","-999.99","66bf26c0111b2e001a29bc2f"
"2024-08-16T10:15:43.102Z","44.6336784","-124.3080789","ASNAP","","admin","","","","","","","","","","0.00","0.00","-0.2","-1.0","37.48","0.70","0.00","SciCam","/SciCam.20240816_101543102.jpg","PilotCam","/PilotCam.20240816_101543102.jpg","BrowCam","/BrowCam.20240816_101543102.jpg","UserSelect","/UserSelect.20240816_101543102.jpg","","","-999.99","14.82","-999.99","-999.99","66bf26cf111b2e001a29bc33"
"2024-08-16T10:15:58.133Z","44.6336784","-124.3080789","ASNAP","","admin","","","","","","","","","","0.00","0.00","-0.2","-0.9","37.66","0.70","0.00","SciCam","/SciCam.20240816_101558133.jpg","PilotCam","/PilotCam.20240816_101558133.jpg","BrowCam","/BrowCam.20240816_101558133.jpg","UserSelect","/UserSelect.20240816_101558133.jpg","","","-999.99","14.84","-999.99","-999.99","66bf26de111b2e001a29bc37"
"2024-08-16T10:16:13.165Z","44.6336784","-124.3080789","ASNAP","","admin","","","","","","","","","","0.00","0.00","-0.2","-1.1","37.67","0.71","0.00","SciCam","/SciCam.20240816_101613165.jpg","PilotCam","/PilotCam.20240816_101613165.jpg","BrowCam","/BrowCam.20240816_101613165.jpg","UserSelect","/UserSelect.20240816_101613165.jpg","","","-999.99","14.83","-999.99","-999.99","66bf26ed111b2e001a29bc3b"
"2024-08-16T10:16:28.192Z","44.6336784","-124.3080789","ASNAP","","admin","","","","","","","","","","0.00","0.00","-0.3","-0.4","37.80","0.71","0.00","SciCam","/SciCam.20240816_101628192.jpg","PilotCam","/PilotCam.20240816_101628192.jpg","BrowCam","/BrowCam.20240816_101628192.jpg","UserSelect","/UserSelect.20240816_101628192.jpg","","","-999.99","14.86","-999.99","-999.99","66bf26fc111b2e001a29bc3f"
"2024-08-16T10:16:43.222Z","44.6336784","-124.3080789","ASNAP","","admin","","","","","","","","","","0.00","0.00","-0.2","-0.8","37.74","0.72","0.00","SciCam","/SciCam.20240816_101643222.jpg","PilotCam","/PilotCam.20240816_101643222.jpg","BrowCam","/BrowCam.20240816_101643222.jpg","UserSelect","/UserSelect.20240816_101643222.jpg","","","-999.99","14.82","-999.99","-999.99","66bf270b111b2e001a29bc43"
"2024-08-16T10:16:58.252Z","44.6336784","-124.3080789","ASNAP","","admin","","","","","","","","","","0.00","0.00","-0.1","-1.1","37.05","0.72","0.00","SciCam","/SciCam.20240816_101658252.jpg","PilotCam","/PilotCam.20240816_101658252.jpg","BrowCam","/BrowCam.20240816_101658252.jpg","UserSelect","/UserSelect.20240816_101658252.jpg","","","-999.99","14.84","-999.99","-999.99","66bf271a111b2e001a29bc47"
"2024-08-16T10:17:13.285Z","44.6336784","-124.3080789","ASNAP","","admin","","","","","","","","","","0.00","0.00","-0.5","-1.3","37.76","0.75","0.00","SciCam","/SciCam.20240816_101713285.jpg","PilotCam","/PilotCam.20240816_101713285.jpg","BrowCam","/BrowCam.20240816_101713285.jpg","UserSelect","/UserSelect.20240816_101713285.jpg","","","-999.99","14.85","-999.99","-999.99","66bf2729111b2e001a29bc4b"
"2024-08-16T10:17:28.310Z","44.6336784","-124.3080789","ASNAP","","admin","","","","","","","","","","0.00","0.00","-0.5","-0.6","37.18","0.74","0.00","SciCam","/SciCam.20240816_101728310.jpg","PilotCam","/PilotCam.20240816_101728310.jpg","BrowCam","/BrowCam.20240816_101728310.jpg","UserSelect","/UserSelect.20240816_101728310.jpg","","","-999.99","14.83","-999.99","-999.99","66bf2738111b2e001a29bc4f"
"2024-08-16T10:17:43.337Z","44.6336784","-124.3080789","ASNAP","","admin","","","","","","","","","","0.00","0.00","-0.4","-0.7","37.40","0.74","0.00","SciCam","/SciCam.20240816_101743337.jpg","PilotCam","/PilotCam.20240816_101743337.jpg","BrowCam","/BrowCam.20240816_101743337.jpg","UserSelect","/UserSelect.20240816_101743337.jpg","","","-999.99","14.85","-999.99","-999.99","66bf2747111b2e001a29bc53"
"2024-08-16T10:17:58.365Z","44.6336784","-124.3080789","ASNAP","","admin","","","","","","","","","","0.00","0.00","-0.7","-1.1","37.35","0.76","0.00","SciCam","/SciCam.20240816_101758365.jpg","PilotCam","/PilotCam.20240816_101758365.jpg","BrowCam","/BrowCam.20240816_101758365.jpg","UserSelect","/UserSelect.20240816_101758365.jpg","","","-999.99","14.84","-999.99","-999.99","66bf2756111b2e001a29bc57"
"2024-08-16T10:18:13.389Z","44.6336784","-124.3080789","ASNAP","","admin","","","","","","","","","","0.00","0.00","-0.8","-0.3","37.58","0.76","0.00","SciCam","/SciCam.20240816_101813389.jpg","PilotCam","/PilotCam.20240816_101813389.jpg","BrowCam","/BrowCam.20240816_101813389.jpg","UserSelect","/UserSelect.20240816_101813389.jpg","","","-999.99","14.86","-999.99","-999.99","66bf2765111b2e001a29bc5b"
"2024-08-16T10:18:28.420Z","44.6336784","-124.3080789","ASNAP","","admin","","","","","","","","","","0.00","0.00","-0.2","-1.2","37.92","0.77","0.00","SciCam","/SciCam.20240816_101828420.jpg","PilotCam","/PilotCam.20240816_101828420.jpg","BrowCam","/BrowCam.20240816_101828420.jpg","UserSelect","/UserSelect.20240816_101828420.jpg","","","-999.99","14.84","-999.99","-999.99","66bf2774111b2e001a29bc5f"
"2024-08-16T10:18:43.450Z","44.6336784","-124.3080789","ASNAP","","admin","","","","","","","","","","0.00","0.00","0.0","-0.9","38.26","0.76","0.00","SciCam","/SciCam.20240816_101843450.jpg","PilotCam","/PilotCam.20240816_101843450.jpg","BrowCam","/BrowCam.20240816_101843450.jpg","UserSelect","/UserSelect.20240816_101843450.jpg","","","-999.99","14.85","-999.99","-999.99","66bf2783111b2e001a29bc63"
"2024-08-16T10:18:58.475Z","44.6336784","-124.3080789","ASNAP","","admin","","","","","","","","","","0.00","0.00","-0.1","-1.2","37.60","0.77","0.00","SciCam","/SciCam.20240816_101858475.jpg","PilotCam","/PilotCam.20240816_101858475.jpg","BrowCam","/BrowCam.20240816_101858475.jpg","UserSelect","/UserSelect.20240816_101858475.jpg","","","-999.99","14.86","-999.99","-999.99","66bf2792111b2e001a29bc67"
"2024-08-16T10:19:13.510Z","44.6336784","-124.3080789","ASNAP","","admin","","","","","","","","","","0.00","0.00","-0.6","-0.8","37.83","0.78","0.00","SciCam","/SciCam.20240816_101913510.jpg","PilotCam","/PilotCam.20240816_101913510.jpg","BrowCam","/BrowCam.20240816_101913510.jpg","UserSelect","/UserSelect.20240816_101913510.jpg","","","-999.99","14.87","-999.99","-999.99","66bf27a1111b2e001a29bc6b"
"2024-08-16T10:19:28.541Z","44.6336784","-124.3080789","ASNAP","","admin","","","","","","","","","","0.00","0.00","-0.6","-0.8","38.04","0.78","0.00","SciCam","/SciCam.20240816_101928541.jpg","PilotCam","/PilotCam.20240816_101928541.jpg","BrowCam","/BrowCam.20240816_101928541.jpg","UserSelect","/UserSelect.20240816_101928541.jpg","","","-999.99","14.85","-999.99","-999.99","66bf27b0111b2e001a29bc6f"
"2024-08-16T10:19:43.572Z","44.6336784","-124.3080789","ASNAP","","admin","","","","","","","","","","0.00","0.00","-0.8","-1.1","37.81","0.79","0.00","SciCam","/SciCam.20240816_101943572.jpg","PilotCam","/PilotCam.20240816_101943572.jpg","BrowCam","/BrowCam.20240816_101943572.jpg","UserSelect","/UserSelect.20240816_101943572.jpg","","","-999.99","14.87","-999.99","-999.99","66bf27bf111b2e001a29bc73"
"2024-08-16T10:19:58.602Z","44.6336784","-124.3080789","ASNAP","","admin","","","","","","","","","","0.00","0.00","-0.7","-0.7","37.35","0.78","0.00","SciCam","/SciCam.20240816_101958602.jpg","PilotCam","/PilotCam.20240816_101958602.jpg","BrowCam","/BrowCam.20240816_101958602.jpg","UserSelect","/UserSelect.20240816_101958602.jpg","","","-999.99","14.86","-999.99","-999.99","66bf27ce111b2e001a29bc77"
"2024-08-16T10:20:13.622Z","44.6336784","-124.3080789","ASNAP","","admin","","","","","","","","","","0.00","0.00","-0.3","-0.8","36.79","0.80","0.00","SciCam","/SciCam.20240816_102013622.jpg","PilotCam","/PilotCam.20240816_102013622.jpg","BrowCam","/BrowCam.20240816_102013622.jpg","UserSelect","/UserSelect.20240816_102013622.jpg","","","-999.99","14.86","-999.99","-999.99","66bf27dd111b2e001a29bc7b"
"2024-08-16T10:20:28.655Z","44.6336784","-124.3080789","ASNAP","","admin","","","","","","","","","","0.00","0.00","-0.5","-0.3","37.25","0.78","0.00","SciCam","/SciCam.20240816_102028655.jpg","PilotCam","/PilotCam.20240816_102028655.jpg","BrowCam","/BrowCam.20240816_102028655.jpg","UserSelect","/UserSelect.20240816_102028655.jpg","","","-999.99","14.88","-999.99","-999.99","66bf27ec111b2e001a29bc7f"
"2024-08-16T10:20:43.672Z","44.6336784","-124.3080789","ASNAP","","admin","","","","","","","","","","0.00","0.00","-0.7","-1.0","37.18","0.80","0.00","SciCam","/SciCam.20240816_102043672.jpg","PilotCam","/PilotCam.20240816_102043672.jpg","BrowCam","/BrowCam.20240816_102043672.jpg","UserSelect","/UserSelect.20240816_102043672.jpg","","","-999.99","14.87","-999.99","-999.99","66bf27fb111b2e001a29bc83"
"2024-08-16T10:20:58.699Z","44.6336784","-124.3080789","ASNAP","","admin","","","","","","","","","","0.00","0.00","-0.4","-1.0","37.47","0.80","0.00","SciCam","/SciCam.20240816_102058699.jpg","PilotCam","/PilotCam.20240816_102058699.jpg","BrowCam","/BrowCam.20240816_102058699.jpg","UserSelect","/UserSelect.20240816_102058699.jpg","","","-999.99","14.89","-999.99","-999.99","66bf280a111b2e001a29bc87"
"2024-08-16T10:21:13.732Z","44.6336784","-124.3080789","ASNAP","","admin","","","","","","","","","","0.00","0.00","-0.2","-1.2","37.35","0.81","0.00","SciCam","/SciCam.20240816_102113732.jpg","PilotCam","/PilotCam.20240816_102113732.jpg","BrowCam","/BrowCam.20240816_102113732.jpg","UserSelect","/UserSelect.20240816_102113732.jpg","","","-999.99","14.88","-999.99","-999.99","66bf2819111b2e001a29bc8b"
"2024-08-16T10:21:28.763Z","44.6336784","-124.3080789","ASNAP","","admin","","","","","","","","","","0.00","0.00","-0.1","-0.3","37.48","0.80","0.00","SciCam","/SciCam.20240816_102128763.jpg","PilotCam","/PilotCam.20240816_102128763.jpg","BrowCam","/BrowCam.20240816_102128763.jpg","UserSelect","/UserSelect.20240816_102128763.jpg","","","-999.99","14.89","-999.99","-999.99","66bf2828111b2e001a29bc8f"
"2024-08-16T10:21:43.791Z","44.6336784","-124.3080789","ASNAP","","admin","","","","","","","","","","0.00","0.00","-0.1","-0.4","37.44","0.79","0.00","SciCam","/SciCam.20240816_102143791.jpg","PilotCam","/PilotCam.20240816_102143791.jpg","BrowCam","/BrowCam.20240816_102143791.jpg","UserSelect","/UserSelect.20240816_102143791.jpg","","","-999.99","14.90","-999.99","-999.99","66bf2837111b2e001a29bc93"
"2024-08-16T10:21:58.822Z","44.6336784","-124.3080789","ASNAP","","admin","","","","","","","","","","0.00","0.00","-0.4","-1.2","37.53","0.81","0.00","SciCam","/SciCam.20240816_102158822.jpg","PilotCam","/PilotCam.20240816_102158822.jpg","BrowCam","/BrowCam.20240816_102158822.jpg","UserSelect","/UserSelect.20240816_102158822.jpg","","","-999.99","14.90","-999.99","-999.99","66bf2846111b2e001a29bc97"
"2024-08-16T10:22:13.854Z","44.6336784","-124.3080789","ASNAP","","admin","","","","","","","","","","0.00","0.00","-0.4","-0.8","37.70","0.81","0.00","SciCam","/SciCam.20240816_102213854.jpg","PilotCam","/PilotCam.20240816_102213854.jpg","BrowCam","/BrowCam.20240816_102213854.jpg","UserSelect","/UserSelect.20240816_102213854.jpg","","","-999.99","14.89","-999.99","-999.99","66bf2855111b2e001a29bc9b"
"2024-08-16T10:22:28.887Z","44.6336784","-124.3080789","ASNAP","","admin","","","","","","","","","","0.00","0.00","0.1","-1.1","37.74","0.81","0.00","SciCam","/SciCam.20240816_102228887.jpg","PilotCam","/PilotCam.20240816_102228887.jpg","BrowCam","/BrowCam.20240816_102228887.jpg","UserSelect","/UserSelect.20240816_102228887.jpg","","","-999.99","14.90","-999.99","-999.99","66bf2864111b2e001a29bc9f"
"2024-08-16T10:22:43.920Z","44.6336784","-124.3080789","ASNAP","","admin","","","","","","","","","","0.00","0.00","-0.1","-1.0","37.42","0.81","0.00","SciCam","/SciCam.20240816_102243920.jpg","PilotCam","/PilotCam.20240816_102243920.jpg","BrowCam","/BrowCam.20240816_102243920.jpg","UserSelect","/UserSelect.20240816_102243920.jpg","","","-999.99","14.91","-999.99","-999.99","66bf2873111b2e001a29bca3"
"2024-08-16T10:22:58.953Z","44.6336784","-124.3080789","ASNAP","","admin","","","","","","","","","","0.00","0.00","-0.5","-0.7","37.64","0.82","0.00","SciCam","/SciCam.20240816_102258953.jpg","PilotCam","/PilotCam.20240816_102258953.jpg","BrowCam","/BrowCam.20240816_102258953.jpg","UserSelect","/UserSelect.20240816_102258953.jpg","","","-999.99","14.93","-999.99","-999.99","66bf2882111b2e001a29bca7"
"2024-08-16T10:23:13.985Z","44.6336784","-124.3080789","ASNAP","","admin","","","","","","","","","","0.00","0.00","-1.0","-0.7","37.74","0.83","0.00","SciCam","/SciCam.20240816_102313985.jpg","PilotCam","/PilotCam.20240816_102313985.jpg","BrowCam","/BrowCam.20240816_102313985.jpg","UserSelect","/UserSelect.20240816_102313985.jpg","","","-999.99","14.92","-999.99","-999.99","66bf2891111b2e001a29bcab"
"2024-08-16T10:23:29.015Z","44.6336784","-124.3080789","ASNAP","","admin","","","","","","","","","","0.00","0.00","-0.4","-1.1","37.77","0.82","0.00","SciCam","/SciCam.20240816_102329015.jpg","PilotCam","/PilotCam.20240816_102329015.jpg","BrowCam","/BrowCam.20240816_102329015.jpg","UserSelect","/UserSelect.20240816_102329015.jpg","","","-999.99","14.91","-999.99","-999.99","66bf28a1111b2e001a29bcaf"
"2024-08-16T10:23:44.033Z","44.6336784","-124.3080789","ASNAP","","admin","","","","","","","","","","0.00","0.00","-0.6","-0.7","37.87","0.82","0.00","SciCam","/SciCam.20240816_102344033.jpg","PilotCam","/PilotCam.20240816_102344033.jpg","BrowCam","/BrowCam.20240816_102344033.jpg","UserSelect","/UserSelect.20240816_102344033.jpg","","","-999.99","14.95","-999.99","-999.99","66bf28b0111b2e001a29bcb3"
"2024-08-16T10:23:59.062Z","44.6336784","-124.3080789","ASNAP","","admin","","","","","","","","","","0.00","0.00","-0.2","-1.3","37.96","0.81","0.00","SciCam","/SciCam.20240816_102359062.jpg","PilotCam","/PilotCam.20240816_102359062.jpg","BrowCam","/BrowCam.20240816_102359062.jpg","UserSelect","/UserSelect.20240816_102359062.jpg","","","-999.99","14.92","-999.99","-999.99","66bf28bf111b2e001a29bcb7"
"2024-08-16T10:24:14.088Z","44.6336784","-124.3080789","ASNAP","","admin","","","","","","","","","","0.00","0.00","-0.3","-0.9","37.86","0.83","0.00","SciCam","/SciCam.20240816_102414088.jpg","PilotCam","/PilotCam.20240816_102414088.jpg","BrowCam","/BrowCam.20240816_102414088.jpg","UserSelect","/UserSelect.20240816_102414088.jpg","","","-999.99","14.94","-999.99","-999.99","66bf28ce111b2e001a29bcbb"
"2024-08-16T10:24:29.118Z","44.6336784","-124.3080789","ASNAP","","admin","","","","","","","","","","0.00","0.00","-0.6","-0.3","37.82","0.83","0.00","SciCam","/SciCam.20240816_102429118.jpg","PilotCam","/PilotCam.20240816_102429118.jpg","BrowCam","/BrowCam.20240816_102429118.jpg","UserSelect","/UserSelect.20240816_102429118.jpg","","","-999.99","14.93","-999.99","-999.99","66bf28dd111b2e001a29bcbf"
"2024-08-16T10:24:44.150Z","44.6336784","-124.3080789","ASNAP","","admin","","","","","","","","","","0.00","0.00","-0.1","-0.7","37.96","0.81","0.00","SciCam","/SciCam.20240816_102444150.jpg","PilotCam","/PilotCam.20240816_102444150.jpg","BrowCam","/BrowCam.20240816_102444150.jpg","UserSelect","/UserSelect.20240816_102444150.jpg","","","-999.99","14.92","-999.99","-999.99","66bf28ec111b2e001a29bcc3"
"2024-08-16T10:24:59.180Z","44.6336784","-124.3080789","ASNAP","","admin","","","","","","","","","","0.00","0.00","-0.4","-0.7","37.93","0.82","0.00","SciCam","/SciCam.20240816_102459180.jpg","PilotCam","/PilotCam.20240816_102459180.jpg","BrowCam","/BrowCam.20240816_102459180.jpg","UserSelect","/UserSelect.20240816_102459180.jpg","","","-999.99","14.93","-999.99","-999.99","66bf28fb111b2e001a29bcc7"
"2024-08-16T10:25:14.211Z","44.6336784","-124.3080789","ASNAP","","admin","","","","","","","","","","0.00","0.00","-0.4","-0.3","37.89","0.82","0.00","SciCam","/SciCam.20240816_102514211.jpg","PilotCam","/PilotCam.20240816_102514211.jpg","BrowCam","/BrowCam.20240816_102514211.jpg","UserSelect","/UserSelect.20240816_102514211.jpg","","","-999.99","14.91","-999.99","-999.99","66bf290a111b2e001a29bccb"
"2024-08-16T10:25:29.242Z","44.6336784","-124.3080789","ASNAP","","admin","","","","","","","","","","0.00","0.00","-0.4","-1.2","37.75","0.82","0.00","SciCam","/SciCam.20240816_102529242.jpg","PilotCam","/PilotCam.20240816_102529242.jpg","BrowCam","/BrowCam.20240816_102529242.jpg","UserSelect","/UserSelect.20240816_102529242.jpg","","","-999.99","14.94","-999.99","-999.99","66bf2919111b2e001a29bccf"
"2024-08-16T10:25:44.271Z","44.6336784","-124.3080789","ASNAP","","admin","","","","","","","","","","0.00","0.00","-0.3","-0.3","37.83","0.83","0.00","SciCam","/SciCam.20240816_102544271.jpg","PilotCam","/PilotCam.20240816_102544271.jpg","BrowCam","/BrowCam.20240816_102544271.jpg","UserSelect","/UserSelect.20240816_102544271.jpg","","","-999.99","14.95","-999.99","-999.99","66bf2928111b2e001a29bcd3"
"2024-08-16T10:25:59.302Z","44.6336784","-124.3080789","ASNAP","","admin","","","","","","","","","","0.00","0.00","0.0","-1.1","37.62","0.82","0.00","SciCam","/SciCam.20240816_102559302.jpg","PilotCam","/PilotCam.20240816_102559302.jpg","BrowCam","/BrowCam.20240816_102559302.jpg","UserSelect","/UserSelect.20240816_102559302.jpg","","","-999.99","14.92","-999.99","-999.99","66bf2937111b2e001a29bcd7"
"2024-08-16T10:26:14.333Z","44.6336784","-124.3080789","ASNAP","","admin","","","","","","","","","","0.00","0.00","-0.3","-0.8","37.65","0.84","0.00","SciCam","/SciCam.20240816_102614333.jpg","PilotCam","/PilotCam.20240816_102614333.jpg","BrowCam","/BrowCam.20240816_102614333.jpg","UserSelect","/UserSelect.20240816_102614333.jpg","","","-999.99","14.94","-999.99","-999.99","66bf2946111b2e001a29bcdb"
"2024-08-16T10:26:29.361Z","44.6336784","-124.3080789","ASNAP","","admin","","","","","","","","","","0.00","0.00","0.1","-0.7","37.67","0.83","0.00","SciCam","/SciCam.20240816_102629361.jpg","PilotCam","/PilotCam.20240816_102629361.jpg","BrowCam","/BrowCam.20240816_102629361.jpg","UserSelect","/UserSelect.20240816_102629361.jpg","","","-999.99","14.93","-999.99","-999.99","66bf2955111b2e001a29bcdf"
"2024-08-16T10:26:44.387Z","44.6336784","-124.3080789","ASNAP","","admin","","","","","","","","","","0.00","0.00","-0.8","-1.0","37.59","0.86","0.00","SciCam","/SciCam.20240816_102644387.jpg","PilotCam","/PilotCam.20240816_102644387.jpg","BrowCam","/BrowCam.20240816_102644387.jpg","UserSelect","/UserSelect.20240816_102644387.jpg","","","-999.99","14.92","-999.99","-999.99","66bf2964111b2e001a29bce3"
"2024-08-16T10:26:59.417Z","44.6336784","-124.3080789","ASNAP","","admin","","","","","","","","","","0.00","0.00","-0.2","-1.1","37.68","0.84","0.00","SciCam","/SciCam.20240816_102659417.jpg","PilotCam","/PilotCam.20240816_102659417.jpg","BrowCam","/BrowCam.20240816_102659417.jpg","UserSelect","/UserSelect.20240816_102659417.jpg","","","-999.99","14.95","-999.99","-999.99","66bf2973111b2e001a29bce7"
"2024-08-16T10:27:14.444Z","44.6336784","-124.3080789","ASNAP","","admin","","","","","","","","","","0.00","0.00","-0.0","-0.7","37.59","0.85","0.00","SciCam","/SciCam.20240816_102714444.jpg","PilotCam","/PilotCam.20240816_102714444.jpg","BrowCam","/BrowCam.20240816_102714444.jpg","UserSelect","/UserSelect.20240816_102714444.jpg","","","-999.99","14.93","-999.99","-999.99","66bf2982111b2e001a29bceb"
"2024-08-16T10:27:29.475Z","44.6336784","-124.3080789","ASNAP","","admin","","","","","","","","","","0.00","0.00","-0.3","-0.8","37.50","0.86","0.00","SciCam","/SciCam.20240816_102729475.jpg","PilotCam","/PilotCam.20240816_102729475.jpg","BrowCam","/BrowCam.20240816_102729475.jpg","UserSelect","/UserSelect.20240816_102729475.jpg","","","-999.99","14.96","-999.99","-999.99","66bf2991111b2e001a29bcef"
"2024-08-16T10:27:44.506Z","44.6336784","-124.3080789","ASNAP","","admin","","","","","","","","","","0.00","0.00","0.6","-0.5","37.87","0.82","0.00","SciCam","/SciCam.20240816_102744506.jpg","PilotCam","/PilotCam.20240816_102744506.jpg","BrowCam","/BrowCam.20240816_102744506.jpg","UserSelect","/UserSelect.20240816_102744506.jpg","","","-999.99","14.93","-999.99","-999.99","66bf29a0111b2e001a29bcf3"
"2024-08-16T10:27:59.534Z","44.6336784","-124.3080789","ASNAP","","admin","","","","","","","","","","0.00","0.00","0.0","-0.7","37.45","0.84","0.00","SciCam","/SciCam.20240816_102759534.jpg","PilotCam","/PilotCam.20240816_102759534.jpg","BrowCam","/BrowCam.20240816_102759534.jpg","UserSelect","/UserSelect.20240816_102759534.jpg","","","-999.99","14.91","-999.99","-999.99","66bf29af111b2e001a29bcf7"
"2024-08-16T10:28:14.562Z","44.6336784","-124.3080789","ASNAP","","admin","","","","","","","","","","0.00","0.00","-0.5","-3.0","35.50","0.91","0.00","SciCam","/SciCam.20240816_102814562.jpg","PilotCam","/PilotCam.20240816_102814562.jpg","BrowCam","/BrowCam.20240816_102814562.jpg","UserSelect","/UserSelect.20240816_102814562.jpg","","","-999.99","14.93","-999.99","-999.99","66bf29be111b2e001a29bcfb"
"2024-08-16T10:28:28.899Z","44.6336784","-124.3080789","VEHICLE","","guest","Jason off deck","","","","","","","","","0.00","0.00","-0.7","-2.9","35.51","0.88","0.00","SciCam","/SciCam.20240816_102828899.jpg","PilotCam","/PilotCam.20240816_102828899.jpg","BrowCam","/BrowCam.20240816_102828899.jpg","UserSelect","/UserSelect.20240816_102828899.jpg","","","-999.99","14.96","-999.99","-999.99","66bf29cc111b2e001a29bcff"
"2024-08-16T10:28:29.593Z","44.6336784","-124.3080789","ASNAP","","admin","","","","","","","","","","0.00","0.00","-0.8","-2.0","35.37","0.88","0.00","SciCam","/SciCam.20240816_102829593.jpg","PilotCam","/PilotCam.20240816_102829593.jpg","BrowCam","/BrowCam.20240816_102829593.jpg","UserSelect","/UserSelect.20240816_102829593.jpg","","","-999.99","14.94","-999.99","-999.99","66bf29cd111b2e001a29bd02"
"2024-08-16T10:28:44.619Z","44.6336784","-124.3080789","ASNAP","","admin","","","","","","","","","","0.00","0.00","-0.3","-0.9","47.90","0.83","0.00","SciCam","/SciCam.20240816_102844619.jpg","PilotCam","/PilotCam.20240816_102844619.jpg","BrowCam","/BrowCam.20240816_102844619.jpg","UserSelect","/UserSelect.20240816_102844619.jpg","","","-999.99","14.95","-999.99","-999.99","66bf29dc111b2e001a29bd07"
"2024-08-16T10:28:59.650Z","44.6336784","-124.3080789","ASNAP","","admin","","","","","","","","","","0.00","0.00","-0.7","-0.8","103.28","0.86","0.00","SciCam","/SciCam.20240816_102859650.jpg","PilotCam","/PilotCam.20240816_102859650.jpg","BrowCam","/BrowCam.20240816_102859650.jpg","UserSelect","/UserSelect.20240816_102859650.jpg","","","-999.99","14.93","-999.99","-999.99","66bf29eb111b2e001a29bd0b"
"2024-08-16T10:29:14.666Z","44.6336784","-124.3080789","ASNAP","","admin","","","","","","","","","","0.00","0.00","-1.6","-0.2","131.26","0.87","0.00","SciCam","/SciCam.20240816_102914666.jpg","PilotCam","/PilotCam.20240816_102914666.jpg","BrowCam","/BrowCam.20240816_102914666.jpg","UserSelect","/UserSelect.20240816_102914666.jpg","","","-999.99","14.93","-999.99","-999.99","66bf29fa111b2e001a29bd0f"
"2024-08-16T10:29:29.699Z","44.6336784","-124.3080789","ASNAP","","admin","","","","","","","","","","0.00","0.00","-1.5","-1.8","131.47","0.89","0.00","SciCam","/SciCam.20240816_102929699.jpg","PilotCam","/PilotCam.20240816_102929699.jpg","BrowCam","/BrowCam.20240816_102929699.jpg","UserSelect","/UserSelect.20240816_102929699.jpg","","","-999.99","14.94","-999.99","-999.99","66bf2a09111b2e001a29bd13"
"2024-08-16T10:29:44.730Z","44.6336784","-124.3080789","ASNAP","","admin","","","","","","","","","","0.00","0.00","-1.8","-1.1","131.51","0.94","0.00","SciCam","/SciCam.20240816_102944730.jpg","PilotCam","/PilotCam.20240816_102944730.jpg","BrowCam","/BrowCam.20240816_102944730.jpg","UserSelect","/UserSelect.20240816_102944730.jpg","","","-999.99","14.92","-999.99","-999.99","66bf2a18111b2e001a29bd17"
"2024-08-16T10:29:47.648Z","44.6336784","-124.3080789","FREE_FORM","turned turbo on ","guest","","","","","","","","","","0.00","0.00","-1.4","-2.7","131.35","0.92","0.00","SciCam","/SciCam.20240816_102947648.jpg","BrowCam","/BrowCam.20240816_102947648.jpg","UserSelect","/UserSelect.20240816_102947648.jpg","","","","","-999.99","14.93","-999.99","-999.99","66bf2a1b111b2e001a29bd1b"
"2024-08-16T10:29:59.764Z","44.6336784","-124.3080789","ASNAP","","admin","","","","","","","","","","0.00","0.00","-1.3","-3.4","131.39","0.91","0.00","SciCam","/SciCam.20240816_102959764.jpg","BrowCam","/BrowCam.20240816_102959764.jpg","UserSelect","/UserSelect.20240816_102959764.jpg","","","","","-999.99","14.90","-999.99","-999.99","66bf2a27111b2e001a29bd1f"
"2024-08-16T10:30:00.408Z","44.6336784","-124.3080789","VEHICLE","","guest","Jason in water","","","","","","","","","0.00","0.00","-1.4","-3.4","131.59","0.93","0.00","SciCam","/SciCam.20240816_103000408.jpg","BrowCam","/BrowCam.20240816_103000408.jpg","UserSelect","/UserSelect.20240816_103000408.jpg","","","","","-999.99","14.90","-999.99","-999.99","66bf2a28111b2e001a29bd22"
"2024-08-16T10:30:01.000Z","","","SulisCam","","admin","","sulis_20240816103001.jpg","","","","","","","","","","","","","","","","","","","","","","","4.950","-2.696","","","","","66bff919111b2e001a29d795"
"2024-08-16T10:30:14.793Z","44.6336784","-124.3080789","ASNAP","","admin","","","","","","","","","","0.00","0.00","-1.7","-1.4","118.29","0.86","0.00","SciCam","/SciCam.20240816_103014793.jpg","PilotCam","/PilotCam.20240816_103014793.jpg","BrowCam","/BrowCam.20240816_103014793.jpg","UserSelect","/UserSelect.20240816_103014793.jpg","","","-999.99","14.47","-999.99","-999.99","66bf2a36111b2e001a29bd27"
"2024-08-16T10:30:29.815Z","44.6336784","-124.3080789","ASNAP","","admin","","","","","","","","","","0.00","0.00","-1.8","-6.1","116.97","2.59","0.00","SciCam","/SciCam.20240816_103029815.jpg","PilotCam","/PilotCam.20240816_103029815.jpg","BrowCam","/BrowCam.20240816_103029815.jpg","UserSelect","/UserSelect.20240816_103029815.jpg","","","-999.99","14.50","-999.99","-999.99","66bf2a45111b2e001a29bd2b"
"2024-08-16T10:30:44.845Z","44.6336784","-124.3080789","ASNAP","","admin","","","","","","","","","","0.00","0.00","-3.4","-1.7","138.16","3.62","0.00","SciCam","/SciCam.20240816_103044845.jpg","PilotCam","/PilotCam.20240816_103044845.jpg","BrowCam","/BrowCam.20240816_103044845.jpg","UserSelect","/UserSelect.20240816_103044845.jpg","","","-999.99","14.12","-999.99","-999.99","66bf2a54111b2e001a29bd2f"
"2024-08-16T10:30:59.873Z","44.6336784","-124.3080789","ASNAP","","admin","","","","","","","","","","0.00","0.00","-1.9","-3.6","150.19","3.83","0.00","SciCam","/SciCam.20240816_103059873.jpg","PilotCam","/PilotCam.20240816_103059873.jpg","BrowCam","/BrowCam.20240816_103059873.jpg","UserSelect","/UserSelect.20240816_103059873.jpg","","","-999.99","14.11","-999.99","-999.99","66bf2a63111b2e001a29bd33"
"2024-08-16T10:31:14.905Z","44.6336784","-124.3080789","ASNAP","","admin","","","","","","","","","","0.00","0.00","0.2","-4.6","147.52","3.90","0.00","SciCam","/SciCam.20240816_103114905.jpg","PilotCam","/PilotCam.20240816_103114905.jpg","BrowCam","/BrowCam.20240816_103114905.jpg","UserSelect","/UserSelect.20240816_103114905.jpg","","","-999.99","14.36","-999.99","-999.99","66bf2a72111b2e001a29bd37"
"2024-08-16T10:31:29.937Z","44.6336784","-124.3080789","ASNAP","","admin","","","","","","","","","","0.00","0.00","-0.8","-4.0","132.90","3.85","0.00","SciCam","/SciCam.20240816_103129937.jpg","PilotCam","/PilotCam.20240816_103129937.jpg","BrowCam","/BrowCam.20240816_103129937.jpg","UserSelect","/UserSelect.20240816_103129937.jpg","","","-999.99","14.52","-999.99","-999.99","66bf2a81111b2e001a29bd3b"
"2024-08-16T10:31:44.961Z","44.6336784","-124.3080789","ASNAP","","admin","","","","","","","","","","0.00","0.00","-0.2","-3.0","137.55","3.88","0.00","SciCam","/SciCam.20240816_103144961.jpg","PilotCam","/PilotCam.20240816_103144961.jpg","BrowCam","/BrowCam.20240816_103144961.jpg","UserSelect","/UserSelect.20240816_103144961.jpg","","","-999.99","14.54","-999.99","-999.99","66bf2a90111b2e001a29bd3f"
"2024-08-16T10:31:59.993Z","44.6336784","-124.3080789","ASNAP","","admin","","","","","","","","","","0.00","0.00","-0.8","-2.7","119.68","3.92","0.00","SciCam","/SciCam.20240816_103159993.jpg","PilotCam","/PilotCam.20240816_103159993.jpg","BrowCam","/BrowCam.20240816_103159993.jpg","UserSelect","/UserSelect.20240816_103159993.jpg","","","-999.99","14.61","-999.99","-999.99","66bf2a9f111b2e001a29bd43"
"2024-08-16T10:32:15.018Z","44.6336784","-124.3080789","ASNAP","","admin","","","","","","","","","","0.00","0.00","-2.1","-1.7","122.49","3.97","0.00","SciCam","/SciCam.20240816_103215018.jpg","PilotCam","/PilotCam.20240816_103215018.jpg","BrowCam","/BrowCam.20240816_103215018.jpg","UserSelect","/UserSelect.20240816_103215018.jpg","","","-999.99","14.58","-999.99","-999.99","66bf2aaf111b2e001a29bd47"
"2024-08-16T10:32:30.051Z","44.6336784","-124.3080789","ASNAP","","admin","","","","","","","","","","0.00","0.00","-1.6","-1.7","120.02","3.90","0.00","SciCam","/SciCam.20240816_103230051.jpg","PilotCam","/PilotCam.20240816_103230051.jpg","BrowCam","/BrowCam.20240816_103230051.jpg","UserSelect","/UserSelect.20240816_103230051.jpg","","","-999.99","14.51","-999.99","-999.99","66bf2abe111b2e001a29bd4b"
"2024-08-16T10:32:45.080Z","44.6336784","-124.3080789","ASNAP","","admin","","","","","","","","","","0.00","0.00","-2.0","-2.2","121.22","4.21","0.00","SciCam","/SciCam.20240816_103245080.jpg","PilotCam","/PilotCam.20240816_103245080.jpg","BrowCam","/BrowCam.20240816_103245080.jpg","UserSelect","/UserSelect.20240816_103245080.jpg","","","-999.99","14.80","-999.99","-999.99","66bf2acd111b2e001a29bd4f"
"2024-08-16T10:33:00.111Z","44.6336784","-124.3080789","ASNAP","","admin","","","","","","","","","","0.00","0.00","-2.7","-3.3","121.96","4.50","0.00","SciCam","/SciCam.20240816_103300111.jpg","PilotCam","/PilotCam.20240816_103300111.jpg","BrowCam","/BrowCam.20240816_103300111.jpg","UserSelect","/UserSelect.20240816_103300111.jpg","","","-999.99","14.72","-999.99","-999.99","66bf2adc111b2e001a29bd53"
"2024-08-16T10:33:15.141Z","44.6336784","-124.3080789","ASNAP","","admin","","","","","","","","","","0.00","0.00","0.1","-3.8","146.63","3.87","0.00","SciCam","/SciCam.20240816_103315141.jpg","PilotCam","/PilotCam.20240816_103315141.jpg","BrowCam","/BrowCam.20240816_103315141.jpg","UserSelect","/UserSelect.20240816_103315141.jpg","","","-999.99","14.69","-999.99","-999.99","66bf2aeb111b2e001a29bd57"
"2024-08-16T10:33:30.173Z","44.6336784","-124.3080789","ASNAP","","admin","","","","","","","","","","0.00","0.00","-0.4","-1.0","142.29","5.55","0.00","SciCam","/SciCam.20240816_103330173.jpg","PilotCam","/PilotCam.20240816_103330173.jpg","BrowCam","/BrowCam.20240816_103330173.jpg","UserSelect","/UserSelect.20240816_103330173.jpg","","","-999.99","14.74","-999.99","-999.99","66bf2afa111b2e001a29bd5b"
"2024-08-16T10:33:45.192Z","44.6336784","-124.3080789","ASNAP","","admin","","","","","","","","","","0.00","0.00","-0.3","-3.0","143.65","8.30","0.00","SciCam","/SciCam.20240816_103345192.jpg","PilotCam","/PilotCam.20240816_103345192.jpg","BrowCam","/BrowCam.20240816_103345192.jpg","UserSelect","/UserSelect.20240816_103345192.jpg","","","-999.99","14.67","-999.99","-999.99","66bf2b09111b2e001a29bd5f"
"2024-08-16T10:34:00.220Z","44.6336784","-124.3080789","ASNAP","","admin","","","","","","","","","","0.00","0.00","-2.0","-4.2","143.43","7.78","0.00","SciCam","/SciCam.20240816_103400220.jpg","PilotCam","/PilotCam.20240816_103400220.jpg","BrowCam","/BrowCam.20240816_103400220.jpg","UserSelect","/UserSelect.20240816_103400220.jpg","","","-999.99","14.38","-999.99","-999.99","66bf2b18111b2e001a29bd63"
"2024-08-16T10:34:15.245Z","44.6336784","-124.3080789","ASNAP","","admin","","","","","","","","","","0.00","0.00","-0.7","-3.6","144.56","10.83","0.00","SciCam","/SciCam.20240816_103415245.jpg","PilotCam","/PilotCam.20240816_103415245.jpg","BrowCam","/BrowCam.20240816_103415245.jpg","UserSelect","/UserSelect.20240816_103415245.jpg","","","-999.99","13.97","-999.99","-999.99","66bf2b27111b2e001a29bd67"
"2024-08-16T10:34:30.269Z","44.6336784","-124.3080789","ASNAP","","admin","","","","","","","","","","0.00","0.00","-1.7","-2.0","142.54","10.62","0.00","SciCam","/SciCam.20240816_103430269.jpg","PilotCam","/PilotCam.20240816_103430269.jpg","BrowCam","/BrowCam.20240816_103430269.jpg","UserSelect","/UserSelect.20240816_103430269.jpg","","","-999.99","13.48","-999.99","-999.99","66bf2b36111b2e001a29bd6b"
"2024-08-16T10:34:45.296Z","44.6336784","-124.3080789","ASNAP","","admin","","","","","","","","","","0.00","0.00","-0.7","-3.7","148.36","12.33","0.00","SciCam","/SciCam.20240816_103445296.jpg","PilotCam","/PilotCam.20240816_103445296.jpg","BrowCam","/BrowCam.20240816_103445296.jpg","UserSelect","/UserSelect.20240816_103445296.jpg","","","-999.99","12.71","-999.99","-999.99","66bf2b45111b2e001a29bd6f"
"2024-08-16T10:35:00.326Z","44.6336784","-124.3080789","ASNAP","","admin","","","","","","","","","","0.00","0.00","-0.5","-3.4","141.93","15.37","0.00","SciCam","/SciCam.20240816_103500326.jpg","PilotCam","/PilotCam.20240816_103500326.jpg","BrowCam","/BrowCam.20240816_103500326.jpg","UserSelect","/UserSelect.20240816_103500326.jpg","","","-999.99","11.67","-999.99","-999.99","66bf2b54111b2e001a29bd73"
"2024-08-16T10:35:15.359Z","44.6336784","-124.3080789","ASNAP","","admin","","","","","","","","","","0.00","0.00","-1.1","-3.4","144.90","16.47","0.00","SciCam","/SciCam.20240816_103515359.jpg","PilotCam","/PilotCam.20240816_103515359.jpg","BrowCam","/BrowCam.20240816_103515359.jpg","UserSelect","/UserSelect.20240816_103515359.jpg","","","-999.99","11.08","-999.99","-999.99","66bf2b63111b2e001a29bd77"
"2024-08-16T10:35:30.389Z","44.6336784","-124.3080789","ASNAP","","admin","","","","","","","","","","0.00","0.00","-1.0","-3.6","142.94","16.30","0.00","SciCam","/SciCam.20240816_103530389.jpg","PilotCam","/PilotCam.20240816_103530389.jpg","BrowCam","/BrowCam.20240816_103530389.jpg","UserSelect","/UserSelect.20240816_103530389.jpg","","","-999.99","10.86","-999.99","-999.99","66bf2b72111b2e001a29bd7b"
"2024-08-16T10:35:45.421Z","44.6336784","-124.3080789","ASNAP","","admin","","","","","","","","","","0.00","0.00","-1.0","-4.8","141.69","16.46","0.00","SciCam","/SciCam.20240816_103545421.jpg","PilotCam","/PilotCam.20240816_103545421.jpg","BrowCam","/BrowCam.20240816_103545421.jpg","UserSelect","/UserSelect.20240816_103545421.jpg","","","-999.99","10.57","-999.99","-999.99","66bf2b81111b2e001a29bd7f"
"2024-08-16T10:36:00.447Z","44.6336784","-124.3080789","ASNAP","","admin","","","","","","","","","","0.00","0.00","-0.8","-4.1","138.65","16.08","0.00","SciCam","/SciCam.20240816_103600447.jpg","PilotCam","/PilotCam.20240816_103600447.jpg","BrowCam","/BrowCam.20240816_103600447.jpg","UserSelect","/UserSelect.20240816_103600447.jpg","","","-999.99","10.01","-999.99","-999.99","66bf2b90111b2e001a29bd83"
"2024-08-16T10:36:15.478Z","44.6336784","-124.3080789","ASNAP","","admin","","","","","","","","","","0.00","0.00","1.5","-3.3","143.08","22.45","0.00","SciCam","/SciCam.20240816_103615478.jpg","PilotCam","/PilotCam.20240816_103615478.jpg","BrowCam","/BrowCam.20240816_103615478.jpg","UserSelect","/UserSelect.20240816_103615478.jpg","","","-999.99","9.78","-999.99","-999.99","66bf2b9f111b2e001a29bd87"
"2024-08-16T10:36:30.508Z","44.6336784","-124.3080789","ASNAP","","admin","","","","","","","","","","0.00","0.00","-1.1","-3.3","141.20","25.21","0.00","SciCam","/SciCam.20240816_103630508.jpg","PilotCam","/PilotCam.20240816_103630508.jpg","BrowCam","/BrowCam.20240816_103630508.jpg","UserSelect","/UserSelect.20240816_103630508.jpg","","","-999.99","9.26","-999.99","-999.99","66bf2bae111b2e001a29bd8b"
"2024-08-16T10:36:45.540Z","44.6336784","-124.3080789","ASNAP","","admin","","","","","","","","","","0.00","0.00","-0.4","-3.0","142.25","29.39","0.00","SciCam","/SciCam.20240816_103645540.jpg","PilotCam","/PilotCam.20240816_103645540.jpg","BrowCam","/BrowCam.20240816_103645540.jpg","UserSelect","/UserSelect.20240816_103645540.jpg","","","-999.99","8.61","-999.99","-999.99","66bf2bbd111b2e001a29bd8f"
"2024-08-16T10:37:00.568Z","44.6336784","-124.3080789","ASNAP","","admin","","","","","","","","","","0.00","0.00","-2.4","-6.1","141.90","37.93","0.00","SciCam","/SciCam.20240816_103700568.jpg","PilotCam","/PilotCam.20240816_103700568.jpg","BrowCam","/BrowCam.20240816_103700568.jpg","UserSelect","/UserSelect.20240816_103700568.jpg","","","-999.99","8.23","-999.99","-999.99","66bf2bcc111b2e001a29bd93"
"2024-08-16T10:37:15.598Z","44.6336784","-124.3080789","ASNAP","","admin","","","","","","","","","","0.00","0.00","-0.8","-3.6","134.69","40.63","0.00","SciCam","/SciCam.20240816_103715598.jpg","PilotCam","/PilotCam.20240816_103715598.jpg","BrowCam","/BrowCam.20240816_103715598.jpg","UserSelect","/UserSelect.20240816_103715598.jpg","","","-999.99","7.98","-999.99","-999.99","66bf2bdb111b2e001a29bd97"
"2024-08-16T10:37:30.632Z","44.6336784","-124.3080789","ASNAP","","admin","","","","","","","","","","0.00","0.00","-1.2","-4.8","100.40","42.17","0.00","SciCam","/SciCam.20240816_103730632.jpg","PilotCam","/PilotCam.20240816_103730632.jpg","BrowCam","/BrowCam.20240816_103730632.jpg","UserSelect","/UserSelect.20240816_103730632.jpg","","","-999.99","7.82","-999.99","-999.99","66bf2bea111b2e001a29bd9b"
"2024-08-16T10:37:45.663Z","44.6336784","-124.3080789","ASNAP","","admin","","","","","","","","","","0.00","0.00","-0.8","-4.6","100.25","42.63","0.00","SciCam","/SciCam.20240816_103745663.jpg","PilotCam","/PilotCam.20240816_103745663.jpg","BrowCam","/BrowCam.20240816_103745663.jpg","UserSelect","/UserSelect.20240816_103745663.jpg","","","-999.99","7.88","-999.99","-999.99","66bf2bf9111b2e001a29bd9f"
"2024-08-16T10:38:00.695Z","44.6336784","-124.3080789","ASNAP","","admin","","","","","","","","","","0.00","0.00","-0.9","-3.7","99.29","42.81","0.00","SciCam","/SciCam.20240816_103800695.jpg","PilotCam","/PilotCam.20240816_103800695.jpg","BrowCam","/BrowCam.20240816_103800695.jpg","UserSelect","/UserSelect.20240816_103800695.jpg","","","-999.99","7.89","-999.99","-999.99","66bf2c08111b2e001a29bda3"
"2024-08-16T10:38:07.322Z","44.6336784","-124.3080789","FREE_FORM","winch control switched to control van","guest","","","","","","","","","","0.00","0.00","-0.9","-4.2","99.26","46.02","0.00","SciCam","/SciCam.20240816_103807322.jpg","PilotCam","/PilotCam.20240816_103807322.jpg","BrowCam","/BrowCam.20240816_103807322.jpg","UserSelect","/UserSelect.20240816_103807322.jpg","","","-999.99","7.87","-999.99","-999.99","66bf2c0f111b2e001a29bda7"
"2024-08-16T10:38:15.726Z","44.6336784","-124.3080789","ASNAP","","admin","","","","","","","","","","0.00","0.00","-1.2","-4.6","99.94","49.64","0.00","SciCam","/SciCam.20240816_103815726.jpg","PilotCam","/PilotCam.20240816_103815726.jpg","BrowCam","/BrowCam.20240816_103815726.jpg","UserSelect","/UserSelect.20240816_103815726.jpg","","","-999.99","7.76","-999.99","-999.99","66bf2c17111b2e001a29bdab"
"2024-08-16T10:38:29.000Z","","","SulisCam","","admin","","sulis_20240816103829.jpg","","","","","","","","","","","","","","","","","","","","","","","-5.600","-0.117","","","","","66bff919111b2e001a29d797"
"2024-08-16T10:38:30.753Z","44.6336784","-124.3080789","ASNAP","","admin","","","","","","","","","","0.00","0.00","-0.2","-5.4","100.03","54.82","0.00","SciCam","/SciCam.20240816_103830753.jpg","PilotCam","/PilotCam.20240816_103830753.jpg","UserSelect","/UserSelect.20240816_103830753.jpg","","","","","-999.99","7.77","-999.99","-999.99","66bf2c26111b2e001a29bdaf"
"2024-08-16T10:38:45.778Z","44.6336784","-124.3080789","ASNAP","","admin","","","","","","","","","","0.00","0.00","-0.6","-5.5","99.91","55.41","0.00","SciCam","/SciCam.20240816_103845778.jpg","PilotCam","/PilotCam.20240816_103845778.jpg","BrowCam","/BrowCam.20240816_103845778.jpg","UserSelect","/UserSelect.20240816_103845778.jpg","","","-999.99","7.74","-999.99","-999.99","66bf2c35111b2e001a29bdb3"
"2024-08-16T10:38:59.351Z","44.6336784","-124.3080789","ROV Actions","holding pipe to test","guest","","","(Port) Manipulator in use","","","","","","","0.00","0.00","0.2","-5.8","100.21","53.74","0.00","SciCam","/SciCam.20240816_103859351.jpg","PilotCam","/PilotCam.20240816_103859351.jpg","BrowCam","/BrowCam.20240816_103859351.jpg","UserSelect","/UserSelect.20240816_103859351.jpg","","","-999.99","7.51","-999.99","-999.99","66bf2c43111b2e001a29bdb7"
"2024-08-16T10:39:00.809Z","44.6336784","-124.3080789","ASNAP","","admin","","","","","","","","","","0.00","0.00","0.2","-6.1","100.20","53.57","0.00","SciCam","/SciCam.20240816_103900809.jpg","PilotCam","/PilotCam.20240816_103900809.jpg","BrowCam","/BrowCam.20240816_103900809.jpg","UserSelect","/UserSelect.20240816_103900809.jpg","","","-999.99","7.73","-999.99","-999.99","66bf2c44111b2e001a29bdbb"
"2024-08-16T10:39:15.837Z","44.6336784","-124.3080789","ASNAP","","admin","","","","","","","","","","0.00","0.00","0.6","-4.5","100.39","50.66","0.00","SciCam","/SciCam.20240816_103915837.jpg","PilotCam","/PilotCam.20240816_103915837.jpg","BrowCam","/BrowCam.20240816_103915837.jpg","UserSelect","/UserSelect.20240816_103915837.jpg","","","-999.99","7.65","-999.99","-999.99","66bf2c53111b2e001a29bdbf"
"2024-08-16T10:39:17.000Z","","","SulisCam","","admin","","sulis_20240816103917.jpg","","","","","","","","","","","","","","","","","","","","","","","-5.701","0.376","","","","","66bff919111b2e001a29d799"
"2024-08-16T10:39:30.062Z","44.6336784","-124.3080789","FREE_FORM","pumping pipe to test","guest","","","","","","","","","","0.00","0.00","0.4","-5.7","100.53","47.41","0.00","SciCam","/SciCam.20240816_103930062.jpg","PilotCam","/PilotCam.20240816_103930062.jpg","BrowCam","/BrowCam.20240816_103930062.jpg","UserSelect","/UserSelect.20240816_103930062.jpg","","","-999.99","7.69","-999.99","-999.99","66bf2c62111b2e001a29bdc3"
"2024-08-16T10:39:30.867Z","44.6336784","-124.3080789","ASNAP","","admin","","","","","","","","","","0.00","0.00","0.4","-5.7","100.53","47.41","0.00","SciCam","/SciCam.20240816_103930867.jpg","PilotCam","/PilotCam.20240816_103930867.jpg","BrowCam","/BrowCam.20240816_103930867.jpg","UserSelect","/UserSelect.20240816_103930867.jpg","","","-999.99","7.48","-999.99","-999.99","66bf2c62111b2e001a29bdc6"
"2024-08-16T10:39:31.212Z","44.6336784","-124.3080789","ROV Actions","let go of pipe","guest","","","(Port) Manipulator in use","","","","","","","0.00","0.00","0.4","-5.6","100.51","47.18","0.00","SciCam","/SciCam.20240816_103931212.jpg","PilotCam","/PilotCam.20240816_103931212.jpg","BrowCam","/BrowCam.20240816_103931212.jpg","UserSelect","/UserSelect.20240816_103931212.jpg","","","-999.99","7.59","-999.99","-999.99","66bf2c63111b2e001a29bdca"
"2024-08-16T10:39:45.898Z","44.6336784","-124.3080789","ASNAP","","admin","","","","","","","","","","0.00","0.00","-0.3","-6.0","100.80","44.04","0.00","SciCam","/SciCam.20240816_103945898.jpg","PilotCam","/PilotCam.20240816_103945898.jpg","BrowCam","/BrowCam.20240816_103945898.jpg","UserSelect","/UserSelect.20240816_103945898.jpg","","","-999.99","7.76","-999.99","-999.99","66bf2c71111b2e001a29bdcf"
"2024-08-16T10:40:00.919Z","44.6336784","-124.3080789","ASNAP","","admin","","","","","","","","","","0.00","0.00","-0.9","-5.1","100.53","40.73","0.00","SciCam","/SciCam.20240816_104000919.jpg","BrowCam","/BrowCam.20240816_104000919.jpg","UserSelect","/UserSelect.20240816_104000919.jpg","","","","","-999.99","7.54","-999.99","-999.99","66bf2c80111b2e001a29bdd3"
"2024-08-16T10:40:15.950Z","44.6336784","-124.3080789","ASNAP","","admin","","","","","","","","","","0.00","0.00","-1.0","-4.8","98.94","37.54","0.00","SciCam","/SciCam.20240816_104015950.jpg","PilotCam","/PilotCam.20240816_104015950.jpg","BrowCam","/BrowCam.20240816_104015950.jpg","UserSelect","/UserSelect.20240816_104015950.jpg","","","-999.99","7.82","-999.99","-999.99","66bf2c8f111b2e001a29bdd7"
"2024-08-16T10:40:30.979Z","44.6336784","-124.3080789","ASNAP","","admin","","","","","","","","","","0.00","0.00","-0.7","-6.2","144.82","36.88","0.00","SciCam","/SciCam.20240816_104030979.jpg","PilotCam","/PilotCam.20240816_104030979.jpg","BrowCam","/BrowCam.20240816_104030979.jpg","UserSelect","/UserSelect.20240816_104030979.jpg","","","-999.99","7.97","-999.99","-999.99","66bf2c9e111b2e001a29bddb"
"2024-08-16T10:40:46.010Z","44.6336784","-124.3080789","ASNAP","","admin","","","","","","","","","","0.00","0.00","-2.5","-4.2","84.30","36.49","0.00","SciCam","/SciCam.20240816_104046010.jpg","PilotCam","/PilotCam.20240816_104046010.jpg","BrowCam","/BrowCam.20240816_104046010.jpg","UserSelect","/UserSelect.20240816_104046010.jpg","","","-999.99","7.97","-999.99","-999.99","66bf2cae111b2e001a29bddf"
"2024-08-16T10:41:01.041Z","44.6336784","-124.3080789","ASNAP","","admin","","","","","","","","","","0.00","0.00","-0.1","-3.4","95.50","35.99","0.00","SciCam","/SciCam.20240816_104101041.jpg","PilotCam","/PilotCam.20240816_104101041.jpg","BrowCam","/BrowCam.20240816_104101041.jpg","UserSelect","/UserSelect.20240816_104101041.jpg","","","-999.99","7.89","-999.99","-999.99","66bf2cbd111b2e001a29bde3"
"2024-08-16T10:41:16.073Z","44.6336784","-124.3080789","ASNAP","","admin","","","","","","","","","","0.00","0.00","-1.6","-5.3","102.30","40.59","0.00","SciCam","/SciCam.20240816_104116073.jpg","PilotCam","/PilotCam.20240816_104116073.jpg","BrowCam","/BrowCam.20240816_104116073.jpg","UserSelect","/UserSelect.20240816_104116073.jpg","","","-999.99","7.94","-999.99","-999.99","66bf2ccc111b2e001a29bde7"
"2024-08-16T10:41:31.099Z","44.6336784","-124.3080789","ASNAP","","admin","","","","","","","","","","0.00","0.00","-1.0","-5.2","104.26","40.62","0.00","SciCam","/SciCam.20240816_104131099.jpg","PilotCam","/PilotCam.20240816_104131099.jpg","BrowCam","/BrowCam.20240816_104131099.jpg","UserSelect","/UserSelect.20240816_104131099.jpg","","","-999.99","7.97","-999.99","-999.99","66bf2cdb111b2e001a29bdeb"
"2024-08-16T10:41:46.130Z","44.6336784","-124.3080789","ASNAP","","admin","","","","","","","","","","0.00","0.00","-1.1","-5.4","113.33","41.37","0.00","SciCam","/SciCam.20240816_104146130.jpg","PilotCam","/PilotCam.20240816_104146130.jpg","BrowCam","/BrowCam.20240816_104146130.jpg","UserSelect","/UserSelect.20240816_104146130.jpg","","","-999.99","7.79","-999.99","-999.99","66bf2cea111b2e001a29bdef"
"2024-08-16T10:42:01.153Z","44.6336784","-124.3080789","ASNAP","","admin","","","","","","","","","","0.00","0.00","-1.3","-5.8","105.33","45.28","0.00","SciCam","/SciCam.20240816_104201153.jpg","PilotCam","/PilotCam.20240816_104201153.jpg","BrowCam","/BrowCam.20240816_104201153.jpg","UserSelect","/UserSelect.20240816_104201153.jpg","","","-999.99","7.88","-999.99","-999.99","66bf2cf9111b2e001a29bdf3"
"2024-08-16T10:42:16.181Z","44.6336784","-124.3080789","ASNAP","","admin","","","","","","","","","","0.00","0.00","-1.1","-5.2","105.15","49.60","0.00","SciCam","/SciCam.20240816_104216181.jpg","PilotCam","/PilotCam.20240816_104216181.jpg","BrowCam","/BrowCam.20240816_104216181.jpg","UserSelect","/UserSelect.20240816_104216181.jpg","","","-999.99","7.78","-999.99","-999.99","66bf2d08111b2e001a29bdf7"
"2024-08-16T10:42:31.205Z","44.6336784","-124.3080789","ASNAP","","admin","","","","","","","","","","0.00","0.00","-0.5","-5.1","111.54","53.45","0.00","SciCam","/SciCam.20240816_104231205.jpg","PilotCam","/PilotCam.20240816_104231205.jpg","BrowCam","/BrowCam.20240816_104231205.jpg","UserSelect","/UserSelect.20240816_104231205.jpg","","","-999.99","7.72","-999.99","-999.99","66bf2d17111b2e001a29bdfb"
"2024-08-16T10:42:46.232Z","44.6336784","-124.3080789","ASNAP","","admin","","","","","","","","","","0.00","0.00","-1.5","-5.6","105.44","54.52","0.00","SciCam","/SciCam.20240816_104246232.jpg","PilotCam","/PilotCam.20240816_104246232.jpg","BrowCam","/BrowCam.20240816_104246232.jpg","UserSelect","/UserSelect.20240816_104246232.jpg","","","-999.99","7.68","-999.99","-999.99","66bf2d26111b2e001a29bdff"
"2024-08-16T10:43:01.258Z","44.6336784","-124.3080789","ASNAP","","admin","","","","","","","","","","0.00","0.00","-1.2","-5.1","105.41","56.18","0.00","SciCam","/SciCam.20240816_104301258.jpg","PilotCam","/PilotCam.20240816_104301258.jpg","BrowCam","/BrowCam.20240816_104301258.jpg","UserSelect","/UserSelect.20240816_104301258.jpg","","","-999.99","7.51","-999.99","-999.99","66bf2d35111b2e001a29be03"
"2024-08-16T10:43:16.291Z","44.6336784","-124.3080789","ASNAP","","admin","","","","","","","","","","0.00","0.00","-1.4","-4.9","104.91","60.80","0.00","SciCam","/SciCam.20240816_104316291.jpg","PilotCam","/PilotCam.20240816_104316291.jpg","BrowCam","/BrowCam.20240816_104316291.jpg","UserSelect","/UserSelect.20240816_104316291.jpg","","","-999.99","7.47","-999.99","-999.99","66bf2d44111b2e001a29be07"
"2024-08-16T10:43:31.322Z","44.6336784","-124.3080789","ASNAP","","admin","","","","","","","","","","0.00","0.00","-1.2","-4.9","104.99","67.48","0.00","SciCam","/SciCam.20240816_104331322.jpg","PilotCam","/PilotCam.20240816_104331322.jpg","BrowCam","/BrowCam.20240816_104331322.jpg","UserSelect","/UserSelect.20240816_104331322.jpg","","","-999.99","7.44","-999.99","-999.99","66bf2d53111b2e001a29be0b"
"2024-08-16T10:43:46.354Z","44.6336784","-124.3080789","ASNAP","","admin","","","","","","","","","","0.00","0.00","-0.6","-5.2","105.59","72.36","0.00","SciCam","/SciCam.20240816_104346354.jpg","PilotCam","/PilotCam.20240816_104346354.jpg","BrowCam","/BrowCam.20240816_104346354.jpg","UserSelect","/UserSelect.20240816_104346354.jpg","","","-999.99","7.44","-999.99","-999.99","66bf2d62111b2e001a29be0f"
"2024-08-16T10:44:01.384Z","44.6336784","-124.3080789","ASNAP","","admin","","","","","","","","","","0.00","0.00","-1.3","-5.1","105.84","73.38","0.00","SciCam","/SciCam.20240816_104401384.jpg","PilotCam","/PilotCam.20240816_104401384.jpg","BrowCam","/BrowCam.20240816_104401384.jpg","UserSelect","/UserSelect.20240816_104401384.jpg","","","-999.99","7.27","-999.99","-999.99","66bf2d71111b2e001a29be13"
"2024-08-16T10:44:16.415Z","44.6336784","-124.3080789","ASNAP","","admin","","","","","","","","","","0.00","0.00","-0.9","-6.8","110.94","72.46","0.00","SciCam","/SciCam.20240816_104416415.jpg","PilotCam","/PilotCam.20240816_104416415.jpg","BrowCam","/BrowCam.20240816_104416415.jpg","UserSelect","/UserSelect.20240816_104416415.jpg","","","-999.99","7.38","-999.99","-999.99","66bf2d80111b2e001a29be17"
"2024-08-16T10:44:31.445Z","44.6336784","-124.3080789","ASNAP","","admin","","","","","","","","","","0.00","0.00","-1.7","-5.2","108.95","70.52","0.00","SciCam","/SciCam.20240816_104431445.jpg","PilotCam","/PilotCam.20240816_104431445.jpg","BrowCam","/BrowCam.20240816_104431445.jpg","UserSelect","/UserSelect.20240816_104431445.jpg","","","-999.99","7.35","-999.99","-999.99","66bf2d8f111b2e001a29be1b"
"2024-08-16T10:44:46.476Z","44.6336784","-124.3080789","ASNAP","","admin","","","","","","","","","","0.00","0.00","0.3","-4.5","102.00","67.67","0.00","SciCam","/SciCam.20240816_104446476.jpg","PilotCam","/PilotCam.20240816_104446476.jpg","BrowCam","/BrowCam.20240816_104446476.jpg","UserSelect","/UserSelect.20240816_104446476.jpg","","","-999.99","7.42","-999.99","-999.99","66bf2d9e111b2e001a29be1f"
"2024-08-16T10:45:01.505Z","44.6336690","-124.3080323","ASNAP","","admin","","","","","","","","","","3.70","-1.05","-2.0","-4.5","106.21","65.65","14.79","SciCam","/SciCam.20240816_104501505.jpg","PilotCam","/PilotCam.20240816_104501505.jpg","BrowCam","/BrowCam.20240816_104501505.jpg","UserSelect","/UserSelect.20240816_104501505.jpg","","","-999.99","7.34","-999.99","-999.99","66bf2dad111b2e001a29be23"
"2024-08-16T10:45:16.530Z","44.6336639","-124.3079842","ASNAP","","admin","","","","","","","","","","7.52","-1.61","-1.9","-3.0","106.92","64.82","15.85","SciCam","/SciCam.20240816_104516530.jpg","PilotCam","/PilotCam.20240816_104516530.jpg","BrowCam","/BrowCam.20240816_104516530.jpg","UserSelect","/UserSelect.20240816_104516530.jpg","","","-999.99","7.36","-999.99","-999.99","66bf2dbc111b2e001a29be27"
"2024-08-16T10:45:31.556Z","44.6336653","-124.3079874","ASNAP","","admin","","","","","","","","","","7.26","-1.46","-2.9","-4.3","104.85","68.43","12.22","SciCam","/SciCam.20240816_104531556.jpg","PilotCam","/PilotCam.20240816_104531556.jpg","BrowCam","/BrowCam.20240816_104531556.jpg","UserSelect","/UserSelect.20240816_104531556.jpg","","","-999.99","7.36","-999.99","-999.99","66bf2dcb111b2e001a29be2b"
"2024-08-16T10:45:46.586Z","44.6336667","-124.3080154","ASNAP","","admin","","","","","","","","","","5.04","-1.30","-1.8","-4.9","106.50","73.00","7.56","SciCam","/SciCam.20240816_104546586.jpg","PilotCam","/PilotCam.20240816_104546586.jpg","BrowCam","/BrowCam.20240816_104546586.jpg","UserSelect","/UserSelect.20240816_104546586.jpg","","","-999.99","7.23","-999.99","-999.99","66bf2dda111b2e001a29be2f"
"2024-08-16T10:45:55.437Z","44.6336685","-124.3080342","FREE_FORM","seafloor coming into view","guest","","","","","","","","","","3.55","-1.10","-1.6","-4.6","105.96","75.56","4.97","SciCam","/SciCam.20240816_104555437.jpg","PilotCam","/PilotCam.20240816_104555437.jpg","BrowCam","/BrowCam.20240816_104555437.jpg","UserSelect","/UserSelect.20240816_104555437.jpg","","","-999.99","7.38","-999.99","-999.99","66bf2de3111b2e001a29be33"
"2024-08-16T10:46:01.618Z","44.6336676","-124.3080351","ASNAP","","admin","","","","","","","","","","3.48","-1.20","-3.5","-2.3","105.60","77.53","4.00","SciCam","/SciCam.20240816_104601618.jpg","PilotCam","/PilotCam.20240816_104601618.jpg","BrowCam","/BrowCam.20240816_104601618.jpg","UserSelect","/UserSelect.20240816_104601618.jpg","","","-999.99","7.35","-999.99","-999.99","66bf2de9111b2e001a29be37"
"2024-08-16T10:46:16.648Z","44.6336669","-124.3080367","ASNAP","","admin","","","","","","","","","","3.35","-1.28","-1.4","-6.5","110.24","78.61","1.97","SciCam","/SciCam.20240816_104616648.jpg","PilotCam","/PilotCam.20240816_104616648.jpg","BrowCam","/BrowCam.20240816_104616648.jpg","UserSelect","/UserSelect.20240816_104616648.jpg","","","-999.99","7.35","-999.99","-999.99","66bf2df8111b2e001a29be3b"
"2024-08-16T10:46:31.682Z","44.6336664","-124.3080278","ASNAP","","admin","","","","","","","","","","4.06","-1.33","-1.8","-4.6","107.14","77.68","2.35","SciCam","/SciCam.20240816_104631682.jpg","PilotCam","/PilotCam.20240816_104631682.jpg","BrowCam","/BrowCam.20240816_104631682.jpg","UserSelect","/UserSelect.20240816_104631682.jpg","","","-999.99","7.35","-999.99","-999.99","66bf2e07111b2e001a29be3f"
"2024-08-16T10:46:46.712Z","44.6336684","-124.3080280","ASNAP","","admin","","","","","","","","","","4.04","-1.11","-2.1","-4.5","107.53","78.89","1.64","SciCam","/SciCam.20240816_104646712.jpg","PilotCam","/PilotCam.20240816_104646712.jpg","BrowCam","/BrowCam.20240816_104646712.jpg","UserSelect","/UserSelect.20240816_104646712.jpg","","","-999.99","7.39","-999.99","-999.99","66bf2e16111b2e001a29be43"
"2024-08-16T10:47:01.738Z","44.6336697","-124.3080274","ASNAP","","admin","","","","","","","","","","4.09","-0.97","-2.1","-4.7","107.14","78.27","2.20","SciCam","/SciCam.20240816_104701738.jpg","PilotCam","/PilotCam.20240816_104701738.jpg","BrowCam","/BrowCam.20240816_104701738.jpg","UserSelect","/UserSelect.20240816_104701738.jpg","","","-999.99","7.33","-999.99","-999.99","66bf2e25111b2e001a29be47"
"2024-08-16T10:47:16.767Z","44.6336709","-124.3080299","ASNAP","","admin","","","","","","","","","","3.89","-0.84","-3.6","-5.0","110.03","78.70","1.98","SciCam","/SciCam.20240816_104716767.jpg","PilotCam","/PilotCam.20240816_104716767.jpg","BrowCam","/BrowCam.20240816_104716767.jpg","UserSelect","/UserSelect.20240816_104716767.jpg","","","-999.99","7.37","-999.99","-999.99","66bf2e34111b2e001a29be4b"
"2024-08-16T10:47:31.800Z","44.6336736","-124.3080361","ASNAP","","admin","","","","","","","","","","3.40","-0.53","-1.1","-5.1","107.10","79.01","1.54","SciCam","/SciCam.20240816_104731800.jpg","PilotCam","/PilotCam.20240816_104731800.jpg","BrowCam","/BrowCam.20240816_104731800.jpg","UserSelect","/UserSelect.20240816_104731800.jpg","","","-999.99","7.44","-999.99","-999.99","66bf2e43111b2e001a29be4f"
"2024-08-16T10:47:46.830Z","44.6336733","-124.3080330","ASNAP","","admin","","","","","","","","","","3.64","-0.57","-1.5","-4.9","107.82","79.12","1.53","SciCam","/SciCam.20240816_104746830.jpg","PilotCam","/PilotCam.20240816_104746830.jpg","BrowCam","/BrowCam.20240816_104746830.jpg","UserSelect","/UserSelect.20240816_104746830.jpg","","","-999.99","7.24","-999.99","-999.99","66bf2e52111b2e001a29be53"
"2024-08-16T10:47:57.914Z","44.6336731","-124.3080322","Biology Type","shrimp- clear with red insides","guest","","","","","","","","","","3.71","-0.59","-1.5","-4.9","107.34","79.05","1.57","SciCam","/SciCam.20240816_104757914.jpg","PilotCam","/PilotCam.20240816_104757914.jpg","BrowCam","/BrowCam.20240816_104757914.jpg","UserSelect","/UserSelect.20240816_104757914.jpg","","","-999.99","7.34","-999.99","-999.99","66bf2e5d111b2e001a29be57"
"2024-08-16T10:48:01.860Z","44.6336731","-124.3080327","ASNAP","","admin","","","","","","","","","","3.67","-0.59","-1.4","-4.9","107.32","79.00","1.60","SciCam","/SciCam.20240816_104801860.jpg","PilotCam","/PilotCam.20240816_104801860.jpg","BrowCam","/BrowCam.20240816_104801860.jpg","UserSelect","/UserSelect.20240816_104801860.jpg","","","-999.99","7.28","-999.99","-999.99","66bf2e61111b2e001a29be5b"
"2024-08-16T10:48:16.894Z","44.6336727","-124.3080341","ASNAP","","admin","","","","","","","","","","3.56","-0.64","-1.5","-4.9","107.37","79.07","1.54","SciCam","/SciCam.20240816_104816894.jpg","PilotCam","/PilotCam.20240816_104816894.jpg","BrowCam","/BrowCam.20240816_104816894.jpg","UserSelect","/UserSelect.20240816_104816894.jpg","","","-999.99","7.39","-999.99","-999.99","66bf2e70111b2e001a29be5f"
"2024-08-16T10:48:31.926Z","44.6336728","-124.3080333","ASNAP","","admin","","","","","","","","","","3.62","-0.62","-1.5","-5.0","107.40","79.05","1.55","SciCam","/SciCam.20240816_104831926.jpg","PilotCam","/PilotCam.20240816_104831926.jpg","BrowCam","/BrowCam.20240816_104831926.jpg","UserSelect","/UserSelect.20240816_104831926.jpg","","","-999.99","7.41","-999.99","-999.99","66bf2e7f111b2e001a29be63"
