Date/Time (UTC),vehicleRealtimeNavData.latitude (ddeg),vehicleRealtimeNavData.longitude (ddeg),event_value,event_free_text,event_author,event_option.new_watchstander,event_option.milestone,event_option.type,event_option.actions,event_option.filename,event_option.highlights,event_option.nav,vehicleRealtimeNavData.local_x (meters),vehicleRealtimeNavData.local_y (meters),vehicleRealtimeNavData.roll (deg),vehicleRealtimeNavData.pitch (deg),vehicleRealtimeNavData.heading (deg),vehicleRealtimeNavData.depth (meters),vehicleRealtimeNavData.altitude (meters),vehicleRealtimeFramegrabberData.camera_name_1,vehicleRealtimeFramegrabberData.filename_1,vehicleRealtimeFramegrabberData.camera_name_2,vehicleRealtimeFramegrabberData.filename_2,vehicleRealtimeFramegrabberData.camera_name_3,vehicleRealtimeFramegrabberData.filename_3,vehicleRealtimeFramegrabberData.camera_name_4,vehicleRealtimeFramegrabberData.filename_4,vehicleReNavData.pitch (deg),vehicleReNavData.roll (deg),vehicleTemperatureProbe.probe1_temperature (degC),vehicleTemperatureProbe.probe2_temperature (degC),vehicleTemperatureProbe.probe3_temperature (degC),vehicleTemperatureProbe.probe4_temperature (degC),id
"2024-08-15T16:46:19.798Z","44.3596942","-124.9645295","FREE_FORM","test","admin","","","","","","","","1.70","-1.66","-0.4","-1.0","293.48","0.63","0.58","SciCam","/SciCam.20240815_164619798.jpg","PilotCam","/PilotCam.20240815_164619798.jpg","BrowCam","/BrowCam.20240815_164619798.jpg","UserSelect","/UserSelect.20240815_164619798.jpg","","","-999.99","17.27","-999.99","-999.99","66be30db111b2e001a298fa6"
"2024-08-15T16:46:27.860Z","44.3596939","-124.9645296","FREE_FORM","test","admin","","","","","","","","1.69","-1.69","0.5","-1.1","293.48","0.63","0.58","SciCam","/SciCam.20240815_164627860.jpg","PilotCam","/PilotCam.20240815_164627860.jpg","BrowCam","/BrowCam.20240815_164627860.jpg","UserSelect","/UserSelect.20240815_164627860.jpg","","","-999.99","17.27","-999.99","-999.99","66be30e3111b2e001a298faa"
"2024-08-15T16:51:44.571Z","44.3596830","-124.9645495","WATCH_CHANGE","","guest","Finnegan Hanley","","","","","","","0.10","-2.91","-0.8","-0.4","164.67","0.79","0.58","SciCam","/SciCam.20240815_165144571.jpg","PilotCam","/PilotCam.20240815_165144571.jpg","BrowCam","/BrowCam.20240815_165144571.jpg","UserSelect","/UserSelect.20240815_165144571.jpg","","","-999.99","17.53","-999.99","-999.99","66be3220111b2e001a298fae"
"2024-08-15T16:59:34.193Z","44.3596840","-124.9645430","VEHICLE","","guest","","Jason off deck","","","","","","0.62","-2.79","0.0","0.5","150.34","0.91","0.58","SciCam","/SciCam.20240815_165934193.jpg","PilotCam","/PilotCam.20240815_165934193.jpg","BrowCam","/BrowCam.20240815_165934193.jpg","UserSelect","/UserSelect.20240815_165934193.jpg","","","-999.99","18.10","-999.99","-999.99","66be33f6111b2e001a298fb2"
"2024-08-15T17:01:00.054Z","44.3597046","-124.9645765","VEHICLE","","guest","","Jason in water","","","","","","-2.05","-0.51","-1.4","-1.0","247.16","0.94","0.58","SciCam","/SciCam.20240815_170100054.jpg","PilotCam","/PilotCam.20240815_170100054.jpg","BrowCam","/BrowCam.20240815_170100054.jpg","UserSelect","/UserSelect.20240815_170100054.jpg","","","-999.99","17.98","-999.99","-999.99","66be344c111b2e001a298fb6"
"2024-08-15T17:03:32.941Z","44.3597019","-124.9646151","Biology Type","","guest","","","Jelly","","","","","-5.13","-0.81","-0.8","-5.0","248.77","5.25","0.58","SciCam","/SciCam.20240815_170332941.jpg","PilotCam","/PilotCam.20240815_170332941.jpg","BrowCam","/BrowCam.20240815_170332941.jpg","UserSelect","/UserSelect.20240815_170332941.jpg","","","-999.99","15.34","-999.99","-999.99","66be34e4111b2e001a298fba"
"2024-08-15T17:04:43.502Z","44.3597054","-124.9646294","ROV Actions","float","guest","","","","First Football on","","","","-6.27","-0.42","0.9","-4.6","251.04","9.95","0.58","SciCam","/SciCam.20240815_170443502.jpg","PilotCam","/PilotCam.20240815_170443502.jpg","BrowCam","/BrowCam.20240815_170443502.jpg","UserSelect","/UserSelect.20240815_170443502.jpg","","","-999.99","14.29","-999.99","-999.99","66be352b111b2e001a298fbe"
"2024-08-15T17:05:00.779Z","44.3596989","-124.9646371","Biology Type","","guest","","","Jelly","","","","","-6.88","-1.14","-0.2","-4.6","241.32","10.07","0.58","SciCam","/SciCam.20240815_170500779.jpg","PilotCam","/PilotCam.20240815_170500779.jpg","BrowCam","/BrowCam.20240815_170500779.jpg","UserSelect","/UserSelect.20240815_170500779.jpg","","","-999.99","14.02","-999.99","-999.99","66be353c111b2e001a298fc2"
"2024-08-15T17:06:00.955Z","44.3596956","-124.9646440","Biology Type","","guest","","","Jelly","","","","","-7.43","-1.50","0.1","-4.5","235.43","19.70","0.58","SciCam","/SciCam.20240815_170600955.jpg","PilotCam","/PilotCam.20240815_170600955.jpg","BrowCam","/BrowCam.20240815_170600955.jpg","UserSelect","/UserSelect.20240815_170600955.jpg","","","-999.99","12.27","-999.99","-999.99","66be3578111b2e001a298fc6"
"2024-08-15T17:07:04.618Z","44.3596983","-124.9646560","Biology Type","","guest","","","Jelly","","","","","-8.39","-1.20","-0.8","-4.6","237.06","29.45","0.58","SciCam","/SciCam.20240815_170704618.jpg","PilotCam","/PilotCam.20240815_170704618.jpg","BrowCam","/BrowCam.20240815_170704618.jpg","UserSelect","/UserSelect.20240815_170704618.jpg","","","-999.99","9.51","-999.99","-999.99","66be35b8111b2e001a298fca"
"2024-08-15T17:08:54.963Z","44.3596764","-124.9646724","ROV Actions","float on","guest","","","","Last Football on","","","","-9.70","-3.64","-0.4","-4.5","233.70","27.63","0.58","SciCam","/SciCam.20240815_170854963.jpg","PilotCam","/PilotCam.20240815_170854963.jpg","BrowCam","/BrowCam.20240815_170854963.jpg","UserSelect","/UserSelect.20240815_170854963.jpg","","","-999.99","9.13","-999.99","-999.99","66be3626111b2e001a298fce"
"2024-08-15T17:13:31.796Z","44.3596667","-124.9646954","ROV Actions","beacon on","guest","","","","Transponder on","","","","-11.53","-4.72","-0.3","-6.2","237.09","125.87","0.58","SciCam","/SciCam.20240815_171331796.jpg","PilotCam","/PilotCam.20240815_171331796.jpg","BrowCam","/BrowCam.20240815_171331796.jpg","UserSelect","/UserSelect.20240815_171331796.jpg","","","-999.99","7.75","-999.99","-999.99","66be373b111b2e001a298fd2"
"2024-08-15T17:16:38.593Z","44.3596417","-124.9647364","FREE_FORM","testing winch","guest","","","","","","","","-14.80","-7.50","-1.1","-6.4","234.50","145.09","0.58","SciCam","/SciCam.20240815_171638593.jpg","PilotCam","/PilotCam.20240815_171638593.jpg","BrowCam","/BrowCam.20240815_171638593.jpg","UserSelect","/UserSelect.20240815_171638593.jpg","","","-999.99","7.54","-999.99","-999.99","66be37f6111b2e001a298fd6"
"2024-08-15T17:24:10.018Z","44.3595606","-124.9647694","Biology Type","","guest","","","Fish","","","","","-17.43","-16.51","-0.9","-3.1","191.58","328.08","0.58","SciCam","/SciCam.20240815_172410018.jpg","PilotCam","/PilotCam.20240815_172410018.jpg","BrowCam","/BrowCam.20240815_172410018.jpg","UserSelect","/UserSelect.20240815_172410018.jpg","","","-999.99","6.51","-999.99","-999.99","66be39ba111b2e001a298fda"
"2024-08-15T17:25:15.956Z","44.3595492","-124.9647747","Biology Type","","guest","","","Fish","","","","","-17.85","-17.77","-0.7","-2.2","198.89","361.64","0.58","SciCam","/SciCam.20240815_172515956.jpg","PilotCam","/PilotCam.20240815_172515956.jpg","BrowCam","/BrowCam.20240815_172515956.jpg","UserSelect","/UserSelect.20240815_172515956.jpg","","","-999.99","6.47","-999.99","-999.99","66be39fb111b2e001a298fde"
"2024-08-15T17:28:22.075Z","44.3595185","-124.9647974","FREE_FORM","all stopped 100m from bottom","guest","","","","","","","","-19.66","-21.18","-0.5","-3.6","221.93","442.87","0.58","SciCam","/SciCam.20240815_172822075.jpg","PilotCam","/PilotCam.20240815_172822075.jpg","BrowCam","/BrowCam.20240815_172822075.jpg","UserSelect","/UserSelect.20240815_172822075.jpg","","","-999.99","6.28","-999.99","-999.99","66be3ab6111b2e001a298fe2"
"2024-08-15T17:29:31.956Z","44.3595093","-124.9647820","ASNAP","","admin","","","","","","","","-18.43","-22.21","-0.6","-4.1","175.88","468.52","0.58","SciCam","/SciCam.20240815_172931956.jpg","PilotCam","/PilotCam.20240815_172931956.jpg","BrowCam","/BrowCam.20240815_172931956.jpg","UserSelect","/UserSelect.20240815_172931956.jpg","","","-999.99","6.05","-999.99","-999.99","66be3afb111b2e001a298fe6"
"2024-08-15T17:29:46.988Z","44.3595081","-124.9647796","ASNAP","","admin","","","","","","","","-18.24","-22.34","-0.6","-4.6","173.33","475.17","0.58","SciCam","/SciCam.20240815_172946988.jpg","PilotCam","/PilotCam.20240815_172946988.jpg","BrowCam","/BrowCam.20240815_172946988.jpg","UserSelect","/UserSelect.20240815_172946988.jpg","","","-999.99","6.11","-999.99","-999.99","66be3b0a111b2e001a298fea"
"2024-08-15T17:30:02.019Z","44.3595082","-124.9647792","ASNAP","","admin","","","","","","","","-18.21","-22.33","-0.8","-4.9","172.89","482.13","0.58","SciCam","/SciCam.20240815_173002019.jpg","PilotCam","/PilotCam.20240815_173002019.jpg","BrowCam","/BrowCam.20240815_173002019.jpg","UserSelect","/UserSelect.20240815_173002019.jpg","","","-999.99","6.03","-999.99","-999.99","66be3b1a111b2e001a298fee"
"2024-08-15T17:30:17.050Z","44.3595095","-124.9647830","ASNAP","","admin","","","","","","","","-18.51","-22.19","-0.6","-5.7","183.61","488.32","0.58","SciCam","/SciCam.20240815_173017050.jpg","PilotCam","/PilotCam.20240815_173017050.jpg","BrowCam","/BrowCam.20240815_173017050.jpg","UserSelect","/UserSelect.20240815_173017050.jpg","","","-999.99","6.13","-999.99","-999.99","66be3b29111b2e001a298ff2"
"2024-08-15T17:30:32.070Z","44.3595047","-124.9647808","ASNAP","","admin","","","","","","","","-18.34","-22.72","-1.2","-4.8","180.88","493.09","0.58","SciCam","/SciCam.20240815_173032070.jpg","PilotCam","/PilotCam.20240815_173032070.jpg","BrowCam","/BrowCam.20240815_173032070.jpg","UserSelect","/UserSelect.20240815_173032070.jpg","","","-999.99","5.96","-999.99","-999.99","66be3b38111b2e001a298ff6"
"2024-08-15T17:30:47.095Z","44.3595036","-124.9647804","ASNAP","","admin","","","","","","","","-18.31","-22.84","-0.4","-3.8","180.40","498.32","0.58","SciCam","/SciCam.20240815_173047095.jpg","PilotCam","/PilotCam.20240815_173047095.jpg","BrowCam","/BrowCam.20240815_173047095.jpg","UserSelect","/UserSelect.20240815_173047095.jpg","","","-999.99","6.07","-999.99","-999.99","66be3b47111b2e001a298ffa"
"2024-08-15T17:31:02.120Z","44.3595041","-124.9647806","ASNAP","","admin","","","","","","","","-18.32","-22.79","-0.7","-4.4","179.93","507.09","0.58","SciCam","/SciCam.20240815_173102120.jpg","PilotCam","/PilotCam.20240815_173102120.jpg","BrowCam","/BrowCam.20240815_173102120.jpg","UserSelect","/UserSelect.20240815_173102120.jpg","","","-999.99","5.97","-999.99","-999.99","66be3b56111b2e001a298ffe"
"2024-08-15T17:31:17.151Z","44.3595316","-124.9647968","ASNAP","","admin","","","","","","","","-19.61","-19.73","0.0","-5.9","267.87","514.86","0.58","SciCam","/SciCam.20240815_173117151.jpg","PilotCam","/PilotCam.20240815_173117151.jpg","BrowCam","/BrowCam.20240815_173117151.jpg","UserSelect","/UserSelect.20240815_173117151.jpg","","","-999.99","5.90","-999.99","-999.99","66be3b65111b2e001a299002"
"2024-08-15T17:31:32.171Z","44.3595351","-124.9647483","ASNAP","","admin","","","","","","","","-15.75","-19.34","-0.5","-5.2","59.43","521.12","0.58","SciCam","/SciCam.20240815_173132171.jpg","PilotCam","/PilotCam.20240815_173132171.jpg","BrowCam","/BrowCam.20240815_173132171.jpg","UserSelect","/UserSelect.20240815_173132171.jpg","","","-999.99","5.78","-999.99","-999.99","66be3b74111b2e001a299006"
"2024-08-15T17:31:47.199Z","44.3595084","-124.9647837","ASNAP","","admin","","","","","","","","-18.57","-22.31","-1.8","-5.1","207.57","524.79","0.58","SciCam","/SciCam.20240815_173147199.jpg","PilotCam","/PilotCam.20240815_173147199.jpg","BrowCam","/BrowCam.20240815_173147199.jpg","UserSelect","/UserSelect.20240815_173147199.jpg","","","-999.99","5.80","-999.99","-999.99","66be3b83111b2e001a29900a"
"2024-08-15T17:32:02.222Z","44.3595485","-124.9647772","ASNAP","","admin","","","","","","","","-18.05","-17.85","0.4","-4.2","318.12","527.76","0.58","SciCam","/SciCam.20240815_173202222.jpg","PilotCam","/PilotCam.20240815_173202222.jpg","BrowCam","/BrowCam.20240815_173202222.jpg","UserSelect","/UserSelect.20240815_173202222.jpg","","","-999.99","5.82","-999.99","-999.99","66be3b92111b2e001a29900e"
"2024-08-15T17:32:17.248Z","44.3595158","-124.9647428","ASNAP","","admin","","","","","","","","-15.31","-21.48","-1.5","-7.6","102.49","530.31","0.58","SciCam","/SciCam.20240815_173217248.jpg","PilotCam","/PilotCam.20240815_173217248.jpg","BrowCam","/BrowCam.20240815_173217248.jpg","UserSelect","/UserSelect.20240815_173217248.jpg","","","-999.99","5.77","-999.99","-999.99","66be3ba1111b2e001a299012"
"2024-08-15T17:32:32.274Z","44.3595227","-124.9647846","ASNAP","","admin","","","","","","","","-18.64","-20.72","-0.6","-5.6","249.55","531.69","0.58","SciCam","/SciCam.20240815_173232274.jpg","PilotCam","/PilotCam.20240815_173232274.jpg","BrowCam","/BrowCam.20240815_173232274.jpg","UserSelect","/UserSelect.20240815_173232274.jpg","","","-999.99","5.69","-999.99","-999.99","66be3bb0111b2e001a299016"
"2024-08-15T17:32:47.306Z","44.3595413","-124.9647406","ASNAP","","admin","","","","","","","","-15.13","-18.65","-0.0","-5.0","36.60","535.28","0.58","SciCam","/SciCam.20240815_173247306.jpg","PilotCam","/PilotCam.20240815_173247306.jpg","BrowCam","/BrowCam.20240815_173247306.jpg","UserSelect","/UserSelect.20240815_173247306.jpg","","","-999.99","5.77","-999.99","-999.99","66be3bbf111b2e001a29901a"
"2024-08-15T17:33:02.338Z","44.3595016","-124.9647653","ASNAP","","admin","","","","","","","","-17.10","-23.06","-1.7","-4.5","189.05","539.01","0.58","SciCam","/SciCam.20240815_173302338.jpg","PilotCam","/PilotCam.20240815_173302338.jpg","BrowCam","/BrowCam.20240815_173302338.jpg","UserSelect","/UserSelect.20240815_173302338.jpg","","","-999.99","5.83","-999.99","-999.99","66be3bce111b2e001a29901e"
"2024-08-15T17:33:17.371Z","44.3595044","-124.9647758","ASNAP","","admin","","","","","","","","-17.94","-22.75","-0.4","-5.6","211.98","541.00","0.58","SciCam","/SciCam.20240815_173317371.jpg","PilotCam","/PilotCam.20240815_173317371.jpg","BrowCam","/BrowCam.20240815_173317371.jpg","UserSelect","/UserSelect.20240815_173317371.jpg","","","-999.99","5.72","-999.99","-999.99","66be3bdd111b2e001a299022"
"2024-08-15T17:33:32.405Z","44.3594947","-124.9647688","ASNAP","","admin","","","","","","","","-17.38","-23.83","-1.2","-5.3","183.83","542.74","0.58","SciCam","/SciCam.20240815_173332405.jpg","PilotCam","/PilotCam.20240815_173332405.jpg","BrowCam","/BrowCam.20240815_173332405.jpg","UserSelect","/UserSelect.20240815_173332405.jpg","","","-999.99","5.75","-999.99","-999.99","66be3bec111b2e001a299026"
"2024-08-15T17:33:47.435Z","44.3594890","-124.9647704","ASNAP","","admin","","","","","","","","-17.51","-24.46","0.8","-3.4","187.58","546.96","0.58","SciCam","/SciCam.20240815_173347435.jpg","PilotCam","/PilotCam.20240815_173347435.jpg","BrowCam","/BrowCam.20240815_173347435.jpg","UserSelect","/UserSelect.20240815_173347435.jpg","","","-999.99","5.54","-999.99","-999.99","66be3bfb111b2e001a29902a"
"2024-08-15T17:34:02.466Z","44.3594652","-124.9647812","ASNAP","","admin","","","","","","","","-18.37","-27.11","-1.4","-3.2","187.28","552.24","28.18","SciCam","/SciCam.20240815_173402466.jpg","PilotCam","/PilotCam.20240815_173402466.jpg","BrowCam","/BrowCam.20240815_173402466.jpg","UserSelect","/UserSelect.20240815_173402466.jpg","","","-999.99","5.59","-999.99","-999.99","66be3c0a111b2e001a29902e"
"2024-08-15T17:34:17.497Z","44.3594341","-124.9648049","ASNAP","","admin","","","","","","","","-20.26","-30.56","0.1","-4.5","188.36","556.68","23.93","SciCam","/SciCam.20240815_173417497.jpg","PilotCam","/PilotCam.20240815_173417497.jpg","BrowCam","/BrowCam.20240815_173417497.jpg","UserSelect","/UserSelect.20240815_173417497.jpg","","","-999.99","5.50","-999.99","-999.99","66be3c19111b2e001a299032"
"2024-08-15T17:34:32.527Z","44.3594060","-124.9648129","ASNAP","","admin","","","","","","","","-20.90","-33.69","-1.1","-6.2","184.77","559.50","21.04","SciCam","/SciCam.20240815_173432527.jpg","PilotCam","/PilotCam.20240815_173432527.jpg","BrowCam","/BrowCam.20240815_173432527.jpg","UserSelect","/UserSelect.20240815_173432527.jpg","","","-999.99","5.58","-999.99","-999.99","66be3c28111b2e001a299036"
"2024-08-15T17:34:47.548Z","44.3593725","-124.9648389","ASNAP","","admin","","","","","","","","-22.97","-37.41","-1.7","-3.3","184.18","562.50","18.31","SciCam","/SciCam.20240815_173447548.jpg","PilotCam","/PilotCam.20240815_173447548.jpg","BrowCam","/BrowCam.20240815_173447548.jpg","UserSelect","/UserSelect.20240815_173447548.jpg","","","-999.99","5.51","-999.99","-999.99","66be3c37111b2e001a29903a"
"2024-08-15T17:35:02.579Z","44.3593282","-124.9648675","ASNAP","","admin","","","","","","","","-25.25","-42.33","-1.0","-3.4","182.14","566.16","14.80","SciCam","/SciCam.20240815_173502579.jpg","PilotCam","/PilotCam.20240815_173502579.jpg","BrowCam","/BrowCam.20240815_173502579.jpg","UserSelect","/UserSelect.20240815_173502579.jpg","","","-999.99","5.39","-999.99","-999.99","66be3c46111b2e001a29903e"
"2024-08-15T17:35:14.000Z","","","SulisCam","","admin","","","","","sulis_20240815173514.jpg","","","","","","","","","","","","","","","","","","-4.616","-0.617","","","","","66be95b3111b2e001a29b169"
"2024-08-15T17:35:17.610Z","44.3592910","-124.9648913","ASNAP","","admin","","","","","","","","-27.15","-46.46","-1.0","-4.6","181.89","569.37","11.60","SciCam","/SciCam.20240815_173517610.jpg","PilotCam","/PilotCam.20240815_173517610.jpg","BrowCam","/BrowCam.20240815_173517610.jpg","UserSelect","/UserSelect.20240815_173517610.jpg","","","-999.99","5.34","-999.99","-999.99","66be3c55111b2e001a299042"
"2024-08-15T17:35:32.641Z","44.3592598","-124.9649099","ASNAP","","admin","","","","","","","","-28.63","-49.93","-0.7","-4.9","178.92","571.88","9.24","SciCam","/SciCam.20240815_173532641.jpg","PilotCam","/PilotCam.20240815_173532641.jpg","BrowCam","/BrowCam.20240815_173532641.jpg","UserSelect","/UserSelect.20240815_173532641.jpg","","","-999.99","5.35","-999.99","-999.99","66be3c64111b2e001a299046"
"2024-08-15T17:35:47.672Z","44.3592682","-124.9649222","ASNAP","","admin","","","","","","","","-29.61","-49.00","-1.6","-5.3","178.86","574.08","7.01","SciCam","/SciCam.20240815_173547672.jpg","PilotCam","/PilotCam.20240815_173547672.jpg","BrowCam","/BrowCam.20240815_173547672.jpg","UserSelect","/UserSelect.20240815_173547672.jpg","","","-999.99","5.30","-999.99","-999.99","66be3c73111b2e001a29904a"
"2024-08-15T17:36:01.180Z","44.3592695","-124.9649331","Biology Type","","guest","","","Fish","","","","","-30.48","-48.85","-2.3","-4.8","180.84","576.30","4.76","SciCam","/SciCam.20240815_173601180.jpg","PilotCam","/PilotCam.20240815_173601180.jpg","BrowCam","/BrowCam.20240815_173601180.jpg","UserSelect","/UserSelect.20240815_173601180.jpg","","","-999.99","5.37","-999.99","-999.99","66be3c81111b2e001a29904e"
"2024-08-15T17:36:02.703Z","44.3592699","-124.9649335","ASNAP","","admin","","","","","","","","-30.51","-48.81","-0.8","-4.9","179.82","576.41","4.58","SciCam","/SciCam.20240815_173602703.jpg","PilotCam","/PilotCam.20240815_173602703.jpg","BrowCam","/BrowCam.20240815_173602703.jpg","UserSelect","/UserSelect.20240815_173602703.jpg","","","-999.99","5.33","-999.99","-999.99","66be3c82111b2e001a299052"
"2024-08-15T17:36:17.732Z","44.3592715","-124.9649355","ASNAP","","admin","","","","","","","","-30.67","-48.63","0.4","-4.9","181.08","577.91","4.06","SciCam","/SciCam.20240815_173617732.jpg","PilotCam","/PilotCam.20240815_173617732.jpg","BrowCam","/BrowCam.20240815_173617732.jpg","UserSelect","/UserSelect.20240815_173617732.jpg","","","-999.99","5.30","-999.99","-999.99","66be3c91111b2e001a299056"
"2024-08-15T17:36:19.359Z","44.3592715","-124.9649355","VEHICLE","","guest","","On bottom","","","","","","-30.67","-48.63","-1.3","-5.0","181.44","578.15","4.06","SciCam","/SciCam.20240815_173619359.jpg","PilotCam","/PilotCam.20240815_173619359.jpg","BrowCam","/BrowCam.20240815_173619359.jpg","UserSelect","/UserSelect.20240815_173619359.jpg","","","-999.99","5.28","-999.99","-999.99","66be3c93111b2e001a29905a"
"2024-08-15T17:36:32.763Z","44.3592719","-124.9649355","ASNAP","","admin","","","","","","","","-30.67","-48.59","0.0","-5.8","179.26","578.20","2.61","SciCam","/SciCam.20240815_173632763.jpg","PilotCam","/PilotCam.20240815_173632763.jpg","BrowCam","/BrowCam.20240815_173632763.jpg","UserSelect","/UserSelect.20240815_173632763.jpg","","","-999.99","5.29","-999.99","-999.99","66be3ca0111b2e001a29905e"
"2024-08-15T17:36:40.877Z","44.3592719","-124.9649355","Biology Type","","guest","","","Fish","","","","","-30.67","-48.59","-1.3","-5.2","179.42","578.02","2.61","SciCam","/SciCam.20240815_173640877.jpg","PilotCam","/PilotCam.20240815_173640877.jpg","BrowCam","/BrowCam.20240815_173640877.jpg","UserSelect","/UserSelect.20240815_173640877.jpg","","","-999.99","5.27","-999.99","-999.99","66be3ca8111b2e001a299062"
"2024-08-15T17:36:47.795Z","44.3592708","-124.9649360","ASNAP","","admin","","","","","","","","-30.71","-48.71","-1.3","-4.9","180.64","579.20","1.96","SciCam","/SciCam.20240815_173647795.jpg","PilotCam","/PilotCam.20240815_173647795.jpg","BrowCam","/BrowCam.20240815_173647795.jpg","UserSelect","/UserSelect.20240815_173647795.jpg","","","-999.99","5.30","-999.99","-999.99","66be3caf111b2e001a299066"
"2024-08-15T17:37:02.822Z","44.3592662","-124.9649337","ASNAP","","admin","","","","","","","","-30.53","-49.22","-1.1","-6.0","172.46","579.06","1.88","SciCam","/SciCam.20240815_173702822.jpg","PilotCam","/PilotCam.20240815_173702822.jpg","BrowCam","/BrowCam.20240815_173702822.jpg","UserSelect","/UserSelect.20240815_173702822.jpg","","","-999.99","5.22","-999.99","-999.99","66be3cbe111b2e001a29906a"
"2024-08-15T17:37:06.829Z","44.3592653","-124.9649340","Biology Type","","guest","","","Seastar","","","","","-30.55","-49.32","-1.1","-6.2","172.55","578.81","2.19","SciCam","/SciCam.20240815_173706829.jpg","PilotCam","/PilotCam.20240815_173706829.jpg","BrowCam","/BrowCam.20240815_173706829.jpg","UserSelect","/UserSelect.20240815_173706829.jpg","","","-999.99","5.21","-999.99","-999.99","66be3cc2111b2e001a29906e"
"2024-08-15T17:37:12.392Z","44.3592625","-124.9649330","Biology Type","","guest","","","Fish","","","","","-30.47","-49.63","0.0","-5.7","172.68","579.39","1.85","SciCam","/SciCam.20240815_173712392.jpg","PilotCam","/PilotCam.20240815_173712392.jpg","BrowCam","/BrowCam.20240815_173712392.jpg","UserSelect","/UserSelect.20240815_173712392.jpg","","","-999.99","5.23","-999.99","-999.99","66be3cc8111b2e001a299072"
"2024-08-15T17:37:17.856Z","44.3592608","-124.9649334","ASNAP","","admin","","","","","","","","-30.50","-49.82","-0.1","-5.4","172.92","579.63","1.60","SciCam","/SciCam.20240815_173717856.jpg","PilotCam","/PilotCam.20240815_173717856.jpg","BrowCam","/BrowCam.20240815_173717856.jpg","UserSelect","/UserSelect.20240815_173717856.jpg","","","-999.99","5.36","-999.99","-999.99","66be3ccd111b2e001a299076"
"2024-08-15T17:37:32.887Z","44.3592563","-124.9649320","ASNAP","","admin","","","","","","","","-30.39","-50.32","-0.9","-5.7","173.59","578.99","2.23","SciCam","/SciCam.20240815_173732887.jpg","PilotCam","/PilotCam.20240815_173732887.jpg","BrowCam","/BrowCam.20240815_173732887.jpg","UserSelect","/UserSelect.20240815_173732887.jpg","","","-999.99","5.22","-999.99","-999.99","66be3cdc111b2e001a29907a"
"2024-08-15T17:37:47.915Z","44.3592518","-124.9649318","ASNAP","","admin","","","","","","","","-30.38","-50.82","-0.8","-4.6","175.42","579.34","2.02","SciCam","/SciCam.20240815_173747915.jpg","PilotCam","/PilotCam.20240815_173747915.jpg","BrowCam","/BrowCam.20240815_173747915.jpg","UserSelect","/UserSelect.20240815_173747915.jpg","","","-999.99","5.26","-999.99","-999.99","66be3ceb111b2e001a29907e"
"2024-08-15T17:37:50.000Z","","","SulisCam","","admin","","","","","sulis_20240815173750.jpg","","","","","","","","","","","","","","","","","","-4.943","-0.928","","","","","66be95b3111b2e001a29b16b"
"2024-08-15T17:38:02.947Z","44.3592478","-124.9649312","ASNAP","","admin","","","","","","","","-30.33","-51.26","-0.9","-4.9","173.50","579.10","2.31","SciCam","/SciCam.20240815_173802947.jpg","PilotCam","/PilotCam.20240815_173802947.jpg","BrowCam","/BrowCam.20240815_173802947.jpg","UserSelect","/UserSelect.20240815_173802947.jpg","","","-999.99","5.34","-999.99","-999.99","66be3cfa111b2e001a299082"
"2024-08-15T17:38:17.978Z","44.3592422","-124.9649311","ASNAP","","admin","","","","","","","","-30.32","-51.89","-1.0","-5.6","174.83","579.26","2.25","SciCam","/SciCam.20240815_173817978.jpg","PilotCam","/PilotCam.20240815_173817978.jpg","BrowCam","/BrowCam.20240815_173817978.jpg","UserSelect","/UserSelect.20240815_173817978.jpg","","","-999.99","5.03","-999.99","-999.99","66be3d09111b2e001a299086"
"2024-08-15T17:38:33.012Z","44.3592364","-124.9649313","ASNAP","","admin","","","","","","","","-30.34","-52.53","-0.8","-5.6","174.57","579.18","2.41","SciCam","/SciCam.20240815_173833012.jpg","PilotCam","/PilotCam.20240815_173833012.jpg","BrowCam","/BrowCam.20240815_173833012.jpg","UserSelect","/UserSelect.20240815_173833012.jpg","","","-999.99","5.21","-999.99","-999.99","66be3d19111b2e001a29908a"
"2024-08-15T17:38:34.049Z","44.3592364","-124.9649313","Biology Type","","guest","","","Fish","","","","","-30.34","-52.53","-1.1","-5.3","174.61","579.17","2.41","SciCam","/SciCam.20240815_173834049.jpg","PilotCam","/PilotCam.20240815_173834049.jpg","BrowCam","/BrowCam.20240815_173834049.jpg","UserSelect","/UserSelect.20240815_173834049.jpg","","","-999.99","5.19","-999.99","-999.99","66be3d1a111b2e001a29908e"
"2024-08-15T17:38:48.041Z","44.3592315","-124.9649302","ASNAP","","admin","","","","","","","","-30.25","-53.07","-1.1","-5.6","173.92","579.27","2.46","SciCam","/SciCam.20240815_173848041.jpg","PilotCam","/PilotCam.20240815_173848041.jpg","BrowCam","/BrowCam.20240815_173848041.jpg","UserSelect","/UserSelect.20240815_173848041.jpg","","","-999.99","5.20","-999.99","-999.99","66be3d28111b2e001a299092"
"2024-08-15T17:38:57.601Z","44.3592297","-124.9649301","Biology Type","","guest","","","Fish","","","","","-30.24","-53.28","-1.1","-4.9","174.63","579.23","2.54","SciCam","/SciCam.20240815_173857601.jpg","PilotCam","/PilotCam.20240815_173857601.jpg","BrowCam","/BrowCam.20240815_173857601.jpg","UserSelect","/UserSelect.20240815_173857601.jpg","","","-999.99","5.19","-999.99","-999.99","66be3d31111b2e001a299096"
"2024-08-15T17:39:03.060Z","44.3592283","-124.9649306","ASNAP","","admin","","","","","","","","-30.28","-53.43","-0.8","-4.8","169.95","579.19","2.61","SciCam","/SciCam.20240815_173903060.jpg","PilotCam","/PilotCam.20240815_173903060.jpg","BrowCam","/BrowCam.20240815_173903060.jpg","UserSelect","/UserSelect.20240815_173903060.jpg","","","-999.99","5.22","-999.99","-999.99","66be3d37111b2e001a29909a"
"2024-08-15T17:39:18.080Z","44.3592253","-124.9649283","ASNAP","","admin","","","","","","","","-30.10","-53.76","-0.8","-5.4","169.93","579.17","2.79","SciCam","/SciCam.20240815_173918080.jpg","PilotCam","/PilotCam.20240815_173918080.jpg","BrowCam","/BrowCam.20240815_173918080.jpg","UserSelect","/UserSelect.20240815_173918080.jpg","","","-999.99","5.18","-999.99","-999.99","66be3d46111b2e001a29909e"
"2024-08-15T17:39:33.110Z","44.3592236","-124.9649285","ASNAP","","admin","","","","","","","","-30.11","-53.95","-0.9","-5.2","165.04","579.15","2.92","SciCam","/SciCam.20240815_173933110.jpg","PilotCam","/PilotCam.20240815_173933110.jpg","BrowCam","/BrowCam.20240815_173933110.jpg","UserSelect","/UserSelect.20240815_173933110.jpg","","","-999.99","5.33","-999.99","-999.99","66be3d55111b2e001a2990a2"
"2024-08-15T17:39:48.141Z","44.3592227","-124.9649271","ASNAP","","admin","","","","","","","","-30.00","-54.05","-1.2","-4.6","166.25","579.13","3.10","SciCam","/SciCam.20240815_173948141.jpg","PilotCam","/PilotCam.20240815_173948141.jpg","BrowCam","/BrowCam.20240815_173948141.jpg","UserSelect","/UserSelect.20240815_173948141.jpg","","","-999.99","5.21","-999.99","-999.99","66be3d64111b2e001a2990a6"
"2024-08-15T17:39:48.740Z","44.3592227","-124.9649271","Biology Type","","guest","","","Fish","","","","","-30.00","-54.05","-1.2","-4.6","166.25","579.13","3.10","SciCam","/SciCam.20240815_173948740.jpg","PilotCam","/PilotCam.20240815_173948740.jpg","BrowCam","/BrowCam.20240815_173948740.jpg","UserSelect","/UserSelect.20240815_173948740.jpg","","","-999.99","5.21","-999.99","-999.99","66be3d64111b2e001a2990a9"
"2024-08-15T17:40:03.170Z","44.3592227","-124.9649271","ASNAP","","admin","","","","","","","","-30.00","-54.05","-1.1","-4.3","166.57","579.15","3.10","SciCam","/SciCam.20240815_174003170.jpg","PilotCam","/PilotCam.20240815_174003170.jpg","BrowCam","/BrowCam.20240815_174003170.jpg","UserSelect","/UserSelect.20240815_174003170.jpg","","","-999.99","5.12","-999.99","-999.99","66be3d73111b2e001a2990ae"
"2024-08-15T17:40:15.000Z","","","SulisCam","","admin","","","","","sulis_20240815174015.jpg","","","","","","","","","","","","","","","","","","-5.773","-1.296","","","","","66be95b3111b2e001a29b16d"
"2024-08-15T17:40:18.203Z","44.3592227","-124.9649271","ASNAP","","admin","","","","","","","","-30.00","-54.05","-0.7","-4.9","166.01","579.38","3.10","SciCam","/SciCam.20240815_174018203.jpg","PilotCam","/PilotCam.20240815_174018203.jpg","BrowCam","/BrowCam.20240815_174018203.jpg","UserSelect","/UserSelect.20240815_174018203.jpg","","","-999.99","5.29","-999.99","-999.99","66be3d82111b2e001a2990b2"
"2024-08-15T17:40:20.499Z","44.3592227","-124.9649271","FREE_FORM","Ctenophore","guest","","","","","","","","-30.00","-54.05","-1.9","-4.6","165.62","579.50","3.10","SciCam","/SciCam.20240815_174020499.jpg","PilotCam","/PilotCam.20240815_174020499.jpg","BrowCam","/BrowCam.20240815_174020499.jpg","UserSelect","/UserSelect.20240815_174020499.jpg","","","-999.99","5.30","-999.99","-999.99","66be3d84111b2e001a2990b6"
"2024-08-15T17:40:25.733Z","44.3592225","-124.9649277","Biology Type","","guest","","","Seastar","","","","","-30.05","-54.07","-1.1","-5.0","167.02","579.61","2.87","SciCam","/SciCam.20240815_174025733.jpg","PilotCam","/PilotCam.20240815_174025733.jpg","BrowCam","/BrowCam.20240815_174025733.jpg","UserSelect","/UserSelect.20240815_174025733.jpg","","","-999.99","5.19","-999.99","-999.99","66be3d89111b2e001a2990ba"
"2024-08-15T17:40:33.235Z","44.3592225","-124.9649277","ASNAP","","admin","","","","","","","","-30.05","-54.07","-1.4","-5.3","168.21","579.74","2.87","SciCam","/SciCam.20240815_174033235.jpg","PilotCam","/PilotCam.20240815_174033235.jpg","BrowCam","/BrowCam.20240815_174033235.jpg","UserSelect","/UserSelect.20240815_174033235.jpg","","","-999.99","5.32","-999.99","-999.99","66be3d91111b2e001a2990be"
"2024-08-15T17:40:48.266Z","44.3592212","-124.9649181","ASNAP","","admin","","","","","","","","-29.28","-54.22","-1.3","-5.5","148.83","579.97","2.63","SciCam","/SciCam.20240815_174048266.jpg","PilotCam","/PilotCam.20240815_174048266.jpg","BrowCam","/BrowCam.20240815_174048266.jpg","UserSelect","/UserSelect.20240815_174048266.jpg","","","-999.99","5.29","-999.99","-999.99","66be3da0111b2e001a2990c2"
"2024-08-15T17:41:03.287Z","44.3592200","-124.9649178","ASNAP","","admin","","","","","","","","-29.26","-54.35","-0.9","-4.9","150.15","579.48","2.92","SciCam","/SciCam.20240815_174103287.jpg","PilotCam","/PilotCam.20240815_174103287.jpg","BrowCam","/BrowCam.20240815_174103287.jpg","UserSelect","/UserSelect.20240815_174103287.jpg","","","-999.99","5.34","-999.99","-999.99","66be3daf111b2e001a2990c6"
"2024-08-15T17:41:18.317Z","44.3592200","-124.9649178","ASNAP","","admin","","","","","","","","-29.26","-54.35","-1.5","-5.7","149.73","579.05","2.92","SciCam","/SciCam.20240815_174118317.jpg","PilotCam","/PilotCam.20240815_174118317.jpg","BrowCam","/BrowCam.20240815_174118317.jpg","UserSelect","/UserSelect.20240815_174118317.jpg","","","-999.99","5.14","-999.99","-999.99","66be3dbe111b2e001a2990ca"
"2024-08-15T17:41:33.348Z","44.3592104","-124.9649211","ASNAP","","admin","","","","","","","","-29.52","-55.42","-0.7","-5.3","157.93","578.49","4.18","SciCam","/SciCam.20240815_174133348.jpg","PilotCam","/PilotCam.20240815_174133348.jpg","BrowCam","/BrowCam.20240815_174133348.jpg","UserSelect","/UserSelect.20240815_174133348.jpg","","","-999.99","5.23","-999.99","-999.99","66be3dcd111b2e001a2990ce"
"2024-08-15T17:41:48.378Z","44.3592061","-124.9649236","ASNAP","","admin","","","","","","","","-29.72","-55.90","-0.9","-5.1","149.61","579.15","4.00","SciCam","/SciCam.20240815_174148378.jpg","PilotCam","/PilotCam.20240815_174148378.jpg","BrowCam","/BrowCam.20240815_174148378.jpg","UserSelect","/UserSelect.20240815_174148378.jpg","","","-999.99","5.28","-999.99","-999.99","66be3ddc111b2e001a2990d2"
"2024-08-15T17:42:03.006Z","44.3592061","-124.9649236","Biology Type","","guest","","","Fish","","","","","-29.72","-55.90","-0.1","-5.4","145.28","579.63","4.00","SciCam","/SciCam.20240815_174203006.jpg","PilotCam","/PilotCam.20240815_174203006.jpg","BrowCam","/BrowCam.20240815_174203006.jpg","UserSelect","/UserSelect.20240815_174203006.jpg","","","-999.99","5.30","-999.99","-999.99","66be3deb111b2e001a2990d6"
"2024-08-15T17:42:03.403Z","44.3592061","-124.9649236","ASNAP","","admin","","","","","","","","-29.72","-55.90","-0.1","-5.4","145.28","579.63","4.00","SciCam","/SciCam.20240815_174203403.jpg","PilotCam","/PilotCam.20240815_174203403.jpg","BrowCam","/BrowCam.20240815_174203403.jpg","UserSelect","/UserSelect.20240815_174203403.jpg","","","-999.99","5.30","-999.99","-999.99","66be3deb111b2e001a2990d9"
"2024-08-15T17:42:18.426Z","44.3592061","-124.9649236","ASNAP","","admin","","","","","","","","-29.72","-55.90","-1.7","-6.0","83.26","579.13","4.00","SciCam","/SciCam.20240815_174218426.jpg","PilotCam","/PilotCam.20240815_174218426.jpg","BrowCam","/BrowCam.20240815_174218426.jpg","UserSelect","/UserSelect.20240815_174218426.jpg","","","-999.99","5.29","-999.99","-999.99","66be3dfa111b2e001a2990de"
"2024-08-15T17:42:28.916Z","44.3592061","-124.9649236","Biology Type","","guest","","","Fish","","","","","-29.72","-55.90","-1.8","-5.4","81.01","579.17","4.00","SciCam","/SciCam.20240815_174228916.jpg","PilotCam","/PilotCam.20240815_174228916.jpg","BrowCam","/BrowCam.20240815_174228916.jpg","UserSelect","/UserSelect.20240815_174228916.jpg","","","-999.99","5.35","-999.99","-999.99","66be3e04111b2e001a2990e2"
"2024-08-15T17:42:33.456Z","44.3592061","-124.9649236","ASNAP","","admin","","","","","","","","-29.72","-55.90","-1.5","-5.3","88.72","579.55","4.00","SciCam","/SciCam.20240815_174233456.jpg","PilotCam","/PilotCam.20240815_174233456.jpg","BrowCam","/BrowCam.20240815_174233456.jpg","UserSelect","/UserSelect.20240815_174233456.jpg","","","-999.99","5.20","-999.99","-999.99","66be3e09111b2e001a2990e6"
"2024-08-15T17:42:35.491Z","44.3592061","-124.9649236","Biology Type","","guest","","","Fish","","","","","-29.72","-55.90","-0.6","-6.1","89.04","579.64","4.00","SciCam","/SciCam.20240815_174235491.jpg","PilotCam","/PilotCam.20240815_174235491.jpg","BrowCam","/BrowCam.20240815_174235491.jpg","UserSelect","/UserSelect.20240815_174235491.jpg","","","-999.99","5.18","-999.99","-999.99","66be3e0b111b2e001a2990ea"
"2024-08-15T17:42:48.482Z","44.3592260","-124.9648987","ASNAP","","admin","","","","","","","","-27.74","-53.69","-0.6","-5.7","90.31","580.25","2.52","SciCam","/SciCam.20240815_174248482.jpg","PilotCam","/PilotCam.20240815_174248482.jpg","BrowCam","/BrowCam.20240815_174248482.jpg","UserSelect","/UserSelect.20240815_174248482.jpg","","","-999.99","5.31","-999.99","-999.99","66be3e18111b2e001a2990ee"
"2024-08-15T17:43:03.509Z","44.3592281","-124.9648923","ASNAP","","admin","","","","","","","","-27.23","-53.45","-0.7","-6.3","85.08","580.07","2.50","SciCam","/SciCam.20240815_174303509.jpg","PilotCam","/PilotCam.20240815_174303509.jpg","BrowCam","/BrowCam.20240815_174303509.jpg","UserSelect","/UserSelect.20240815_174303509.jpg","","","-999.99","5.19","-999.99","-999.99","66be3e27111b2e001a2990f2"
"2024-08-15T17:43:18.539Z","44.3592289","-124.9648896","ASNAP","","admin","","","","","","","","-27.01","-53.36","-0.8","-5.4","86.00","579.43","2.87","SciCam","/SciCam.20240815_174318539.jpg","PilotCam","/PilotCam.20240815_174318539.jpg","BrowCam","/BrowCam.20240815_174318539.jpg","UserSelect","/UserSelect.20240815_174318539.jpg","","","-999.99","5.07","-999.99","-999.99","66be3e36111b2e001a2990f6"
"2024-08-15T17:43:33.571Z","44.3592314","-124.9648908","ASNAP","","admin","","","","","","","","-27.11","-53.09","0.1","-4.9","84.82","578.00","4.34","SciCam","/SciCam.20240815_174333571.jpg","PilotCam","/PilotCam.20240815_174333571.jpg","BrowCam","/BrowCam.20240815_174333571.jpg","UserSelect","/UserSelect.20240815_174333571.jpg","","","-999.99","5.15","-999.99","-999.99","66be3e45111b2e001a2990fa"
"2024-08-15T17:43:48.603Z","44.3592381","-124.9648969","ASNAP","","admin","","","","","","","","-27.59","-52.34","-1.1","-5.0","108.87","578.52","4.01","SciCam","/SciCam.20240815_174348603.jpg","PilotCam","/PilotCam.20240815_174348603.jpg","BrowCam","/BrowCam.20240815_174348603.jpg","UserSelect","/UserSelect.20240815_174348603.jpg","","","-999.99","5.24","-999.99","-999.99","66be3e54111b2e001a2990fe"
"2024-08-15T17:44:03.635Z","44.3592381","-124.9648969","ASNAP","","admin","","","","","","","","-27.59","-52.34","-0.2","-4.5","112.22","578.89","4.01","SciCam","/SciCam.20240815_174403635.jpg","PilotCam","/PilotCam.20240815_174403635.jpg","BrowCam","/BrowCam.20240815_174403635.jpg","UserSelect","/UserSelect.20240815_174403635.jpg","","","-999.99","5.30","-999.99","-999.99","66be3e63111b2e001a299102"
"2024-08-15T17:44:18.665Z","44.3592381","-124.9648969","ASNAP","","admin","","","","","","","","-27.59","-52.34","0.3","-5.5","111.74","579.42","4.01","SciCam","/SciCam.20240815_174418665.jpg","PilotCam","/PilotCam.20240815_174418665.jpg","BrowCam","/BrowCam.20240815_174418665.jpg","UserSelect","/UserSelect.20240815_174418665.jpg","","","-999.99","5.13","-999.99","-999.99","66be3e72111b2e001a299106"
"2024-08-15T17:44:19.666Z","44.3592381","-124.9648969","Biology Type","","guest","","","Fish","","","","","-27.59","-52.34","0.2","-5.7","110.87","579.49","4.01","SciCam","/SciCam.20240815_174419666.jpg","PilotCam","/PilotCam.20240815_174419666.jpg","BrowCam","/BrowCam.20240815_174419666.jpg","UserSelect","/UserSelect.20240815_174419666.jpg","","","-999.99","5.21","-999.99","-999.99","66be3e73111b2e001a29910a"
"2024-08-15T17:44:33.690Z","44.3592443","-124.9648905","ASNAP","","admin","","","","","","","","-27.08","-51.65","-0.2","-5.6","87.94","579.82","2.65","SciCam","/SciCam.20240815_174433690.jpg","PilotCam","/PilotCam.20240815_174433690.jpg","BrowCam","/BrowCam.20240815_174433690.jpg","UserSelect","/UserSelect.20240815_174433690.jpg","","","-999.99","5.35","-999.99","-999.99","66be3e81111b2e001a29910e"
"2024-08-15T17:44:48.724Z","44.3592450","-124.9648859","ASNAP","","admin","","","","","","","","-26.72","-51.57","1.1","-5.3","86.34","579.80","2.55","SciCam","/SciCam.20240815_174448724.jpg","PilotCam","/PilotCam.20240815_174448724.jpg","BrowCam","/BrowCam.20240815_174448724.jpg","UserSelect","/UserSelect.20240815_174448724.jpg","","","-999.99","5.10","-999.99","-999.99","66be3e90111b2e001a299112"
"2024-08-15T17:45:03.756Z","44.3592435","-124.9648819","ASNAP","","admin","","","","","","","","-26.40","-51.74","-0.0","-4.8","93.15","580.28","2.03","SciCam","/SciCam.20240815_174503756.jpg","PilotCam","/PilotCam.20240815_174503756.jpg","BrowCam","/BrowCam.20240815_174503756.jpg","UserSelect","/UserSelect.20240815_174503756.jpg","","","-999.99","5.20","-999.99","-999.99","66be3e9f111b2e001a299116"
"2024-08-15T17:45:16.159Z","44.3592446","-124.9648807","Problem","camera problem","guest","","","","","","","","-26.30","-51.62","0.8","-5.5","91.87","579.62","2.54","SciCam","/SciCam.20240815_174516159.jpg","PilotCam","/PilotCam.20240815_174516159.jpg","BrowCam","/BrowCam.20240815_174516159.jpg","UserSelect","/UserSelect.20240815_174516159.jpg","","","-999.99","5.24","-999.99","-999.99","66be3eac111b2e001a29911a"
"2024-08-15T17:45:18.788Z","44.3592446","-124.9648807","ASNAP","","admin","","","","","","","","-26.30","-51.62","-0.6","-4.6","91.04","579.55","2.54","SciCam","/SciCam.20240815_174518788.jpg","PilotCam","/PilotCam.20240815_174518788.jpg","BrowCam","/BrowCam.20240815_174518788.jpg","UserSelect","/UserSelect.20240815_174518788.jpg","","","-999.99","5.42","-999.99","-999.99","66be3eae111b2e001a29911e"
"2024-08-15T17:45:33.807Z","44.3592463","-124.9648812","ASNAP","","admin","","","","","","","","-26.34","-51.43","0.1","-5.1","89.29","579.75","2.55","SciCam","/SciCam.20240815_174533807.jpg","PilotCam","/PilotCam.20240815_174533807.jpg","BrowCam","/BrowCam.20240815_174533807.jpg","UserSelect","/UserSelect.20240815_174533807.jpg","","","-999.99","5.24","-999.99","-999.99","66be3ebd111b2e001a299122"
"2024-08-15T17:45:48.834Z","44.3592459","-124.9648818","ASNAP","","admin","","","","","","","","-26.39","-51.48","0.0","-5.1","89.80","579.59","2.67","SciCam","/SciCam.20240815_174548834.jpg","PilotCam","/PilotCam.20240815_174548834.jpg","BrowCam","/BrowCam.20240815_174548834.jpg","UserSelect","/UserSelect.20240815_174548834.jpg","","","-999.99","5.17","-999.99","-999.99","66be3ecc111b2e001a299126"
"2024-08-15T17:46:03.868Z","44.3592458","-124.9648822","ASNAP","","admin","","","","","","","","-26.42","-51.49","0.0","-5.1","89.87","579.67","2.65","SciCam","/SciCam.20240815_174603868.jpg","PilotCam","/PilotCam.20240815_174603868.jpg","UserSelect","/UserSelect.20240815_174603868.jpg","","","","","-999.99","5.31","-999.99","-999.99","66be3edb111b2e001a29912a"
"2024-08-15T17:46:18.900Z","44.3592455","-124.9648822","ASNAP","","admin","","","","","","","","-26.42","-51.52","0.1","-5.0","90.26","579.64","2.68","SciCam","/SciCam.20240815_174618900.jpg","PilotCam","/PilotCam.20240815_174618900.jpg","BrowCam","/BrowCam.20240815_174618900.jpg","UserSelect","/UserSelect.20240815_174618900.jpg","","","-999.99","5.35","-999.99","-999.99","66be3eea111b2e001a29912e"
"2024-08-15T17:46:33.931Z","44.3592455","-124.9648822","ASNAP","","admin","","","","","","","","-26.42","-51.52","0.2","-5.0","90.26","579.65","2.65","SciCam","/SciCam.20240815_174633931.jpg","PilotCam","/PilotCam.20240815_174633931.jpg","BrowCam","/BrowCam.20240815_174633931.jpg","UserSelect","/UserSelect.20240815_174633931.jpg","","","-999.99","5.33","-999.99","-999.99","66be3ef9111b2e001a299132"
"2024-08-15T17:46:48.963Z","44.3592456","-124.9648822","ASNAP","","admin","","","","","","","","-26.42","-51.51","0.0","-5.1","90.21","579.65","2.68","SciCam","/SciCam.20240815_174648963.jpg","PilotCam","/PilotCam.20240815_174648963.jpg","BrowCam","/BrowCam.20240815_174648963.jpg","UserSelect","/UserSelect.20240815_174648963.jpg","","","-999.99","5.34","-999.99","-999.99","66be3f08111b2e001a299136"
"2024-08-15T17:46:58.644Z","44.3592458","-124.9648822","FREE_FORM","camera issue resolved","guest","","","","","","","","-26.42","-51.49","0.2","-5.1","90.26","579.64","2.67","SciCam","/SciCam.20240815_174658644.jpg","PilotCam","/PilotCam.20240815_174658644.jpg","BrowCam","/BrowCam.20240815_174658644.jpg","UserSelect","/UserSelect.20240815_174658644.jpg","","","-999.99","5.36","-999.99","-999.99","66be3f12111b2e001a29913a"
"2024-08-15T17:47:03.994Z","44.3592458","-124.9648822","ASNAP","","admin","","","","","","","","-26.42","-51.49","0.2","-5.1","90.32","579.64","2.67","SciCam","/SciCam.20240815_174703994.jpg","PilotCam","/PilotCam.20240815_174703994.jpg","BrowCam","/BrowCam.20240815_174703994.jpg","UserSelect","/UserSelect.20240815_174703994.jpg","","","-999.99","5.24","-999.99","-999.99","66be3f17111b2e001a29913e"
"2024-08-15T17:47:19.016Z","44.3592459","-124.9648821","ASNAP","","admin","","","","","","","","-26.41","-51.48","0.1","-5.0","90.24","579.64","2.65","SciCam","/SciCam.20240815_174719016.jpg","PilotCam","/PilotCam.20240815_174719016.jpg","BrowCam","/BrowCam.20240815_174719016.jpg","UserSelect","/UserSelect.20240815_174719016.jpg","","","-999.99","5.20","-999.99","-999.99","66be3f27111b2e001a299142"
"2024-08-15T17:47:34.038Z","44.3592458","-124.9648822","ASNAP","","admin","","","","","","","","-26.42","-51.49","0.1","-5.0","90.25","579.65","2.67","SciCam","/SciCam.20240815_174734038.jpg","PilotCam","/PilotCam.20240815_174734038.jpg","BrowCam","/BrowCam.20240815_174734038.jpg","UserSelect","/UserSelect.20240815_174734038.jpg","","","-999.99","5.27","-999.99","-999.99","66be3f36111b2e001a299146"
"2024-08-15T17:47:49.069Z","44.3592457","-124.9648822","ASNAP","","admin","","","","","","","","-26.42","-51.50","0.1","-5.1","90.29","579.65","2.67","SciCam","/SciCam.20240815_174749069.jpg","PilotCam","/PilotCam.20240815_174749069.jpg","BrowCam","/BrowCam.20240815_174749069.jpg","UserSelect","/UserSelect.20240815_174749069.jpg","","","-999.99","5.03","-999.99","-999.99","66be3f45111b2e001a29914a"
"2024-08-15T17:48:04.101Z","44.3592457","-124.9648822","ASNAP","","admin","","","","","","","","-26.42","-51.50","0.1","-5.1","90.24","579.65","2.67","SciCam","/SciCam.20240815_174804101.jpg","PilotCam","/PilotCam.20240815_174804101.jpg","BrowCam","/BrowCam.20240815_174804101.jpg","UserSelect","/UserSelect.20240815_174804101.jpg","","","-999.99","5.29","-999.99","-999.99","66be3f54111b2e001a29914e"
"2024-08-15T17:48:19.134Z","44.3592457","-124.9648823","ASNAP","","admin","","","","","","","","-26.43","-51.50","0.1","-5.1","90.30","579.65","2.67","SciCam","/SciCam.20240815_174819134.jpg","PilotCam","/PilotCam.20240815_174819134.jpg","BrowCam","/BrowCam.20240815_174819134.jpg","UserSelect","/UserSelect.20240815_174819134.jpg","","","-999.99","5.20","-999.99","-999.99","66be3f63111b2e001a299152"
"2024-08-15T17:48:34.158Z","44.3592457","-124.9648823","ASNAP","","admin","","","","","","","","-26.43","-51.50","0.1","-5.1","90.24","579.66","2.67","SciCam","/SciCam.20240815_174834158.jpg","PilotCam","/PilotCam.20240815_174834158.jpg","BrowCam","/BrowCam.20240815_174834158.jpg","UserSelect","/UserSelect.20240815_174834158.jpg","","","-999.99","5.20","-999.99","-999.99","66be3f72111b2e001a299156"
"2024-08-15T17:48:45.026Z","44.3592458","-124.9648822","FREE_FORM","kipro stopped recording when camera issue occured","guest","","","","","","","","-26.42","-51.49","0.2","-5.1","90.21","579.65","2.67","SciCam","/SciCam.20240815_174845026.jpg","PilotCam","/PilotCam.20240815_174845026.jpg","BrowCam","/BrowCam.20240815_174845026.jpg","UserSelect","/UserSelect.20240815_174845026.jpg","","","-999.99","5.29","-999.99","-999.99","66be3f7d111b2e001a29915a"
"2024-08-15T17:48:49.186Z","44.3592458","-124.9648822","ASNAP","","admin","","","","","","","","-26.42","-51.49","0.1","-5.1","90.25","579.65","2.67","SciCam","/SciCam.20240815_174849186.jpg","PilotCam","/PilotCam.20240815_174849186.jpg","BrowCam","/BrowCam.20240815_174849186.jpg","UserSelect","/UserSelect.20240815_174849186.jpg","","","-999.99","5.23","-999.99","-999.99","66be3f81111b2e001a29915e"
"2024-08-15T17:48:50.755Z","44.3592458","-124.9648822","FREE_FORM","kipri is now recording","guest","","","","","","","","-26.42","-51.49","0.1","-5.1","90.25","579.65","2.67","SciCam","/SciCam.20240815_174850755.jpg","PilotCam","/PilotCam.20240815_174850755.jpg","BrowCam","/BrowCam.20240815_174850755.jpg","UserSelect","/UserSelect.20240815_174850755.jpg","","","-999.99","5.30","-999.99","-999.99","66be3f82111b2e001a299162"
"2024-08-15T17:49:04.213Z","44.3592458","-124.9648822","ASNAP","","admin","","","","","","","","-26.42","-51.49","0.1","-5.1","90.24","579.66","2.66","SciCam","/SciCam.20240815_174904213.jpg","PilotCam","/PilotCam.20240815_174904213.jpg","BrowCam","/BrowCam.20240815_174904213.jpg","UserSelect","/UserSelect.20240815_174904213.jpg","","","-999.99","5.27","-999.99","-999.99","66be3f90111b2e001a299166"
"2024-08-15T17:49:19.244Z","44.3592458","-124.9648823","ASNAP","","admin","","","","","","","","-26.43","-51.49","0.1","-5.1","90.28","579.65","2.67","SciCam","/SciCam.20240815_174919244.jpg","PilotCam","/PilotCam.20240815_174919244.jpg","BrowCam","/BrowCam.20240815_174919244.jpg","UserSelect","/UserSelect.20240815_174919244.jpg","","","-999.99","5.18","-999.99","-999.99","66be3f9f111b2e001a29916a"
"2024-08-15T17:49:34.276Z","44.3592458","-124.9648823","ASNAP","","admin","","","","","","","","-26.43","-51.49","0.3","-5.1","90.24","579.64","2.66","SciCam","/SciCam.20240815_174934276.jpg","PilotCam","/PilotCam.20240815_174934276.jpg","BrowCam","/BrowCam.20240815_174934276.jpg","UserSelect","/UserSelect.20240815_174934276.jpg","","","-999.99","5.23","-999.99","-999.99","66be3fae111b2e001a29916e"
"2024-08-15T17:49:49.307Z","44.3592441","-124.9648807","ASNAP","","admin","","","","","","","","-26.30","-51.67","0.1","-5.6","91.48","579.71","2.59","SciCam","/SciCam.20240815_174949307.jpg","PilotCam","/PilotCam.20240815_174949307.jpg","BrowCam","/BrowCam.20240815_174949307.jpg","UserSelect","/UserSelect.20240815_174949307.jpg","","","-999.99","5.20","-999.99","-999.99","66be3fbd111b2e001a299172"
"2024-08-15T17:50:03.698Z","44.3592423","-124.9648799","Biology Type","","guest","","","Fish","","","","","-26.24","-51.87","0.0","-4.8","91.91","579.69","2.71","SciCam","/SciCam.20240815_175003698.jpg","PilotCam","/PilotCam.20240815_175003698.jpg","BrowCam","/BrowCam.20240815_175003698.jpg","UserSelect","/UserSelect.20240815_175003698.jpg","","","-999.99","5.24","-999.99","-999.99","66be3fcb111b2e001a299176"
"2024-08-15T17:50:04.338Z","44.3592432","-124.9648783","ASNAP","","admin","","","","","","","","-26.11","-51.77","0.4","-5.2","92.00","579.68","2.62","SciCam","/SciCam.20240815_175004338.jpg","PilotCam","/PilotCam.20240815_175004338.jpg","BrowCam","/BrowCam.20240815_175004338.jpg","UserSelect","/UserSelect.20240815_175004338.jpg","","","-999.99","5.21","-999.99","-999.99","66be3fcc111b2e001a299179"
"2024-08-15T17:50:14.058Z","44.3592423","-124.9648770","Biology Type","","guest","","","Seastar","","","","","-26.01","-51.88","0.1","-5.7","92.48","579.63","2.64","SciCam","/SciCam.20240815_175014058.jpg","PilotCam","/PilotCam.20240815_175014058.jpg","BrowCam","/BrowCam.20240815_175014058.jpg","UserSelect","/UserSelect.20240815_175014058.jpg","","","-999.99","5.22","-999.99","-999.99","66be3fd6111b2e001a29917e"
"2024-08-15T17:50:19.368Z","44.3592423","-124.9648770","ASNAP","","admin","","","","","","","","-26.01","-51.88","0.3","-5.4","93.63","579.73","2.64","SciCam","/SciCam.20240815_175019368.jpg","PilotCam","/PilotCam.20240815_175019368.jpg","BrowCam","/BrowCam.20240815_175019368.jpg","UserSelect","/UserSelect.20240815_175019368.jpg","","","-999.99","5.14","-999.99","-999.99","66be3fdb111b2e001a299182"
"2024-08-15T17:50:24.259Z","44.3592428","-124.9648757","Biology Type","","guest","","","Fish","","","","","-25.90","-51.82","0.3","-5.1","93.76","579.96","2.56","SciCam","/SciCam.20240815_175024259.jpg","PilotCam","/PilotCam.20240815_175024259.jpg","BrowCam","/BrowCam.20240815_175024259.jpg","UserSelect","/UserSelect.20240815_175024259.jpg","","","-999.99","5.19","-999.99","-999.99","66be3fe0111b2e001a299186"
"2024-08-15T17:50:34.400Z","44.3592431","-124.9648729","ASNAP","","admin","","","","","","","","-25.68","-51.79","0.3","-5.0","90.40","579.80","2.42","SciCam","/SciCam.20240815_175034400.jpg","PilotCam","/PilotCam.20240815_175034400.jpg","BrowCam","/BrowCam.20240815_175034400.jpg","UserSelect","/UserSelect.20240815_175034400.jpg","","","-999.99","5.28","-999.99","-999.99","66be3fea111b2e001a29918a"
"2024-08-15T17:50:49.431Z","44.3592530","-124.9648713","ASNAP","","admin","","","","","","","","-25.55","-50.69","0.0","-4.9","69.38","579.88","2.33","SciCam","/SciCam.20240815_175049431.jpg","PilotCam","/PilotCam.20240815_175049431.jpg","BrowCam","/BrowCam.20240815_175049431.jpg","UserSelect","/UserSelect.20240815_175049431.jpg","","","-999.99","5.58","-999.99","-999.99","66be3ff9111b2e001a29918e"
"2024-08-15T17:50:56.850Z","44.3592514","-124.9648709","Biology Type","","guest","","","Fish","","","","","-25.52","-50.86","-0.2","-4.6","79.88","579.85","2.29","SciCam","/SciCam.20240815_175056850.jpg","PilotCam","/PilotCam.20240815_175056850.jpg","BrowCam","/BrowCam.20240815_175056850.jpg","UserSelect","/UserSelect.20240815_175056850.jpg","","","-999.99","5.23","-999.99","-999.99","66be4000111b2e001a299192"
"2024-08-15T17:51:04.464Z","44.3592480","-124.9648704","ASNAP","","admin","","","","","","","","-25.48","-51.24","-0.2","-4.6","90.34","579.76","2.38","SciCam","/SciCam.20240815_175104464.jpg","PilotCam","/PilotCam.20240815_175104464.jpg","BrowCam","/BrowCam.20240815_175104464.jpg","UserSelect","/UserSelect.20240815_175104464.jpg","","","-999.99","5.17","-999.99","-999.99","66be4008111b2e001a299196"
"2024-08-15T17:51:12.000Z","","","SulisCam","","admin","","","","","sulis_20240815175112.jpg","","","","","","","","","","","","","","","","","","-4.928","0.717","","","","","66be95b3111b2e001a29b16f"
"2024-08-15T17:51:18.188Z","44.3592430","-124.9648714","FREE_FORM","beginning site survey","guest","","","","","","","","-25.56","-51.80","0.0","-5.3","103.44","579.84","2.24","SciCam","/SciCam.20240815_175118188.jpg","PilotCam","/PilotCam.20240815_175118188.jpg","BrowCam","/BrowCam.20240815_175118188.jpg","UserSelect","/UserSelect.20240815_175118188.jpg","","","-999.99","5.16","-999.99","-999.99","66be4016111b2e001a29919a"
"2024-08-15T17:51:19.495Z","44.3592430","-124.9648714","ASNAP","","admin","","","","","","","","-25.56","-51.80","1.3","-4.8","103.36","579.79","2.24","SciCam","/SciCam.20240815_175119495.jpg","PilotCam","/PilotCam.20240815_175119495.jpg","UserSelect","/UserSelect.20240815_175119495.jpg","","","","","-999.99","5.39","-999.99","-999.99","66be4017111b2e001a29919e"
"2024-08-15T17:51:20.000Z","","","SulisCam","","admin","","","","","sulis_20240815175120.jpg","","","","","","","","","","","","","","","","","","-5.018","-0.891","","","","","66be95b3111b2e001a29b171"
"2024-08-15T17:51:34.526Z","44.3592434","-124.9648714","ASNAP","","admin","","","","","","","","-25.56","-51.75","1.2","-5.0","105.64","580.27","1.74","SciCam","/SciCam.20240815_175134526.jpg","PilotCam","/PilotCam.20240815_175134526.jpg","BrowCam","/BrowCam.20240815_175134526.jpg","UserSelect","/UserSelect.20240815_175134526.jpg","","","-999.99","5.28","-999.99","-999.99","66be4026111b2e001a2991a2"
"2024-08-15T17:51:49.556Z","44.3592384","-124.9648753","ASNAP","","admin","","","","","","","","-25.87","-52.31","0.6","-5.4","136.74","580.07","1.86","SciCam","/SciCam.20240815_175149556.jpg","PilotCam","/PilotCam.20240815_175149556.jpg","BrowCam","/BrowCam.20240815_175149556.jpg","UserSelect","/UserSelect.20240815_175149556.jpg","","","-999.99","5.23","-999.99","-999.99","66be4035111b2e001a2991a6"
"2024-08-15T17:52:04.574Z","44.3592370","-124.9648813","ASNAP","","admin","","","","","","","","-26.35","-52.46","0.7","-4.8","180.96","580.10","1.75","SciCam","/SciCam.20240815_175204574.jpg","PilotCam","/PilotCam.20240815_175204574.jpg","BrowCam","/BrowCam.20240815_175204574.jpg","UserSelect","/UserSelect.20240815_175204574.jpg","","","-999.99","5.18","-999.99","-999.99","66be4044111b2e001a2991aa"
"2024-08-15T17:52:06.000Z","","","SulisCam","","admin","","","","","sulis_20240815175206.jpg","","","","","","","","","","","","","","","","","","-4.560","0.073","","","","","66be95b3111b2e001a29b173"
"2024-08-15T17:52:19.608Z","44.3592396","-124.9648862","ASNAP","","admin","","","","","","","","-26.74","-52.17","0.8","-4.7","199.61","580.10","1.66","SciCam","/SciCam.20240815_175219608.jpg","PilotCam","/PilotCam.20240815_175219608.jpg","BrowCam","/BrowCam.20240815_175219608.jpg","UserSelect","/UserSelect.20240815_175219608.jpg","","","-999.99","5.32","-999.99","-999.99","66be4053111b2e001a2991ae"
"2024-08-15T17:52:29.369Z","44.3592396","-124.9648858","Biology Type","","guest","","","Fish","","","","","-26.71","-52.18","0.6","-4.8","199.78","580.19","1.57","SciCam","/SciCam.20240815_175229369.jpg","PilotCam","/PilotCam.20240815_175229369.jpg","BrowCam","/BrowCam.20240815_175229369.jpg","UserSelect","/UserSelect.20240815_175229369.jpg","","","-999.99","5.14","-999.99","-999.99","66be405d111b2e001a2991b2"
"2024-08-15T17:52:34.641Z","44.3592398","-124.9648859","ASNAP","","admin","","","","","","","","-26.72","-52.15","0.6","-4.9","199.58","580.18","1.56","SciCam","/SciCam.20240815_175234641.jpg","PilotCam","/PilotCam.20240815_175234641.jpg","BrowCam","/BrowCam.20240815_175234641.jpg","UserSelect","/UserSelect.20240815_175234641.jpg","","","-999.99","5.27","-999.99","-999.99","66be4062111b2e001a2991b6"
"2024-08-15T17:52:49.674Z","44.3592405","-124.9648868","ASNAP","","admin","","","","","","","","-26.79","-52.07","0.7","-4.9","199.90","580.18","1.58","SciCam","/SciCam.20240815_175249674.jpg","PilotCam","/PilotCam.20240815_175249674.jpg","BrowCam","/BrowCam.20240815_175249674.jpg","UserSelect","/UserSelect.20240815_175249674.jpg","","","-999.99","5.16","-999.99","-999.99","66be4071111b2e001a2991ba"
"2024-08-15T17:52:56.000Z","44.3592405","-124.9648872","Biology Type","","guest","","","Fish","","","","","-26.82","-52.08","0.6","-4.8","199.79","580.18","1.55","SciCam","/SciCam.20240815_175256000.jpg","PilotCam","/PilotCam.20240815_175256000.jpg","BrowCam","/BrowCam.20240815_175256000.jpg","UserSelect","/UserSelect.20240815_175256000.jpg","","","-999.99","5.22","-999.99","-999.99","66be4078111b2e001a2991be"
"2024-08-15T17:53:04.704Z","44.3592403","-124.9648872","ASNAP","","admin","","","","","","","","-26.82","-52.10","0.6","-4.9","199.82","580.16","1.58","SciCam","/SciCam.20240815_175304704.jpg","PilotCam","/PilotCam.20240815_175304704.jpg","BrowCam","/BrowCam.20240815_175304704.jpg","UserSelect","/UserSelect.20240815_175304704.jpg","","","-999.99","5.19","-999.99","-999.99","66be4080111b2e001a2991c2"
"2024-08-15T17:53:19.735Z","44.3592403","-124.9648869","ASNAP","","admin","","","","","","","","-26.80","-52.10","0.6","-4.9","199.85","580.15","1.59","SciCam","/SciCam.20240815_175319735.jpg","PilotCam","/PilotCam.20240815_175319735.jpg","BrowCam","/BrowCam.20240815_175319735.jpg","UserSelect","/UserSelect.20240815_175319735.jpg","","","-999.99","5.20","-999.99","-999.99","66be408f111b2e001a2991c6"
"2024-08-15T17:53:30.000Z","","","SulisCam","","admin","","","","","sulis_20240815175330.jpg","","","","","","","","","","","","","","","","","","-4.960","0.524","","","","","66be95b3111b2e001a29b175"
"2024-08-15T17:53:34.766Z","44.3592405","-124.9648871","ASNAP","","admin","","","","","","","","-26.81","-52.08","0.6","-4.9","199.86","580.17","1.58","SciCam","/SciCam.20240815_175334766.jpg","PilotCam","/PilotCam.20240815_175334766.jpg","BrowCam","/BrowCam.20240815_175334766.jpg","UserSelect","/UserSelect.20240815_175334766.jpg","","","-999.99","5.20","-999.99","-999.99","66be409e111b2e001a2991ca"
"2024-08-15T17:53:49.796Z","44.3592405","-124.9648874","ASNAP","","admin","","","","","","","","-26.84","-52.08","0.5","-4.9","200.51","580.16","1.59","SciCam","/SciCam.20240815_175349796.jpg","PilotCam","/PilotCam.20240815_175349796.jpg","BrowCam","/BrowCam.20240815_175349796.jpg","UserSelect","/UserSelect.20240815_175349796.jpg","","","-999.99","5.26","-999.99","-999.99","66be40ad111b2e001a2991ce"
"2024-08-15T17:53:53.894Z","44.3592409","-124.9648874","Biology Type","","guest","","","Fish","","","","","-26.84","-52.03","0.3","-4.6","203.57","580.16","1.58","SciCam","/SciCam.20240815_175353894.jpg","PilotCam","/PilotCam.20240815_175353894.jpg","BrowCam","/BrowCam.20240815_175353894.jpg","UserSelect","/UserSelect.20240815_175353894.jpg","","","-999.99","5.24","-999.99","-999.99","66be40b1111b2e001a2991d2"
"2024-08-15T17:54:04.828Z","44.3592437","-124.9648883","ASNAP","","admin","","","","","","","","-26.91","-51.72","0.5","-4.9","222.01","580.05","1.69","SciCam","/SciCam.20240815_175404828.jpg","PilotCam","/PilotCam.20240815_175404828.jpg","BrowCam","/BrowCam.20240815_175404828.jpg","UserSelect","/UserSelect.20240815_175404828.jpg","","","-999.99","5.14","-999.99","-999.99","66be40bc111b2e001a2991d6"
