Date/Time (UTC),vehicleRealtimeNavData.latitude (ddeg),vehicleRealtimeNavData.longitude (ddeg),event_value,event_free_text,event_author,event_option.milestone,event_option.actions,event_option.filename,event_option.cabled_plug,event_option.dummy_plug,event_option.event_comment,event_option.highlights,event_option.type,event_option.sample_description,event_option.nav,vehicleRealtimeNavData.local_x (meters),vehicleRealtimeNavData.local_y (meters),vehicleRealtimeNavData.roll (deg),vehicleRealtimeNavData.pitch (deg),vehicleRealtimeNavData.heading (deg),vehicleRealtimeNavData.depth (meters),vehicleRealtimeNavData.altitude (meters),vehicleRealtimeFramegrabberData.camera_name_1,vehicleRealtimeFramegrabberData.filename_1,vehicleRealtimeFramegrabberData.camera_name_2,vehicleRealtimeFramegrabberData.filename_2,vehicleRealtimeFramegrabberData.camera_name_3,vehicleRealtimeFramegrabberData.filename_3,vehicleRealtimeFramegrabberData.camera_name_4,vehicleRealtimeFramegrabberData.filename_4,vehicleReNavData.pitch (deg),vehicleReNavData.roll (deg),vehicleTemperatureProbe.probe1_temperature (degC),vehicleTemperatureProbe.probe2_temperature (degC),vehicleTemperatureProbe.probe3_temperature (degC),vehicleTemperatureProbe.probe4_temperature (degC),id
"2024-08-22T07:02:06.410Z","44.3596939","-124.9645296","ASNAP","","admin","","","","","","","","","","","1.69","-1.69","-0.3","-1.0","0.00","0.46","0.58","SciCam","/SciCam.20240822_070206410.jpg","PilotCam","/PilotCam.20240822_070206410.jpg","BrowCam","/BrowCam.20240822_070206410.jpg","UserSelect","/UserSelect.20240822_070206410.jpg","","","-999.99","15.01","-999.99","-999.99","66c6e26e111b2e001a2b0fe1"
"2024-08-22T07:02:21.440Z","44.3596939","-124.9645297","ASNAP","","admin","","","","","","","","","","","1.68","-1.69","-0.4","-1.6","0.00","0.46","0.58","SciCam","/SciCam.20240822_070221440.jpg","PilotCam","/PilotCam.20240822_070221440.jpg","BrowCam","/BrowCam.20240822_070221440.jpg","UserSelect","/UserSelect.20240822_070221440.jpg","","","-999.99","15.02","-999.99","-999.99","66c6e27d111b2e001a2b0fe5"
"2024-08-22T07:02:36.469Z","44.3596937","-124.9645297","ASNAP","","admin","","","","","","","","","","","1.68","-1.72","-1.1","-0.5","0.00","0.49","0.58","SciCam","/SciCam.20240822_070236469.jpg","PilotCam","/PilotCam.20240822_070236469.jpg","BrowCam","/BrowCam.20240822_070236469.jpg","UserSelect","/UserSelect.20240822_070236469.jpg","","","-999.99","15.04","-999.99","-999.99","66c6e28c111b2e001a2b0fea"
"2024-08-22T07:02:38.467Z","44.3596935","-124.9645297","FREE_FORM","test","admin","","","","","","","","","","","1.68","-1.74","-1.5","-0.9","0.00","0.50","0.58","SciCam","/SciCam.20240822_070238467.jpg","PilotCam","/PilotCam.20240822_070238467.jpg","BrowCam","/BrowCam.20240822_070238467.jpg","UserSelect","/UserSelect.20240822_070238467.jpg","","","-999.99","15.04","-999.99","-999.99","66c6e28e111b2e001a2b0fee"
"2024-08-22T07:02:51.498Z","44.3596935","-124.9645298","ASNAP","","admin","","","","","","","","","","","1.67","-1.74","-1.0","-0.8","0.00","0.48","0.58","SciCam","/SciCam.20240822_070251498.jpg","PilotCam","/PilotCam.20240822_070251498.jpg","BrowCam","/BrowCam.20240822_070251498.jpg","UserSelect","/UserSelect.20240822_070251498.jpg","","","-999.99","15.03","-999.99","-999.99","66c6e29b111b2e001a2b0ff2"
"2024-08-22T07:03:06.529Z","44.3596930","-124.9645301","ASNAP","","admin","","","","","","","","","","","1.65","-1.79","-1.2","-0.8","0.00","0.52","0.58","SciCam","/SciCam.20240822_070306529.jpg","PilotCam","/PilotCam.20240822_070306529.jpg","BrowCam","/BrowCam.20240822_070306529.jpg","UserSelect","/UserSelect.20240822_070306529.jpg","","","-999.99","15.05","-999.99","-999.99","66c6e2aa111b2e001a2b0ff6"
"2024-08-22T07:03:21.558Z","44.3596935","-124.9645300","ASNAP","","admin","","","","","","","","","","","1.66","-1.74","0.3","-1.7","0.00","0.50","0.58","SciCam","/SciCam.20240822_070321558.jpg","PilotCam","/PilotCam.20240822_070321558.jpg","BrowCam","/BrowCam.20240822_070321558.jpg","UserSelect","/UserSelect.20240822_070321558.jpg","","","-999.99","15.03","-999.99","-999.99","66c6e2b9111b2e001a2b0ffa"
"2024-08-22T07:03:36.588Z","44.3596935","-124.9645298","ASNAP","","admin","","","","","","","","","","","1.67","-1.74","-0.6","-0.7","0.00","0.53","0.58","SciCam","/SciCam.20240822_070336588.jpg","PilotCam","/PilotCam.20240822_070336588.jpg","BrowCam","/BrowCam.20240822_070336588.jpg","UserSelect","/UserSelect.20240822_070336588.jpg","","","-999.99","15.03","-999.99","-999.99","66c6e2c8111b2e001a2b0ffe"
"2024-08-22T07:03:51.620Z","44.3596934","-124.9645298","ASNAP","","admin","","","","","","","","","","","1.67","-1.75","-1.5","-0.8","0.00","0.56","0.58","SciCam","/SciCam.20240822_070351620.jpg","PilotCam","/PilotCam.20240822_070351620.jpg","BrowCam","/BrowCam.20240822_070351620.jpg","UserSelect","/UserSelect.20240822_070351620.jpg","","","-999.99","15.03","-999.99","-999.99","66c6e2d7111b2e001a2b1002"
"2024-08-22T07:04:06.649Z","44.3596930","-124.9645301","ASNAP","","admin","","","","","","","","","","","1.65","-1.79","-1.7","-0.4","0.00","0.57","0.58","SciCam","/SciCam.20240822_070406649.jpg","PilotCam","/PilotCam.20240822_070406649.jpg","BrowCam","/BrowCam.20240822_070406649.jpg","UserSelect","/UserSelect.20240822_070406649.jpg","","","-999.99","15.03","-999.99","-999.99","66c6e2e6111b2e001a2b1006"
"2024-08-22T07:04:21.678Z","44.3596927","-124.9645302","ASNAP","","admin","","","","","","","","","","","1.64","-1.83","-2.0","0.3","0.00","0.62","0.58","SciCam","/SciCam.20240822_070421678.jpg","PilotCam","/PilotCam.20240822_070421678.jpg","BrowCam","/BrowCam.20240822_070421678.jpg","UserSelect","/UserSelect.20240822_070421678.jpg","","","-999.99","15.02","-999.99","-999.99","66c6e2f5111b2e001a2b100a"
"2024-08-22T07:04:36.710Z","44.3596931","-124.9645301","ASNAP","","admin","","","","","","","","","","","1.65","-1.78","-1.5","-1.0","0.00","0.61","0.58","SciCam","/SciCam.20240822_070436710.jpg","PilotCam","/PilotCam.20240822_070436710.jpg","BrowCam","/BrowCam.20240822_070436710.jpg","UserSelect","/UserSelect.20240822_070436710.jpg","","","-999.99","15.05","-999.99","-999.99","66c6e304111b2e001a2b100e"
"2024-08-22T07:04:51.744Z","44.3596928","-124.9645305","ASNAP","","admin","","","","","","","","","","","1.62","-1.82","0.1","-1.5","0.00","0.61","0.58","SciCam","/SciCam.20240822_070451744.jpg","PilotCam","/PilotCam.20240822_070451744.jpg","BrowCam","/BrowCam.20240822_070451744.jpg","UserSelect","/UserSelect.20240822_070451744.jpg","","","-999.99","15.03","-999.99","-999.99","66c6e313111b2e001a2b1012"
"2024-08-22T07:04:58.128Z","44.3596933","-124.9645300","FREE_FORM","test","guest","","","","","","","","","","","1.66","-1.76","-1.9","-0.7","0.00","0.62","0.58","SciCam","/SciCam.20240822_070458128.jpg","PilotCam","/PilotCam.20240822_070458128.jpg","BrowCam","/BrowCam.20240822_070458128.jpg","UserSelect","/UserSelect.20240822_070458128.jpg","","","-999.99","15.03","-999.99","-999.99","66c6e31a111b2e001a2b1016"
"2024-08-22T07:05:06.768Z","44.3596930","-124.9645302","ASNAP","","admin","","","","","","","","","","","1.64","-1.79","0.2","-0.7","0.00","0.62","0.58","SciCam","/SciCam.20240822_070506768.jpg","PilotCam","/PilotCam.20240822_070506768.jpg","BrowCam","/BrowCam.20240822_070506768.jpg","UserSelect","/UserSelect.20240822_070506768.jpg","","","-999.99","15.04","-999.99","-999.99","66c6e322111b2e001a2b101a"
"2024-08-22T07:05:21.800Z","44.3596937","-124.9645298","ASNAP","","admin","","","","","","","","","","","1.67","-1.72","-0.1","-0.5","0.00","0.63","0.58","SciCam","/SciCam.20240822_070521800.jpg","PilotCam","/PilotCam.20240822_070521800.jpg","BrowCam","/BrowCam.20240822_070521800.jpg","UserSelect","/UserSelect.20240822_070521800.jpg","","","-999.99","15.04","-999.99","-999.99","66c6e331111b2e001a2b101e"
"2024-08-22T07:05:36.831Z","44.3596938","-124.9645296","ASNAP","","admin","","","","","","","","","","","1.69","-1.70","-1.1","-0.6","0.00","0.65","0.58","SciCam","/SciCam.20240822_070536831.jpg","PilotCam","/PilotCam.20240822_070536831.jpg","BrowCam","/BrowCam.20240822_070536831.jpg","UserSelect","/UserSelect.20240822_070536831.jpg","","","-999.99","15.03","-999.99","-999.99","66c6e340111b2e001a2b1022"
"2024-08-22T07:05:51.862Z","44.3596831","-124.9645535","ASNAP","","admin","","","","","","","","","","","-0.22","-2.89","-0.9","-1.1","173.45","0.65","0.58","SciCam","/SciCam.20240822_070551862.jpg","PilotCam","/PilotCam.20240822_070551862.jpg","BrowCam","/BrowCam.20240822_070551862.jpg","UserSelect","/UserSelect.20240822_070551862.jpg","","","-999.99","15.03","-999.99","-999.99","66c6e34f111b2e001a2b1026"
"2024-08-22T07:06:06.894Z","44.3596830","-124.9645534","ASNAP","","admin","","","","","","","","","","","-0.21","-2.90","-1.2","-0.7","173.02","0.68","0.58","SciCam","/SciCam.20240822_070606894.jpg","PilotCam","/PilotCam.20240822_070606894.jpg","BrowCam","/BrowCam.20240822_070606894.jpg","UserSelect","/UserSelect.20240822_070606894.jpg","","","-999.99","15.04","-999.99","-999.99","66c6e35e111b2e001a2b102a"
"2024-08-22T07:06:21.926Z","44.3596831","-124.9645534","ASNAP","","admin","","","","","","","","","","","-0.21","-2.89","-0.7","-1.2","173.28","0.67","0.58","SciCam","/SciCam.20240822_070621926.jpg","PilotCam","/PilotCam.20240822_070621926.jpg","BrowCam","/BrowCam.20240822_070621926.jpg","UserSelect","/UserSelect.20240822_070621926.jpg","","","-999.99","15.01","-999.99","-999.99","66c6e36d111b2e001a2b102e"
"2024-08-22T07:06:36.959Z","44.3596830","-124.9645534","ASNAP","","admin","","","","","","","","","","","-0.21","-2.90","-0.8","-0.7","173.24","0.70","0.58","SciCam","/SciCam.20240822_070636959.jpg","PilotCam","/PilotCam.20240822_070636959.jpg","BrowCam","/BrowCam.20240822_070636959.jpg","UserSelect","/UserSelect.20240822_070636959.jpg","","","-999.99","15.02","-999.99","-999.99","66c6e37c111b2e001a2b1032"
"2024-08-22T07:06:51.991Z","44.3596830","-124.9645533","ASNAP","","admin","","","","","","","","","","","-0.20","-2.90","-0.3","-0.8","172.91","0.70","0.58","SciCam","/SciCam.20240822_070651991.jpg","PilotCam","/PilotCam.20240822_070651991.jpg","BrowCam","/BrowCam.20240822_070651991.jpg","UserSelect","/UserSelect.20240822_070651991.jpg","","","-999.99","14.99","-999.99","-999.99","66c6e38b111b2e001a2b1036"
"2024-08-22T07:07:07.021Z","44.3596830","-124.9645532","ASNAP","","admin","","","","","","","","","","","-0.19","-2.90","-0.3","-0.8","172.68","0.70","0.58","SciCam","/SciCam.20240822_070707021.jpg","PilotCam","/PilotCam.20240822_070707021.jpg","BrowCam","/BrowCam.20240822_070707021.jpg","UserSelect","/UserSelect.20240822_070707021.jpg","","","-999.99","15.03","-999.99","-999.99","66c6e39b111b2e001a2b103a"
"2024-08-22T07:07:22.050Z","44.3596831","-124.9645533","ASNAP","","admin","","","","","","","","","","","-0.20","-2.89","-0.5","-1.5","173.02","0.71","0.58","SciCam","/SciCam.20240822_070722050.jpg","PilotCam","/PilotCam.20240822_070722050.jpg","BrowCam","/BrowCam.20240822_070722050.jpg","UserSelect","/UserSelect.20240822_070722050.jpg","","","-999.99","14.97","-999.99","-999.99","66c6e3aa111b2e001a2b103e"
"2024-08-22T07:07:37.077Z","44.3596830","-124.9645533","ASNAP","","admin","","","","","","","","","","","-0.20","-2.90","-1.0","-0.4","172.70","0.72","0.58","SciCam","/SciCam.20240822_070737077.jpg","PilotCam","/PilotCam.20240822_070737077.jpg","BrowCam","/BrowCam.20240822_070737077.jpg","UserSelect","/UserSelect.20240822_070737077.jpg","","","-999.99","14.97","-999.99","-999.99","66c6e3b9111b2e001a2b1042"
"2024-08-22T07:07:52.109Z","44.3596831","-124.9645534","ASNAP","","admin","","","","","","","","","","","-0.21","-2.89","-0.1","-1.6","173.12","0.70","0.58","SciCam","/SciCam.20240822_070752109.jpg","PilotCam","/PilotCam.20240822_070752109.jpg","BrowCam","/BrowCam.20240822_070752109.jpg","UserSelect","/UserSelect.20240822_070752109.jpg","","","-999.99","14.98","-999.99","-999.99","66c6e3c8111b2e001a2b1046"
"2024-08-22T07:08:07.136Z","44.3596830","-124.9645532","ASNAP","","admin","","","","","","","","","","","-0.19","-2.90","-0.5","-1.2","172.57","0.72","0.58","SciCam","/SciCam.20240822_070807136.jpg","PilotCam","/PilotCam.20240822_070807136.jpg","BrowCam","/BrowCam.20240822_070807136.jpg","UserSelect","/UserSelect.20240822_070807136.jpg","","","-999.99","14.96","-999.99","-999.99","66c6e3d7111b2e001a2b104a"
"2024-08-22T07:08:22.167Z","44.3596830","-124.9645537","ASNAP","","admin","","","","","","","","","","","-0.23","-2.90","-0.9","-0.2","173.63","0.74","0.58","SciCam","/SciCam.20240822_070822167.jpg","PilotCam","/PilotCam.20240822_070822167.jpg","BrowCam","/BrowCam.20240822_070822167.jpg","UserSelect","/UserSelect.20240822_070822167.jpg","","","-999.99","14.97","-999.99","-999.99","66c6e3e6111b2e001a2b104e"
"2024-08-22T07:08:37.200Z","44.3596831","-124.9645538","ASNAP","","admin","","","","","","","","","","","-0.24","-2.89","0.0","-1.3","174.07","0.73","0.58","SciCam","/SciCam.20240822_070837200.jpg","PilotCam","/PilotCam.20240822_070837200.jpg","BrowCam","/BrowCam.20240822_070837200.jpg","UserSelect","/UserSelect.20240822_070837200.jpg","","","-999.99","14.95","-999.99","-999.99","66c6e3f5111b2e001a2b1052"
"2024-08-22T07:08:52.223Z","44.3596830","-124.9645535","ASNAP","","admin","","","","","","","","","","","-0.22","-2.90","-0.0","-0.5","173.45","0.73","0.58","SciCam","/SciCam.20240822_070852223.jpg","PilotCam","/PilotCam.20240822_070852223.jpg","BrowCam","/BrowCam.20240822_070852223.jpg","UserSelect","/UserSelect.20240822_070852223.jpg","","","-999.99","14.95","-999.99","-999.99","66c6e404111b2e001a2b1056"
"2024-08-22T07:09:07.254Z","44.3596830","-124.9645535","ASNAP","","admin","","","","","","","","","","","-0.22","-2.90","-1.0","-0.8","173.36","0.75","0.58","SciCam","/SciCam.20240822_070907254.jpg","PilotCam","/PilotCam.20240822_070907254.jpg","BrowCam","/BrowCam.20240822_070907254.jpg","UserSelect","/UserSelect.20240822_070907254.jpg","","","-999.99","14.94","-999.99","-999.99","66c6e413111b2e001a2b105a"
"2024-08-22T07:09:22.285Z","44.3596830","-124.9645535","ASNAP","","admin","","","","","","","","","","","-0.22","-2.90","-0.8","-0.5","173.33","0.76","0.58","SciCam","/SciCam.20240822_070922285.jpg","PilotCam","/PilotCam.20240822_070922285.jpg","BrowCam","/BrowCam.20240822_070922285.jpg","UserSelect","/UserSelect.20240822_070922285.jpg","","","-999.99","14.93","-999.99","-999.99","66c6e422111b2e001a2b1062"
"2024-08-22T07:09:37.316Z","44.3596830","-124.9645495","ASNAP","","admin","","","","","","","","","","","0.10","-2.90","0.5","-0.0","164.85","0.73","0.58","SciCam","/SciCam.20240822_070937316.jpg","PilotCam","/PilotCam.20240822_070937316.jpg","BrowCam","/BrowCam.20240822_070937316.jpg","UserSelect","/UserSelect.20240822_070937316.jpg","","","-999.99","14.94","-999.99","-999.99","66c6e431111b2e001a2b1066"
"2024-08-22T07:09:52.339Z","44.3596830","-124.9645501","ASNAP","","admin","","","","","","","","","","","0.05","-2.90","-0.7","-2.0","165.92","0.76","0.58","SciCam","/SciCam.20240822_070952339.jpg","PilotCam","/PilotCam.20240822_070952339.jpg","BrowCam","/BrowCam.20240822_070952339.jpg","UserSelect","/UserSelect.20240822_070952339.jpg","","","-999.99","14.97","-999.99","-999.99","66c6e440111b2e001a2b106a"
"2024-08-22T07:10:07.364Z","44.3596829","-124.9645515","ASNAP","","admin","","","","","","","","","","","-0.06","-2.92","-0.5","0.5","169.52","0.76","0.58","SciCam","/SciCam.20240822_071007364.jpg","PilotCam","/PilotCam.20240822_071007364.jpg","BrowCam","/BrowCam.20240822_071007364.jpg","UserSelect","/UserSelect.20240822_071007364.jpg","","","-999.99","14.95","-999.99","-999.99","66c6e44f111b2e001a2b106e"
"2024-08-22T07:10:15.563Z","44.3596867","-124.9645644","VEHICLE","","guest","Jason off deck","","","","","","","","","","-1.09","-2.49","-0.6","0.0","199.01","0.74","0.58","SciCam","/SciCam.20240822_071015563.jpg","PilotCam","/PilotCam.20240822_071015563.jpg","BrowCam","/BrowCam.20240822_071015563.jpg","UserSelect","/UserSelect.20240822_071015563.jpg","","","-999.99","14.98","-999.99","-999.99","66c6e457111b2e001a2b1072"
"2024-08-22T07:10:22.397Z","44.3596956","-124.9645732","ASNAP","","admin","","","","","","","","","","","-1.79","-1.51","-1.5","0.2","226.33","0.77","0.58","SciCam","/SciCam.20240822_071022397.jpg","PilotCam","/PilotCam.20240822_071022397.jpg","BrowCam","/BrowCam.20240822_071022397.jpg","UserSelect","/UserSelect.20240822_071022397.jpg","","","-999.99","14.95","-999.99","-999.99","66c6e45e111b2e001a2b1076"
"2024-08-22T07:10:28.683Z","44.3596961","-124.9645736","Name","Jose Cornejo","guest","","","","","","","","","","","-1.82","-1.45","-1.4","1.0","227.76","0.76","0.58","SciCam","/SciCam.20240822_071028683.jpg","PilotCam","/PilotCam.20240822_071028683.jpg","BrowCam","/BrowCam.20240822_071028683.jpg","UserSelect","/UserSelect.20240822_071028683.jpg","","","-999.99","14.93","-999.99","-999.99","66c6e464111b2e001a2b107e"
"2024-08-22T07:10:37.426Z","44.3596957","-124.9645734","ASNAP","","admin","","","","","","","","","","","-1.80","-1.49","-0.9","0.1","226.78","0.76","0.58","SciCam","/SciCam.20240822_071037426.jpg","PilotCam","/PilotCam.20240822_071037426.jpg","BrowCam","/BrowCam.20240822_071037426.jpg","UserSelect","/UserSelect.20240822_071037426.jpg","","","-999.99","14.96","-999.99","-999.99","66c6e46d111b2e001a2b1082"
"2024-08-22T07:10:52.456Z","44.3596957","-124.9645734","ASNAP","","admin","","","","","","","","","","","-1.80","-1.49","-1.0","0.2","226.69","0.76","0.58","SciCam","/SciCam.20240822_071052456.jpg","PilotCam","/PilotCam.20240822_071052456.jpg","BrowCam","/BrowCam.20240822_071052456.jpg","UserSelect","/UserSelect.20240822_071052456.jpg","","","-999.99","14.96","-999.99","-999.99","66c6e47c111b2e001a2b1086"
"2024-08-22T07:11:07.485Z","44.3596956","-124.9645731","ASNAP","","admin","","","","","","","","","","","-1.78","-1.50","-0.7","-0.9","226.24","0.78","0.58","SciCam","/SciCam.20240822_071107485.jpg","PilotCam","/PilotCam.20240822_071107485.jpg","BrowCam","/BrowCam.20240822_071107485.jpg","UserSelect","/UserSelect.20240822_071107485.jpg","","","-999.99","14.97","-999.99","-999.99","66c6e48b111b2e001a2b108a"
"2024-08-22T07:11:22.510Z","44.3596962","-124.9645737","ASNAP","","admin","","","","","","","","","","","-1.83","-1.44","-1.2","1.8","228.07","0.76","0.58","SciCam","/SciCam.20240822_071122510.jpg","PilotCam","/PilotCam.20240822_071122510.jpg","BrowCam","/BrowCam.20240822_071122510.jpg","UserSelect","/UserSelect.20240822_071122510.jpg","","","-999.99","14.97","-999.99","-999.99","66c6e49a111b2e001a2b108e"
"2024-08-22T07:11:37.544Z","44.3596959","-124.9645734","ASNAP","","admin","","","","","","","","","","","-1.80","-1.47","-0.6","-0.7","226.96","0.77","0.58","SciCam","/SciCam.20240822_071137544.jpg","PilotCam","/PilotCam.20240822_071137544.jpg","BrowCam","/BrowCam.20240822_071137544.jpg","UserSelect","/UserSelect.20240822_071137544.jpg","","","-999.99","14.97","-999.99","-999.99","66c6e4a9111b2e001a2b1092"
"2024-08-22T07:11:52.575Z","44.3596964","-124.9645737","ASNAP","","admin","","","","","","","","","","","-1.83","-1.42","-1.1","0.9","228.38","0.76","0.58","SciCam","/SciCam.20240822_071152575.jpg","PilotCam","/PilotCam.20240822_071152575.jpg","BrowCam","/BrowCam.20240822_071152575.jpg","UserSelect","/UserSelect.20240822_071152575.jpg","","","-999.99","14.96","-999.99","-999.99","66c6e4b8111b2e001a2b1096"
"2024-08-22T07:12:07.606Z","44.3596962","-124.9645736","ASNAP","","admin","","","","","","","","","","","-1.82","-1.44","-0.7","0.2","227.95","0.77","0.58","SciCam","/SciCam.20240822_071207606.jpg","PilotCam","/PilotCam.20240822_071207606.jpg","BrowCam","/BrowCam.20240822_071207606.jpg","UserSelect","/UserSelect.20240822_071207606.jpg","","","-999.99","14.93","-999.99","-999.99","66c6e4c7111b2e001a2b109a"
"2024-08-22T07:12:22.626Z","44.3596961","-124.9645736","ASNAP","","admin","","","","","","","","","","","-1.82","-1.45","-1.0","0.7","227.53","0.79","0.58","SciCam","/SciCam.20240822_071222626.jpg","PilotCam","/PilotCam.20240822_071222626.jpg","BrowCam","/BrowCam.20240822_071222626.jpg","UserSelect","/UserSelect.20240822_071222626.jpg","","","-999.99","14.92","-999.99","-999.99","66c6e4d6111b2e001a2b109e"
"2024-08-22T07:12:37.652Z","44.3597005","-124.9645755","ASNAP","","admin","","","","","","","","","","","-1.97","-0.96","-0.7","-0.7","238.12","0.78","0.58","SciCam","/SciCam.20240822_071237652.jpg","PilotCam","/PilotCam.20240822_071237652.jpg","BrowCam","/BrowCam.20240822_071237652.jpg","UserSelect","/UserSelect.20240822_071237652.jpg","","","-999.99","14.93","-999.99","-999.99","66c6e4e5111b2e001a2b10a2"
"2024-08-22T07:12:52.683Z","44.3597001","-124.9645754","ASNAP","","admin","","","","","","","","","","","-1.96","-1.00","-1.1","0.2","237.26","0.78","0.58","SciCam","/SciCam.20240822_071252683.jpg","PilotCam","/PilotCam.20240822_071252683.jpg","BrowCam","/BrowCam.20240822_071252683.jpg","UserSelect","/UserSelect.20240822_071252683.jpg","","","-999.99","14.92","-999.99","-999.99","66c6e4f4111b2e001a2b10a6"
"2024-08-22T07:13:07.714Z","44.3597001","-124.9645752","ASNAP","","admin","","","","","","","","","","","-1.95","-1.01","-0.5","-1.1","237.17","0.77","0.58","SciCam","/SciCam.20240822_071307714.jpg","PilotCam","/PilotCam.20240822_071307714.jpg","BrowCam","/BrowCam.20240822_071307714.jpg","UserSelect","/UserSelect.20240822_071307714.jpg","","","-999.99","14.94","-999.99","-999.99","66c6e503111b2e001a2b10aa"
"2024-08-22T07:13:22.745Z","44.3597008","-124.9645755","ASNAP","","admin","","","","","","","","","","","-1.97","-0.93","-1.1","-1.3","238.62","0.78","0.58","SciCam","/SciCam.20240822_071322745.jpg","PilotCam","/PilotCam.20240822_071322745.jpg","BrowCam","/BrowCam.20240822_071322745.jpg","UserSelect","/UserSelect.20240822_071322745.jpg","","","-999.99","14.90","-999.99","-999.99","66c6e512111b2e001a2b10ae"
"2024-08-22T07:13:37.776Z","44.3597003","-124.9645755","ASNAP","","admin","","","","","","","","","","","-1.97","-0.98","-1.1","-0.0","237.81","0.80","0.58","SciCam","/SciCam.20240822_071337776.jpg","PilotCam","/PilotCam.20240822_071337776.jpg","BrowCam","/BrowCam.20240822_071337776.jpg","UserSelect","/UserSelect.20240822_071337776.jpg","","","-999.99","14.94","-999.99","-999.99","66c6e521111b2e001a2b10b2"
"2024-08-22T07:13:52.808Z","44.3597006","-124.9645755","ASNAP","","admin","","","","","","","","","","","-1.97","-0.95","-1.3","-0.1","238.27","0.80","0.58","SciCam","/SciCam.20240822_071352808.jpg","PilotCam","/PilotCam.20240822_071352808.jpg","BrowCam","/BrowCam.20240822_071352808.jpg","UserSelect","/UserSelect.20240822_071352808.jpg","","","-999.99","14.92","-999.99","-999.99","66c6e530111b2e001a2b10b6"
"2024-08-22T07:14:07.839Z","44.3596992","-124.9645750","ASNAP","","admin","","","","","","","","","","","-1.93","-1.11","-0.7","0.0","235.06","0.78","0.58","SciCam","/SciCam.20240822_071407839.jpg","PilotCam","/PilotCam.20240822_071407839.jpg","BrowCam","/BrowCam.20240822_071407839.jpg","UserSelect","/UserSelect.20240822_071407839.jpg","","","-999.99","14.95","-999.99","-999.99","66c6e53f111b2e001a2b10ba"
"2024-08-22T07:14:22.869Z","44.3596863","-124.9645639","ASNAP","","admin","","","","","","","","","","","-1.05","-2.54","-0.4","1.3","197.31","0.78","0.58","SciCam","/SciCam.20240822_071422869.jpg","PilotCam","/PilotCam.20240822_071422869.jpg","BrowCam","/BrowCam.20240822_071422869.jpg","UserSelect","/UserSelect.20240822_071422869.jpg","","","-999.99","14.98","-999.99","-999.99","66c6e54e111b2e001a2b10be"
"2024-08-22T07:14:37.902Z","44.3596829","-124.9645501","ASNAP","","admin","","","","","","","","","","","0.05","-2.92","-0.8","0.3","166.03","0.78","0.58","SciCam","/SciCam.20240822_071437902.jpg","PilotCam","/PilotCam.20240822_071437902.jpg","BrowCam","/BrowCam.20240822_071437902.jpg","UserSelect","/UserSelect.20240822_071437902.jpg","","","-999.99","14.99","-999.99","-999.99","66c6e55d111b2e001a2b10c2"
"2024-08-22T07:14:52.932Z","44.3596830","-124.9645499","ASNAP","","admin","","","","","","","","","","","0.07","-2.91","-0.6","-0.9","165.40","0.80","0.58","SciCam","/SciCam.20240822_071452932.jpg","PilotCam","/PilotCam.20240822_071452932.jpg","BrowCam","/BrowCam.20240822_071452932.jpg","UserSelect","/UserSelect.20240822_071452932.jpg","","","-999.99","15.02","-999.99","-999.99","66c6e56c111b2e001a2b10c6"
"2024-08-22T07:15:07.965Z","44.3596830","-124.9645500","ASNAP","","admin","","","","","","","","","","","0.06","-2.91","-0.8","-0.8","165.91","0.79","0.58","SciCam","/SciCam.20240822_071507965.jpg","PilotCam","/PilotCam.20240822_071507965.jpg","BrowCam","/BrowCam.20240822_071507965.jpg","UserSelect","/UserSelect.20240822_071507965.jpg","","","-999.99","14.99","-999.99","-999.99","66c6e57b111b2e001a2b10ca"
"2024-08-22T07:15:08.734Z","44.3596830","-124.9645500","ROV Actions","undervator","guest","","Latching to","","","","","","","","","0.06","-2.91","-0.8","-0.8","165.91","0.79","0.58","SciCam","/SciCam.20240822_071508734.jpg","PilotCam","/PilotCam.20240822_071508734.jpg","BrowCam","/BrowCam.20240822_071508734.jpg","UserSelect","/UserSelect.20240822_071508734.jpg","","","-999.99","15.02","-999.99","-999.99","66c6e57c111b2e001a2b10ce"
"2024-08-22T07:15:22.998Z","44.3596832","-124.9645522","ASNAP","","admin","","","","","","","","","","","-0.11","-2.88","-0.4","-3.2","170.36","0.81","0.58","SciCam","/SciCam.20240822_071522998.jpg","PilotCam","/PilotCam.20240822_071522998.jpg","BrowCam","/BrowCam.20240822_071522998.jpg","UserSelect","/UserSelect.20240822_071522998.jpg","","","-999.99","14.97","-999.99","-999.99","66c6e58a111b2e001a2b10d2"
"2024-08-22T07:15:38.014Z","44.3596830","-124.9645523","ASNAP","","admin","","","","","","","","","","","-0.12","-2.90","-0.5","-1.4","170.62","0.83","0.58","SciCam","/SciCam.20240822_071538014.jpg","PilotCam","/PilotCam.20240822_071538014.jpg","BrowCam","/BrowCam.20240822_071538014.jpg","UserSelect","/UserSelect.20240822_071538014.jpg","","","-999.99","14.99","-999.99","-999.99","66c6e59a111b2e001a2b10d6"
"2024-08-22T07:15:53.041Z","44.3596830","-124.9645517","ASNAP","","admin","","","","","","","","","","","-0.07","-2.91","-0.4","-0.8","169.41","0.81","0.58","SciCam","/SciCam.20240822_071553041.jpg","PilotCam","/PilotCam.20240822_071553041.jpg","BrowCam","/BrowCam.20240822_071553041.jpg","UserSelect","/UserSelect.20240822_071553041.jpg","","","-999.99","14.99","-999.99","-999.99","66c6e5a9111b2e001a2b10da"
"2024-08-22T07:16:08.073Z","44.3596828","-124.9645517","ASNAP","","admin","","","","","","","","","","","-0.07","-2.93","-0.9","1.0","169.35","0.77","0.58","SciCam","/SciCam.20240822_071608073.jpg","PilotCam","/PilotCam.20240822_071608073.jpg","BrowCam","/BrowCam.20240822_071608073.jpg","UserSelect","/UserSelect.20240822_071608073.jpg","","","-999.99","14.97","-999.99","-999.99","66c6e5b8111b2e001a2b10de"
"2024-08-22T07:16:23.104Z","44.3596828","-124.9645518","ASNAP","","admin","","","","","","","","","","","-0.08","-2.93","-0.4","1.5","169.61","0.78","0.58","SciCam","/SciCam.20240822_071623104.jpg","PilotCam","/PilotCam.20240822_071623104.jpg","BrowCam","/BrowCam.20240822_071623104.jpg","UserSelect","/UserSelect.20240822_071623104.jpg","","","-999.99","14.98","-999.99","-999.99","66c6e5c7111b2e001a2b10e2"
"2024-08-22T07:16:38.129Z","44.3596904","-124.9645692","ASNAP","","admin","","","","","","","","","","","-1.47","-2.08","-0.4","1.2","212.52","0.79","0.58","SciCam","/SciCam.20240822_071638129.jpg","PilotCam","/PilotCam.20240822_071638129.jpg","BrowCam","/BrowCam.20240822_071638129.jpg","UserSelect","/UserSelect.20240822_071638129.jpg","","","-999.99","14.99","-999.99","-999.99","66c6e5d6111b2e001a2b10e6"
"2024-08-22T07:16:53.160Z","44.3597120","-124.9645769","ASNAP","","admin","","","","","","","","","","","-2.08","0.32","-1.3","0.4","263.83","0.81","0.58","SciCam","/SciCam.20240822_071653160.jpg","PilotCam","/PilotCam.20240822_071653160.jpg","BrowCam","/BrowCam.20240822_071653160.jpg","UserSelect","/UserSelect.20240822_071653160.jpg","","","-999.99","14.98","-999.99","-999.99","66c6e5e5111b2e001a2b10ea"
"2024-08-22T07:17:08.194Z","44.3597127","-124.9645765","ASNAP","","admin","","","","","","","","","","","-2.05","0.40","-1.7","-2.5","265.04","0.87","0.58","SciCam","/SciCam.20240822_071708194.jpg","PilotCam","/PilotCam.20240822_071708194.jpg","BrowCam","/BrowCam.20240822_071708194.jpg","UserSelect","/UserSelect.20240822_071708194.jpg","","","-999.99","15.04","-999.99","-999.99","66c6e5f4111b2e001a2b10ee"
"2024-08-22T07:17:23.226Z","44.3597128","-124.9645766","ASNAP","","admin","","","","","","","","","","","-2.06","0.41","-1.4","-0.9","265.26","0.84","0.58","SciCam","/SciCam.20240822_071723226.jpg","PilotCam","/PilotCam.20240822_071723226.jpg","BrowCam","/BrowCam.20240822_071723226.jpg","UserSelect","/UserSelect.20240822_071723226.jpg","","","-999.99","15.01","-999.99","-999.99","66c6e603111b2e001a2b10f6"
"2024-08-22T07:17:37.496Z","44.3597054","-124.9645766","VEHICLE","","guest","Jason in water","","","","","","","","","","-2.06","-0.42","0.3","-1.0","249.31","0.81","0.58","SciCam","/SciCam.20240822_071737496.jpg","PilotCam","/PilotCam.20240822_071737496.jpg","BrowCam","/BrowCam.20240822_071737496.jpg","UserSelect","/UserSelect.20240822_071737496.jpg","","","-999.99","15.08","-999.99","-999.99","66c6e611111b2e001a2b10fa"
"2024-08-22T07:17:38.257Z","44.3597055","-124.9645767","ASNAP","","admin","","","","","","","","","","","-2.07","-0.41","-0.1","1.2","249.49","0.80","0.58","SciCam","/SciCam.20240822_071738257.jpg","PilotCam","/PilotCam.20240822_071738257.jpg","BrowCam","/BrowCam.20240822_071738257.jpg","UserSelect","/UserSelect.20240822_071738257.jpg","","","-999.99","15.17","-999.99","-999.99","66c6e612111b2e001a2b10fd"
"2024-08-22T07:17:53.278Z","44.3597064","-124.9645724","ASNAP","","admin","","","","","","","","","","","-1.72","-0.31","-0.7","-2.3","254.75","4.69","0.58","SciCam","/SciCam.20240822_071753278.jpg","PilotCam","/PilotCam.20240822_071753278.jpg","BrowCam","/BrowCam.20240822_071753278.jpg","UserSelect","/UserSelect.20240822_071753278.jpg","","","-999.99","16.55","-999.99","-999.99","66c6e621111b2e001a2b1102"
"2024-08-22T07:18:08.305Z","44.3597041","-124.9645713","ASNAP","","admin","","","","","","","","","","","-1.64","-0.56","-2.5","-1.0","249.18","6.51","2.20","SciCam","/SciCam.20240822_071808305.jpg","PilotCam","/PilotCam.20240822_071808305.jpg","BrowCam","/BrowCam.20240822_071808305.jpg","UserSelect","/UserSelect.20240822_071808305.jpg","","","-999.99","17.30","-999.99","-999.99","66c6e630111b2e001a2b110a"
"2024-08-22T07:18:23.333Z","44.3597108","-124.9645710","ASNAP","","admin","","","","","","","","","","","-1.61","0.18","0.3","-4.4","262.23","10.35","2.20","SciCam","/SciCam.20240822_071823333.jpg","PilotCam","/PilotCam.20240822_071823333.jpg","BrowCam","/BrowCam.20240822_071823333.jpg","UserSelect","/UserSelect.20240822_071823333.jpg","","","-999.99","17.60","-999.99","-999.99","66c6e63f111b2e001a2b110e"
"2024-08-22T07:18:38.361Z","44.3597101","-124.9645707","ASNAP","","admin","","","","","","","","","","","-1.59","0.11","-1.3","-3.3","262.98","15.33","2.20","SciCam","/SciCam.20240822_071838361.jpg","PilotCam","/PilotCam.20240822_071838361.jpg","BrowCam","/BrowCam.20240822_071838361.jpg","UserSelect","/UserSelect.20240822_071838361.jpg","","","-999.99","17.31","-999.99","-999.99","66c6e64e111b2e001a2b1112"
"2024-08-22T07:18:53.394Z","44.3597102","-124.9645710","ASNAP","","admin","","","","","","","","","","","-1.61","0.12","-1.5","-0.0","262.85","19.97","2.19","SciCam","/SciCam.20240822_071853394.jpg","PilotCam","/PilotCam.20240822_071853394.jpg","BrowCam","/BrowCam.20240822_071853394.jpg","UserSelect","/UserSelect.20240822_071853394.jpg","","","-999.99","16.67","-999.99","-999.99","66c6e65d111b2e001a2b1116"
"2024-08-22T07:19:08.427Z","44.3597100","-124.9645708","ASNAP","","admin","","","","","","","","","","","-1.60","0.09","-1.4","-3.2","262.50","22.73","2.20","SciCam","/SciCam.20240822_071908427.jpg","PilotCam","/PilotCam.20240822_071908427.jpg","BrowCam","/BrowCam.20240822_071908427.jpg","UserSelect","/UserSelect.20240822_071908427.jpg","","","-999.99","14.72","-999.99","-999.99","66c6e66c111b2e001a2b111a"
"2024-08-22T07:19:23.458Z","44.3597105","-124.9645708","ASNAP","","admin","","","","","","","","","","","-1.60","0.15","-1.2","-3.8","263.48","21.32","2.22","SciCam","/SciCam.20240822_071923458.jpg","PilotCam","/PilotCam.20240822_071923458.jpg","BrowCam","/BrowCam.20240822_071923458.jpg","UserSelect","/UserSelect.20240822_071923458.jpg","","","-999.99","13.10","-999.99","-999.99","66c6e67b111b2e001a2b111e"
"2024-08-22T07:19:38.482Z","44.3597109","-124.9645713","ASNAP","","admin","","","","","","","","","","","-1.64","0.20","-7.5","2.4","262.98","21.70","2.23","SciCam","/SciCam.20240822_071938482.jpg","PilotCam","/PilotCam.20240822_071938482.jpg","BrowCam","/BrowCam.20240822_071938482.jpg","UserSelect","/UserSelect.20240822_071938482.jpg","","","-999.99","11.86","-999.99","-999.99","66c6e68a111b2e001a2b1122"
"2024-08-22T07:19:53.508Z","44.3597093","-124.9645710","ASNAP","","admin","","","","","","","","","","","-1.61","0.02","-2.0","-3.2","260.70","21.54","2.22","SciCam","/SciCam.20240822_071953508.jpg","PilotCam","/PilotCam.20240822_071953508.jpg","BrowCam","/BrowCam.20240822_071953508.jpg","UserSelect","/UserSelect.20240822_071953508.jpg","","","-999.99","11.17","-999.99","-999.99","66c6e699111b2e001a2b1126"
"2024-08-22T07:20:08.086Z","44.3597102","-124.9645708","ROV Actions"," ","guest","","First Football on","","","","","","","","","-1.60","0.12","-1.6","-3.2","262.73","22.43","2.22","SciCam","/SciCam.20240822_072008086.jpg","PilotCam","/PilotCam.20240822_072008086.jpg","BrowCam","/BrowCam.20240822_072008086.jpg","UserSelect","/UserSelect.20240822_072008086.jpg","","","-999.99","10.98","-999.99","-999.99","66c6e6a8111b2e001a2b112a"
"2024-08-22T07:20:08.536Z","44.3597102","-124.9645708","ASNAP","","admin","","","","","","","","","","","-1.60","0.12","-1.6","-3.2","262.73","22.43","2.22","SciCam","/SciCam.20240822_072008536.jpg","PilotCam","/PilotCam.20240822_072008536.jpg","BrowCam","/BrowCam.20240822_072008536.jpg","UserSelect","/UserSelect.20240822_072008536.jpg","","","-999.99","10.98","-999.99","-999.99","66c6e6a8111b2e001a2b112d"
"2024-08-22T07:20:23.568Z","44.3597106","-124.9645707","ASNAP","","admin","","","","","","","","","","","-1.59","0.16","-1.9","-3.6","263.24","24.26","2.23","SciCam","/SciCam.20240822_072023568.jpg","PilotCam","/PilotCam.20240822_072023568.jpg","BrowCam","/BrowCam.20240822_072023568.jpg","UserSelect","/UserSelect.20240822_072023568.jpg","","","-999.99","10.61","-999.99","-999.99","66c6e6b7111b2e001a2b1132"
"2024-08-22T07:20:38.585Z","44.3597105","-124.9645707","ASNAP","","admin","","","","","","","","","","","-1.59","0.15","-2.8","-3.5","263.48","25.48","2.23","SciCam","/SciCam.20240822_072038585.jpg","PilotCam","/PilotCam.20240822_072038585.jpg","BrowCam","/BrowCam.20240822_072038585.jpg","UserSelect","/UserSelect.20240822_072038585.jpg","","","-999.99","10.39","-999.99","-999.99","66c6e6c6111b2e001a2b1136"
"2024-08-22T07:20:53.616Z","44.3597103","-124.9645708","ASNAP","","admin","","","","","","","","","","","-1.60","0.13","-1.8","-3.1","262.61","26.89","2.21","SciCam","/SciCam.20240822_072053616.jpg","PilotCam","/PilotCam.20240822_072053616.jpg","BrowCam","/BrowCam.20240822_072053616.jpg","UserSelect","/UserSelect.20240822_072053616.jpg","","","-999.99","10.03","-999.99","-999.99","66c6e6d5111b2e001a2b113a"
"2024-08-22T07:21:08.646Z","44.3597102","-124.9645707","ASNAP","","admin","","","","","","","","","","","-1.59","0.12","-2.3","-2.5","262.98","27.93","2.23","SciCam","/SciCam.20240822_072108646.jpg","PilotCam","/PilotCam.20240822_072108646.jpg","BrowCam","/BrowCam.20240822_072108646.jpg","UserSelect","/UserSelect.20240822_072108646.jpg","","","-999.99","9.92","-999.99","-999.99","66c6e6e4111b2e001a2b113e"
"2024-08-22T07:21:23.680Z","44.3597103","-124.9645707","ASNAP","","admin","","","","","","","","","","","-1.59","0.13","-2.6","-2.6","262.86","29.80","2.22","SciCam","/SciCam.20240822_072123680.jpg","PilotCam","/PilotCam.20240822_072123680.jpg","BrowCam","/BrowCam.20240822_072123680.jpg","UserSelect","/UserSelect.20240822_072123680.jpg","","","-999.99","9.80","-999.99","-999.99","66c6e6f3111b2e001a2b1142"
"2024-08-22T07:21:38.712Z","44.3597101","-124.9645707","ASNAP","","admin","","","","","","","","","","","-1.59","0.11","-1.9","-2.8","262.31","31.41","2.23","SciCam","/SciCam.20240822_072138712.jpg","PilotCam","/PilotCam.20240822_072138712.jpg","BrowCam","/BrowCam.20240822_072138712.jpg","UserSelect","/UserSelect.20240822_072138712.jpg","","","-999.99","9.57","-999.99","-999.99","66c6e702111b2e001a2b1146"
"2024-08-22T07:21:53.731Z","44.3597104","-124.9645707","ASNAP","","admin","","","","","","","","","","","-1.59","0.14","-1.6","-2.6","263.15","33.19","2.22","SciCam","/SciCam.20240822_072153731.jpg","PilotCam","/PilotCam.20240822_072153731.jpg","BrowCam","/BrowCam.20240822_072153731.jpg","UserSelect","/UserSelect.20240822_072153731.jpg","","","-999.99","9.30","-999.99","-999.99","66c6e711111b2e001a2b114a"
"2024-08-22T07:22:08.762Z","44.3597102","-124.9645707","ASNAP","","admin","","","","","","","","","","","-1.59","0.12","-0.9","-3.2","262.81","33.86","2.22","SciCam","/SciCam.20240822_072208762.jpg","PilotCam","/PilotCam.20240822_072208762.jpg","BrowCam","/BrowCam.20240822_072208762.jpg","UserSelect","/UserSelect.20240822_072208762.jpg","","","-999.99","9.27","-999.99","-999.99","66c6e720111b2e001a2b114e"
"2024-08-22T07:22:23.782Z","44.3597100","-124.9645708","ASNAP","","admin","","","","","","","","","","","-1.60","0.10","-1.6","-3.5","262.35","35.87","2.23","SciCam","/SciCam.20240822_072223782.jpg","PilotCam","/PilotCam.20240822_072223782.jpg","BrowCam","/BrowCam.20240822_072223782.jpg","UserSelect","/UserSelect.20240822_072223782.jpg","","","-999.99","9.17","-999.99","-999.99","66c6e72f111b2e001a2b1152"
"2024-08-22T07:22:38.802Z","44.3597100","-124.9645707","ASNAP","","admin","","","","","","","","","","","-1.59","0.10","-1.1","-3.3","262.68","36.41","2.22","SciCam","/SciCam.20240822_072238802.jpg","PilotCam","/PilotCam.20240822_072238802.jpg","BrowCam","/BrowCam.20240822_072238802.jpg","UserSelect","/UserSelect.20240822_072238802.jpg","","","-999.99","9.04","-999.99","-999.99","66c6e73e111b2e001a2b1156"
"2024-08-22T07:22:53.833Z","44.3597103","-124.9645707","ASNAP","","admin","","","","","","","","","","","-1.59","0.13","-1.3","-3.4","262.38","37.99","2.22","SciCam","/SciCam.20240822_072253833.jpg","PilotCam","/PilotCam.20240822_072253833.jpg","BrowCam","/BrowCam.20240822_072253833.jpg","UserSelect","/UserSelect.20240822_072253833.jpg","","","-999.99","8.98","-999.99","-999.99","66c6e74d111b2e001a2b115a"
"2024-08-22T07:23:08.864Z","44.3597102","-124.9645707","ASNAP","","admin","","","","","","","","","","","-1.59","0.12","-1.3","-3.6","262.60","38.53","2.23","SciCam","/SciCam.20240822_072308864.jpg","PilotCam","/PilotCam.20240822_072308864.jpg","BrowCam","/BrowCam.20240822_072308864.jpg","UserSelect","/UserSelect.20240822_072308864.jpg","","","-999.99","8.96","-999.99","-999.99","66c6e75c111b2e001a2b115e"
"2024-08-22T07:23:23.885Z","44.3597100","-124.9645707","ASNAP","","admin","","","","","","","","","","","-1.59","0.10","-1.9","-2.9","262.34","40.08","2.23","SciCam","/SciCam.20240822_072323885.jpg","PilotCam","/PilotCam.20240822_072323885.jpg","BrowCam","/BrowCam.20240822_072323885.jpg","UserSelect","/UserSelect.20240822_072323885.jpg","","","-999.99","8.96","-999.99","-999.99","66c6e76b111b2e001a2b1162"
"2024-08-22T07:23:38.912Z","44.3597105","-124.9645706","ASNAP","","admin","","","","","","","","","","","-1.58","0.15","-1.6","-3.4","263.17","40.89","2.22","SciCam","/SciCam.20240822_072338912.jpg","PilotCam","/PilotCam.20240822_072338912.jpg","BrowCam","/BrowCam.20240822_072338912.jpg","UserSelect","/UserSelect.20240822_072338912.jpg","","","-999.99","8.86","-999.99","-999.99","66c6e77a111b2e001a2b1166"
"2024-08-22T07:23:53.941Z","44.3597105","-124.9645706","ASNAP","","admin","","","","","","","","","","","-1.58","0.15","-2.1","-4.2","262.91","41.93","2.21","SciCam","/SciCam.20240822_072353941.jpg","PilotCam","/PilotCam.20240822_072353941.jpg","BrowCam","/BrowCam.20240822_072353941.jpg","UserSelect","/UserSelect.20240822_072353941.jpg","","","-999.99","8.77","-999.99","-999.99","66c6e789111b2e001a2b116a"
"2024-08-22T07:24:08.968Z","44.3597102","-124.9645707","ASNAP","","admin","","","","","","","","","","","-1.59","0.12","-1.3","-2.9","262.71","43.85","2.23","SciCam","/SciCam.20240822_072408968.jpg","PilotCam","/PilotCam.20240822_072408968.jpg","BrowCam","/BrowCam.20240822_072408968.jpg","UserSelect","/UserSelect.20240822_072408968.jpg","","","-999.99","8.74","-999.99","-999.99","66c6e798111b2e001a2b116e"
"2024-08-22T07:24:24.002Z","44.3597102","-124.9645706","ASNAP","","admin","","","","","","","","","","","-1.58","0.12","-1.3","-2.5","262.85","44.62","2.23","SciCam","/SciCam.20240822_072424002.jpg","PilotCam","/PilotCam.20240822_072424002.jpg","BrowCam","/BrowCam.20240822_072424002.jpg","UserSelect","/UserSelect.20240822_072424002.jpg","","","-999.99","8.63","-999.99","-999.99","66c6e7a8111b2e001a2b1172"
"2024-08-22T07:24:39.037Z","44.3597103","-124.9645708","ASNAP","","admin","","","","","","","","","","","-1.60","0.13","-1.0","-1.7","263.08","45.04","2.23","SciCam","/SciCam.20240822_072439037.jpg","PilotCam","/PilotCam.20240822_072439037.jpg","BrowCam","/BrowCam.20240822_072439037.jpg","UserSelect","/UserSelect.20240822_072439037.jpg","","","-999.99","8.64","-999.99","-999.99","66c6e7b7111b2e001a2b1176"
"2024-08-22T07:24:54.068Z","44.3597103","-124.9645706","ASNAP","","admin","","","","","","","","","","","-1.58","0.13","-0.9","-3.1","263.18","47.12","2.22","SciCam","/SciCam.20240822_072454068.jpg","PilotCam","/PilotCam.20240822_072454068.jpg","BrowCam","/BrowCam.20240822_072454068.jpg","UserSelect","/UserSelect.20240822_072454068.jpg","","","-999.99","8.57","-999.99","-999.99","66c6e7c6111b2e001a2b117a"
"2024-08-22T07:25:09.101Z","44.3597103","-124.9645705","ASNAP","","admin","","","","","","","","","","","-1.57","0.13","-1.3","-2.3","262.70","48.85","2.22","SciCam","/SciCam.20240822_072509101.jpg","PilotCam","/PilotCam.20240822_072509101.jpg","BrowCam","/BrowCam.20240822_072509101.jpg","UserSelect","/UserSelect.20240822_072509101.jpg","","","-999.99","8.59","-999.99","-999.99","66c6e7d5111b2e001a2b117e"
"2024-08-22T07:25:24.133Z","44.3597100","-124.9645705","ASNAP","","admin","","","","","","","","","","","-1.57","0.09","0.1","-3.6","263.18","48.10","2.22","SciCam","/SciCam.20240822_072524133.jpg","PilotCam","/PilotCam.20240822_072524133.jpg","BrowCam","/BrowCam.20240822_072524133.jpg","UserSelect","/UserSelect.20240822_072524133.jpg","","","-999.99","8.52","-999.99","-999.99","66c6e7e4111b2e001a2b1186"
"2024-08-22T07:25:39.161Z","44.3597102","-124.9645705","ASNAP","","admin","","","","","","","","","","","-1.57","0.12","-0.6","-2.6","263.24","51.42","2.22","SciCam","/SciCam.20240822_072539161.jpg","PilotCam","/PilotCam.20240822_072539161.jpg","BrowCam","/BrowCam.20240822_072539161.jpg","UserSelect","/UserSelect.20240822_072539161.jpg","","","-999.99","8.50","-999.99","-999.99","66c6e7f3111b2e001a2b118a"
"2024-08-22T07:25:40.193Z","44.3597103","-124.9645706","ROV Actions"," ","guest","","Last Football on","","","","","","","","","-1.58","0.13","-0.7","-1.9","263.49","52.11","2.22","SciCam","/SciCam.20240822_072540193.jpg","PilotCam","/PilotCam.20240822_072540193.jpg","BrowCam","/BrowCam.20240822_072540193.jpg","UserSelect","/UserSelect.20240822_072540193.jpg","","","-999.99","8.64","-999.99","-999.99","66c6e7f4111b2e001a2b118e"
"2024-08-22T07:25:54.192Z","44.3597103","-124.9645705","ASNAP","","admin","","","","","","","","","","","-1.57","0.13","-1.2","-2.9","263.57","57.27","2.24","SciCam","/SciCam.20240822_072554192.jpg","PilotCam","/PilotCam.20240822_072554192.jpg","BrowCam","/BrowCam.20240822_072554192.jpg","UserSelect","/UserSelect.20240822_072554192.jpg","","","-999.99","8.56","-999.99","-999.99","66c6e802111b2e001a2b1192"
"2024-08-22T07:26:09.225Z","44.3597099","-124.9645706","ASNAP","","admin","","","","","","","","","","","-1.58","0.08","-1.0","-3.7","262.38","63.58","2.23","SciCam","/SciCam.20240822_072609225.jpg","PilotCam","/PilotCam.20240822_072609225.jpg","BrowCam","/BrowCam.20240822_072609225.jpg","UserSelect","/UserSelect.20240822_072609225.jpg","","","-999.99","8.61","-999.99","-999.99","66c6e811111b2e001a2b1196"
"2024-08-22T07:26:24.256Z","44.3597100","-124.9645705","ASNAP","","admin","","","","","","","","","","","-1.57","0.10","-1.1","-1.6","262.98","69.95","2.22","SciCam","/SciCam.20240822_072624256.jpg","PilotCam","/PilotCam.20240822_072624256.jpg","BrowCam","/BrowCam.20240822_072624256.jpg","UserSelect","/UserSelect.20240822_072624256.jpg","","","-999.99","8.55","-999.99","-999.99","66c6e820111b2e001a2b119a"
"2024-08-22T07:26:39.289Z","44.3597097","-124.9645706","ASNAP","","admin","","","","","","","","","","","-1.58","0.06","-0.8","-3.1","262.36","75.17","2.22","SciCam","/SciCam.20240822_072639289.jpg","PilotCam","/PilotCam.20240822_072639289.jpg","BrowCam","/BrowCam.20240822_072639289.jpg","UserSelect","/UserSelect.20240822_072639289.jpg","","","-999.99","8.60","-999.99","-999.99","66c6e82f111b2e001a2b119e"
"2024-08-22T07:26:54.317Z","44.3597098","-124.9645705","ASNAP","","admin","","","","","","","","","","","-1.57","0.07","-1.1","-2.4","262.18","81.35","2.22","SciCam","/SciCam.20240822_072654317.jpg","PilotCam","/PilotCam.20240822_072654317.jpg","BrowCam","/BrowCam.20240822_072654317.jpg","UserSelect","/UserSelect.20240822_072654317.jpg","","","-999.99","8.70","-999.99","-999.99","66c6e83e111b2e001a2b11a2"
"2024-08-22T07:27:09.342Z","44.3597100","-124.9645706","ASNAP","","admin","","","","","","","","","","","-1.58","0.10","-1.9","-2.0","262.58","86.67","2.22","SciCam","/SciCam.20240822_072709342.jpg","PilotCam","/PilotCam.20240822_072709342.jpg","BrowCam","/BrowCam.20240822_072709342.jpg","UserSelect","/UserSelect.20240822_072709342.jpg","","","-999.99","8.66","-999.99","-999.99","66c6e84d111b2e001a2b11a6"
"2024-08-22T07:27:24.370Z","44.3597100","-124.9645706","ASNAP","","admin","","","","","","","","","","","-1.58","0.09","-1.1","-2.2","262.45","92.17","2.23","SciCam","/SciCam.20240822_072724370.jpg","PilotCam","/PilotCam.20240822_072724370.jpg","BrowCam","/BrowCam.20240822_072724370.jpg","UserSelect","/UserSelect.20240822_072724370.jpg","","","-999.99","8.42","-999.99","-999.99","66c6e85c111b2e001a2b11aa"
"2024-08-22T07:27:39.401Z","44.3597100","-124.9645705","ASNAP","","admin","","","","","","","","","","","-1.57","0.09","-2.8","-1.1","262.93","98.80","2.21","SciCam","/SciCam.20240822_072739401.jpg","PilotCam","/PilotCam.20240822_072739401.jpg","BrowCam","/BrowCam.20240822_072739401.jpg","UserSelect","/UserSelect.20240822_072739401.jpg","","","-999.99","8.48","-999.99","-999.99","66c6e86b111b2e001a2b11ae"
"2024-08-22T07:27:54.433Z","44.3597099","-124.9645701","ASNAP","","admin","","","","","","","","","","","-1.54","0.08","-0.7","-2.7","262.59","103.34","2.23","SciCam","/SciCam.20240822_072754433.jpg","PilotCam","/PilotCam.20240822_072754433.jpg","BrowCam","/BrowCam.20240822_072754433.jpg","UserSelect","/UserSelect.20240822_072754433.jpg","","","-999.99","8.42","-999.99","-999.99","66c6e87a111b2e001a2b11b2"
"2024-08-22T07:28:09.461Z","44.3597092","-124.9645703","ASNAP","","admin","","","","","","","","","","","-1.56","0.01","-4.2","-2.3","261.56","110.48","2.22","SciCam","/SciCam.20240822_072809461.jpg","PilotCam","/PilotCam.20240822_072809461.jpg","BrowCam","/BrowCam.20240822_072809461.jpg","UserSelect","/UserSelect.20240822_072809461.jpg","","","-999.99","8.34","-999.99","-999.99","66c6e889111b2e001a2b11b6"
"2024-08-22T07:28:24.492Z","44.3597097","-124.9645701","ASNAP","","admin","","","","","","","","","","","-1.54","0.06","-4.6","-1.5","262.16","116.26","2.22","SciCam","/SciCam.20240822_072824492.jpg","PilotCam","/PilotCam.20240822_072824492.jpg","BrowCam","/BrowCam.20240822_072824492.jpg","UserSelect","/UserSelect.20240822_072824492.jpg","","","-999.99","8.20","-999.99","-999.99","66c6e898111b2e001a2b11ba"
"2024-08-22T07:28:39.525Z","44.3597097","-124.9645701","ASNAP","","admin","","","","","","","","","","","-1.54","0.06","-1.9","-1.3","262.57","122.77","2.22","SciCam","/SciCam.20240822_072839525.jpg","PilotCam","/PilotCam.20240822_072839525.jpg","BrowCam","/BrowCam.20240822_072839525.jpg","UserSelect","/UserSelect.20240822_072839525.jpg","","","-999.99","8.09","-999.99","-999.99","66c6e8a7111b2e001a2b11be"
"2024-08-22T07:28:54.548Z","44.3597098","-124.9645700","ASNAP","","admin","","","","","","","","","","","-1.53","0.07","-1.6","-2.6","262.94","128.08","2.23","SciCam","/SciCam.20240822_072854548.jpg","PilotCam","/PilotCam.20240822_072854548.jpg","BrowCam","/BrowCam.20240822_072854548.jpg","UserSelect","/UserSelect.20240822_072854548.jpg","","","-999.99","8.25","-999.99","-999.99","66c6e8b6111b2e001a2b11c2"
"2024-08-22T07:29:09.579Z","44.3597095","-124.9645702","ASNAP","","admin","","","","","","","","","","","-1.55","0.04","-2.2","-2.2","262.41","135.06","2.23","SciCam","/SciCam.20240822_072909579.jpg","PilotCam","/PilotCam.20240822_072909579.jpg","BrowCam","/BrowCam.20240822_072909579.jpg","UserSelect","/UserSelect.20240822_072909579.jpg","","","-999.99","7.95","-999.99","-999.99","66c6e8c5111b2e001a2b11c6"
"2024-08-22T07:29:24.611Z","44.3597099","-124.9645700","ASNAP","","admin","","","","","","","","","","","-1.53","0.08","-0.7","-2.5","263.36","139.62","2.24","SciCam","/SciCam.20240822_072924611.jpg","PilotCam","/PilotCam.20240822_072924611.jpg","BrowCam","/BrowCam.20240822_072924611.jpg","UserSelect","/UserSelect.20240822_072924611.jpg","","","-999.99","8.00","-999.99","-999.99","66c6e8d4111b2e001a2b11ca"
"2024-08-22T07:29:39.642Z","44.3597103","-124.9645700","ASNAP","","admin","","","","","","","","","","","-1.53","0.13","-3.6","-2.8","264.42","141.35","2.22","SciCam","/SciCam.20240822_072939642.jpg","PilotCam","/PilotCam.20240822_072939642.jpg","BrowCam","/BrowCam.20240822_072939642.jpg","UserSelect","/UserSelect.20240822_072939642.jpg","","","-999.99","7.89","-999.99","-999.99","66c6e8e3111b2e001a2b11ce"
"2024-08-22T07:29:47.971Z","44.3597091","-124.9645701","ROV Actions"," ","guest","","Transponder on","","","","","","","","","-1.54","-0.00","-2.8","-2.5","261.63","139.62","2.23","SciCam","/SciCam.20240822_072947971.jpg","PilotCam","/PilotCam.20240822_072947971.jpg","BrowCam","/BrowCam.20240822_072947971.jpg","UserSelect","/UserSelect.20240822_072947971.jpg","","","-999.99","7.98","-999.99","-999.99","66c6e8eb111b2e001a2b11d6"
"2024-08-22T07:29:54.674Z","44.3597096","-124.9645701","ASNAP","","admin","","","","","","","","","","","-1.54","0.05","-3.2","-2.4","262.38","139.24","2.23","SciCam","/SciCam.20240822_072954674.jpg","PilotCam","/PilotCam.20240822_072954674.jpg","BrowCam","/BrowCam.20240822_072954674.jpg","UserSelect","/UserSelect.20240822_072954674.jpg","","","-999.99","7.83","-999.99","-999.99","66c6e8f2111b2e001a2b11da"
"2024-08-22T07:30:09.704Z","44.3597091","-124.9645700","ASNAP","","admin","","","","","","","","","","","-1.53","-0.01","-3.4","-3.3","261.60","138.83","2.23","SciCam","/SciCam.20240822_073009704.jpg","PilotCam","/PilotCam.20240822_073009704.jpg","BrowCam","/BrowCam.20240822_073009704.jpg","UserSelect","/UserSelect.20240822_073009704.jpg","","","-999.99","7.77","-999.99","-999.99","66c6e901111b2e001a2b11de"
"2024-08-22T07:30:24.736Z","44.3597096","-124.9645700","ASNAP","","admin","","","","","","","","","","","-1.53","0.05","-4.8","-2.8","262.88","138.53","2.23","SciCam","/SciCam.20240822_073024736.jpg","PilotCam","/PilotCam.20240822_073024736.jpg","BrowCam","/BrowCam.20240822_073024736.jpg","UserSelect","/UserSelect.20240822_073024736.jpg","","","-999.99","7.98","-999.99","-999.99","66c6e910111b2e001a2b11e2"
"2024-08-22T07:30:39.765Z","44.3597092","-124.9645701","ASNAP","","admin","","","","","","","","","","","-1.54","0.01","-2.9","-3.1","261.51","138.15","2.23","SciCam","/SciCam.20240822_073039765.jpg","PilotCam","/PilotCam.20240822_073039765.jpg","BrowCam","/BrowCam.20240822_073039765.jpg","UserSelect","/UserSelect.20240822_073039765.jpg","","","-999.99","7.74","-999.99","-999.99","66c6e91f111b2e001a2b11e6"
"2024-08-22T07:30:54.784Z","44.3597100","-124.9645701","ASNAP","","admin","","","","","","","","","","","-1.54","0.09","-7.4","-3.0","262.52","138.42","2.21","SciCam","/SciCam.20240822_073054784.jpg","PilotCam","/PilotCam.20240822_073054784.jpg","BrowCam","/BrowCam.20240822_073054784.jpg","UserSelect","/UserSelect.20240822_073054784.jpg","","","-999.99","7.73","-999.99","-999.99","66c6e92e111b2e001a2b11ea"
"2024-08-22T07:31:09.815Z","44.3597096","-124.9645700","ASNAP","","admin","","","","","","","","","","","-1.53","0.05","-6.0","-3.6","262.08","138.47","2.23","SciCam","/SciCam.20240822_073109815.jpg","PilotCam","/PilotCam.20240822_073109815.jpg","BrowCam","/BrowCam.20240822_073109815.jpg","UserSelect","/UserSelect.20240822_073109815.jpg","","","-999.99","7.79","-999.99","-999.99","66c6e93d111b2e001a2b11ee"
"2024-08-22T07:31:24.846Z","44.3597096","-124.9645700","ASNAP","","admin","","","","","","","","","","","-1.53","0.05","-3.5","-3.8","262.41","138.53","2.23","SciCam","/SciCam.20240822_073124846.jpg","PilotCam","/PilotCam.20240822_073124846.jpg","BrowCam","/BrowCam.20240822_073124846.jpg","UserSelect","/UserSelect.20240822_073124846.jpg","","","-999.99","7.78","-999.99","-999.99","66c6e94c111b2e001a2b11f2"
"2024-08-22T07:31:39.877Z","44.3597105","-124.9645697","ASNAP","","admin","","","","","","","","","","","-1.51","0.15","-2.7","-2.9","265.28","137.71","2.23","SciCam","/SciCam.20240822_073139877.jpg","PilotCam","/PilotCam.20240822_073139877.jpg","BrowCam","/BrowCam.20240822_073139877.jpg","UserSelect","/UserSelect.20240822_073139877.jpg","","","-999.99","7.82","-999.99","-999.99","66c6e95b111b2e001a2b11fa"
"2024-08-22T07:31:54.898Z","44.3597099","-124.9645698","ASNAP","","admin","","","","","","","","","","","-1.52","0.08","-1.0","-1.9","263.20","144.59","2.23","SciCam","/SciCam.20240822_073154898.jpg","PilotCam","/PilotCam.20240822_073154898.jpg","BrowCam","/BrowCam.20240822_073154898.jpg","UserSelect","/UserSelect.20240822_073154898.jpg","","","-999.99","7.83","-999.99","-999.99","66c6e96a111b2e001a2b11fe"
"2024-08-22T07:32:09.933Z","44.3597095","-124.9645698","ASNAP","","admin","","","","","","","","","","","-1.52","0.04","-0.5","-2.5","263.11","150.55","2.23","SciCam","/SciCam.20240822_073209933.jpg","PilotCam","/PilotCam.20240822_073209933.jpg","BrowCam","/BrowCam.20240822_073209933.jpg","UserSelect","/UserSelect.20240822_073209933.jpg","","","-999.99","7.80","-999.99","-999.99","66c6e979111b2e001a2b1202"
"2024-08-22T07:32:24.962Z","44.3597100","-124.9645698","ASNAP","","admin","","","","","","","","","","","-1.52","0.09","-0.5","-3.2","264.19","155.79","2.23","SciCam","/SciCam.20240822_073224962.jpg","PilotCam","/PilotCam.20240822_073224962.jpg","BrowCam","/BrowCam.20240822_073224962.jpg","UserSelect","/UserSelect.20240822_073224962.jpg","","","-999.99","7.80","-999.99","-999.99","66c6e988111b2e001a2b1206"
"2024-08-22T07:32:39.995Z","44.3597107","-124.9645698","ASNAP","","admin","","","","","","","","","","","-1.52","0.17","-6.6","-3.4","264.38","157.43","2.23","SciCam","/SciCam.20240822_073239995.jpg","PilotCam","/PilotCam.20240822_073239995.jpg","BrowCam","/BrowCam.20240822_073239995.jpg","UserSelect","/UserSelect.20240822_073239995.jpg","","","-999.99","7.71","-999.99","-999.99","66c6e997111b2e001a2b120a"
"2024-08-22T07:32:55.015Z","44.3597101","-124.9645698","ASNAP","","admin","","","","","","","","","","","-1.52","0.11","-2.4","-3.0","264.76","156.02","2.22","SciCam","/SciCam.20240822_073255015.jpg","PilotCam","/PilotCam.20240822_073255015.jpg","BrowCam","/BrowCam.20240822_073255015.jpg","UserSelect","/UserSelect.20240822_073255015.jpg","","","-999.99","7.64","-999.99","-999.99","66c6e9a7111b2e001a2b120e"
"2024-08-22T07:33:10.048Z","44.3597000","-124.9645690","ASNAP","","admin","","","","","","","","","","","-1.45","-1.02","-8.1","-5.4","247.12","157.05","2.22","SciCam","/SciCam.20240822_073310048.jpg","PilotCam","/PilotCam.20240822_073310048.jpg","BrowCam","/BrowCam.20240822_073310048.jpg","UserSelect","/UserSelect.20240822_073310048.jpg","","","-999.99","7.68","-999.99","-999.99","66c6e9b6111b2e001a2b1212"
"2024-08-22T07:33:25.080Z","44.3597038","-124.9645696","ASNAP","","admin","","","","","","","","","","","-1.50","-0.59","-3.5","-3.3","250.58","157.23","2.23","SciCam","/SciCam.20240822_073325080.jpg","PilotCam","/PilotCam.20240822_073325080.jpg","BrowCam","/BrowCam.20240822_073325080.jpg","UserSelect","/UserSelect.20240822_073325080.jpg","","","-999.99","7.55","-999.99","-999.99","66c6e9c5111b2e001a2b1216"
"2024-08-22T07:33:40.112Z","44.3597033","-124.9645698","ASNAP","","admin","","","","","","","","","","","-1.52","-0.65","-3.1","-3.5","248.19","163.55","2.23","SciCam","/SciCam.20240822_073340112.jpg","PilotCam","/PilotCam.20240822_073340112.jpg","BrowCam","/BrowCam.20240822_073340112.jpg","UserSelect","/UserSelect.20240822_073340112.jpg","","","-999.99","7.80","-999.99","-999.99","66c6e9d4111b2e001a2b121a"
"2024-08-22T07:33:55.144Z","44.3597029","-124.9645697","ASNAP","","admin","","","","","","","","","","","-1.51","-0.69","-3.1","-2.7","248.09","170.65","2.21","SciCam","/SciCam.20240822_073355144.jpg","PilotCam","/PilotCam.20240822_073355144.jpg","BrowCam","/BrowCam.20240822_073355144.jpg","UserSelect","/UserSelect.20240822_073355144.jpg","","","-999.99","7.61","-999.99","-999.99","66c6e9e3111b2e001a2b121e"
"2024-08-22T07:34:10.171Z","44.3596964","-124.9645678","ASNAP","","admin","","","","","","","","","","","-1.36","-1.42","-1.6","-2.0","233.29","177.33","2.23","SciCam","/SciCam.20240822_073410171.jpg","PilotCam","/PilotCam.20240822_073410171.jpg","BrowCam","/BrowCam.20240822_073410171.jpg","UserSelect","/UserSelect.20240822_073410171.jpg","","","-999.99","7.55","-999.99","-999.99","66c6e9f2111b2e001a2b1222"
"2024-08-22T07:34:25.201Z","44.3596889","-124.9645627","ASNAP","","admin","","","","","","","","","","","-0.95","-2.25","-0.9","-3.4","199.35","184.14","2.21","SciCam","/SciCam.20240822_073425201.jpg","PilotCam","/PilotCam.20240822_073425201.jpg","BrowCam","/BrowCam.20240822_073425201.jpg","UserSelect","/UserSelect.20240822_073425201.jpg","","","-999.99","7.52","-999.99","-999.99","66c6ea01111b2e001a2b1226"
"2024-08-22T07:34:40.223Z","44.3596851","-124.9645579","ASNAP","","admin","","","","","","","","","","","-0.57","-2.67","-2.2","-5.6","199.53","190.98","2.21","SciCam","/SciCam.20240822_073440223.jpg","PilotCam","/PilotCam.20240822_073440223.jpg","BrowCam","/BrowCam.20240822_073440223.jpg","UserSelect","/UserSelect.20240822_073440223.jpg","","","-999.99","7.64","-999.99","-999.99","66c6ea10111b2e001a2b122a"
"2024-08-22T07:34:55.257Z","44.3596848","-124.9645577","ASNAP","","admin","","","","","","","","","","","-0.55","-2.71","-0.9","-2.7","198.77","198.41","2.23","SciCam","/SciCam.20240822_073455257.jpg","PilotCam","/PilotCam.20240822_073455257.jpg","BrowCam","/BrowCam.20240822_073455257.jpg","UserSelect","/UserSelect.20240822_073455257.jpg","","","-999.99","7.57","-999.99","-999.99","66c6ea1f111b2e001a2b122e"
"2024-08-22T07:35:10.290Z","44.3596851","-124.9645579","ASNAP","","admin","","","","","","","","","","","-0.57","-2.67","-0.7","-3.5","199.24","205.54","2.22","SciCam","/SciCam.20240822_073510290.jpg","PilotCam","/PilotCam.20240822_073510290.jpg","BrowCam","/BrowCam.20240822_073510290.jpg","UserSelect","/UserSelect.20240822_073510290.jpg","","","-999.99","7.53","-999.99","-999.99","66c6ea2e111b2e001a2b1232"
"2024-08-22T07:35:25.321Z","44.3596848","-124.9645575","ASNAP","","admin","","","","","","","","","","","-0.54","-2.70","-1.7","-3.3","198.90","213.19","2.23","SciCam","/SciCam.20240822_073525321.jpg","PilotCam","/PilotCam.20240822_073525321.jpg","BrowCam","/BrowCam.20240822_073525321.jpg","UserSelect","/UserSelect.20240822_073525321.jpg","","","-999.99","7.40","-999.99","-999.99","66c6ea3d111b2e001a2b1236"
