Date/Time (UTC),vehicleRealtimeNavData.latitude (ddeg),vehicleRealtimeNavData.longitude (ddeg),event_value,event_free_text,event_author,event_option.milestone,event_option.type,event_option.filename,event_option.actions,vehicleRealtimeNavData.local_x (meters),vehicleRealtimeNavData.local_y (meters),vehicleRealtimeNavData.roll (deg),vehicleRealtimeNavData.pitch (deg),vehicleRealtimeNavData.heading (deg),vehicleRealtimeNavData.depth (meters),vehicleRealtimeNavData.altitude (meters),vehicleRealtimeFramegrabberData.camera_name_1,vehicleRealtimeFramegrabberData.filename_1,vehicleRealtimeFramegrabberData.camera_name_2,vehicleRealtimeFramegrabberData.filename_2,vehicleRealtimeFramegrabberData.camera_name_3,vehicleRealtimeFramegrabberData.filename_3,vehicleRealtimeFramegrabberData.camera_name_4,vehicleRealtimeFramegrabberData.filename_4,vehicleReNavData.pitch (deg),vehicleReNavData.roll (deg),vehicleTemperatureProbe.probe1_temperature (degC),vehicleTemperatureProbe.probe2_temperature (degC),vehicleTemperatureProbe.probe3_temperature (degC),vehicleTemperatureProbe.probe4_temperature (degC),id
"2024-08-08T20:35:00.735Z","44.3597349","-124.9645478","ASNAP","","admin","","","","","0.24","2.86","-0.9","-0.8","79.99","0.83","0.58","SciCam","/SciCam.20240808_203500735.jpg","PilotCam","/PilotCam.20240808_203500735.jpg","BrowCam","/BrowCam.20240808_203500735.jpg","UserSelect","/UserSelect.20240808_203500735.jpg","","","","","","","66b52bf42969d9001acb69bc"
"2024-08-08T20:35:30.783Z","44.3597349","-124.9645478","ASNAP","","admin","","","","","0.24","2.86","-0.9","-0.8","79.99","0.83","0.58","SciCam","/SciCam.20240808_203530783.jpg","PilotCam","/PilotCam.20240808_203530783.jpg","BrowCam","/BrowCam.20240808_203530783.jpg","UserSelect","/UserSelect.20240808_203530783.jpg","","","","","","","66b52c122969d9001acb69bf"
"2024-08-08T20:36:00.805Z","44.3597349","-124.9645478","ASNAP","","admin","","","","","0.24","2.86","-0.9","-0.8","79.99","0.83","0.58","SciCam","/SciCam.20240808_203600805.jpg","PilotCam","/PilotCam.20240808_203600805.jpg","BrowCam","/BrowCam.20240808_203600805.jpg","UserSelect","/UserSelect.20240808_203600805.jpg","","","","","","","66b52c302969d9001acb69c2"
"2024-08-08T20:36:30.851Z","44.3597349","-124.9645478","ASNAP","","admin","","","","","0.24","2.86","-0.9","-0.8","79.99","0.70","0.58","SciCam","/SciCam.20240808_203630851.jpg","PilotCam","/PilotCam.20240808_203630851.jpg","BrowCam","/BrowCam.20240808_203630851.jpg","UserSelect","/UserSelect.20240808_203630851.jpg","","","-999.99","18.38","-999.99","-999.99","66b52c4e2969d9001acb69c5"
"2024-08-08T20:37:00.899Z","44.3597349","-124.9645478","ASNAP","","admin","","","","","0.24","2.86","-0.3","0.0","79.99","0.61","0.58","SciCam","/SciCam.20240808_203700899.jpg","PilotCam","/PilotCam.20240808_203700899.jpg","BrowCam","/BrowCam.20240808_203700899.jpg","UserSelect","/UserSelect.20240808_203700899.jpg","","","-999.99","18.38","-999.99","-999.99","66b52c6c2969d9001acb69c9"
"2024-08-08T20:37:30.944Z","44.3597349","-124.9645478","ASNAP","","admin","","","","","0.24","2.86","-1.0","-0.3","79.99","0.60","0.58","SciCam","/SciCam.20240808_203730944.jpg","PilotCam","/PilotCam.20240808_203730944.jpg","BrowCam","/BrowCam.20240808_203730944.jpg","UserSelect","/UserSelect.20240808_203730944.jpg","","","-999.99","18.41","-999.99","-999.99","66b52c8a2969d9001acb69cd"
"2024-08-08T20:38:00.990Z","44.3597349","-124.9645478","ASNAP","","admin","","","","","0.24","2.86","-0.3","-0.5","79.99","0.56","0.58","SciCam","/SciCam.20240808_203800990.jpg","PilotCam","/PilotCam.20240808_203800990.jpg","BrowCam","/BrowCam.20240808_203800990.jpg","UserSelect","/UserSelect.20240808_203800990.jpg","","","-999.99","18.39","-999.99","-999.99","66b52ca82969d9001acb69d1"
"2024-08-08T20:38:31.038Z","44.3597349","-124.9645478","ASNAP","","admin","","","","","0.24","2.86","-1.5","-1.8","79.99","0.60","0.58","SciCam","/SciCam.20240808_203831038.jpg","PilotCam","/PilotCam.20240808_203831038.jpg","BrowCam","/BrowCam.20240808_203831038.jpg","UserSelect","/UserSelect.20240808_203831038.jpg","","","-999.99","18.41","-999.99","-999.99","66b52cc72969d9001acb69d5"
"2024-08-08T20:39:01.084Z","44.3597349","-124.9645478","ASNAP","","admin","","","","","0.24","2.86","-0.8","-0.2","79.99","0.59","0.58","SciCam","/SciCam.20240808_203901084.jpg","PilotCam","/PilotCam.20240808_203901084.jpg","BrowCam","/BrowCam.20240808_203901084.jpg","UserSelect","/UserSelect.20240808_203901084.jpg","","","-999.99","18.43","-999.99","-999.99","66b52ce52969d9001acb69d9"
"2024-08-08T20:39:31.129Z","44.3597349","-124.9645478","ASNAP","","admin","","","","","0.24","2.86","-0.6","-0.5","79.99","0.62","0.58","SciCam","/SciCam.20240808_203931129.jpg","PilotCam","/PilotCam.20240808_203931129.jpg","BrowCam","/BrowCam.20240808_203931129.jpg","UserSelect","/UserSelect.20240808_203931129.jpg","","","-999.99","18.47","-999.99","-999.99","66b52d032969d9001acb69dd"
"2024-08-08T20:40:01.176Z","44.3597349","-124.9645478","ASNAP","","admin","","","","","0.24","2.86","-1.0","0.3","79.99","0.66","0.58","SciCam","/SciCam.20240808_204001176.jpg","PilotCam","/PilotCam.20240808_204001176.jpg","BrowCam","/BrowCam.20240808_204001176.jpg","UserSelect","/UserSelect.20240808_204001176.jpg","","","-999.99","18.48","-999.99","-999.99","66b52d212969d9001acb69e1"
"2024-08-08T20:40:31.219Z","44.3597349","-124.9645478","ASNAP","","admin","","","","","0.24","2.86","0.0","-0.6","79.99","0.66","0.58","SciCam","/SciCam.20240808_204031219.jpg","PilotCam","/PilotCam.20240808_204031219.jpg","BrowCam","/BrowCam.20240808_204031219.jpg","UserSelect","/UserSelect.20240808_204031219.jpg","","","-999.99","18.52","-999.99","-999.99","66b52d3f2969d9001acb69e5"
"2024-08-08T20:41:01.265Z","44.3597349","-124.9645478","ASNAP","","admin","","","","","0.24","2.86","-0.2","-1.3","79.99","0.69","0.58","SciCam","/SciCam.20240808_204101265.jpg","PilotCam","/PilotCam.20240808_204101265.jpg","BrowCam","/BrowCam.20240808_204101265.jpg","UserSelect","/UserSelect.20240808_204101265.jpg","","","-999.99","18.53","-999.99","-999.99","66b52d5d2969d9001acb69e9"
"2024-08-08T20:41:31.297Z","44.3597349","-124.9645478","ASNAP","","admin","","","","","0.24","2.86","-0.9","-2.1","79.99","0.73","0.58","SciCam","/SciCam.20240808_204131297.jpg","PilotCam","/PilotCam.20240808_204131297.jpg","BrowCam","/BrowCam.20240808_204131297.jpg","UserSelect","/UserSelect.20240808_204131297.jpg","","","-999.99","18.54","-999.99","-999.99","66b52d7b2969d9001acb69ed"
"2024-08-08T20:42:01.343Z","44.3597349","-124.9645478","ASNAP","","admin","","","","","0.24","2.86","-0.1","-1.2","177.08","0.73","0.58","SciCam","/SciCam.20240808_204201343.jpg","PilotCam","/PilotCam.20240808_204201343.jpg","BrowCam","/BrowCam.20240808_204201343.jpg","UserSelect","/UserSelect.20240808_204201343.jpg","","","-999.99","18.58","-999.99","-999.99","66b52d992969d9001acb69f1"
"2024-08-08T20:42:31.387Z","44.3597349","-124.9645478","ASNAP","","admin","","","","","0.24","2.86","-0.2","-1.0","176.06","0.75","0.58","SciCam","/SciCam.20240808_204231387.jpg","PilotCam","/PilotCam.20240808_204231387.jpg","BrowCam","/BrowCam.20240808_204231387.jpg","UserSelect","/UserSelect.20240808_204231387.jpg","","","-999.99","18.59","-999.99","-999.99","66b52db72969d9001acb69f5"
"2024-08-08T20:43:01.432Z","44.3597349","-124.9645478","ASNAP","","admin","","","","","0.24","2.86","-0.8","-0.6","176.55","0.78","0.58","SciCam","/SciCam.20240808_204301432.jpg","PilotCam","/PilotCam.20240808_204301432.jpg","BrowCam","/BrowCam.20240808_204301432.jpg","UserSelect","/UserSelect.20240808_204301432.jpg","","","-999.99","18.58","-999.99","-999.99","66b52dd52969d9001acb69fd"
"2024-08-08T20:43:31.482Z","44.3597349","-124.9645478","ASNAP","","admin","","","","","0.24","2.86","-1.4","-1.4","177.01","0.82","0.58","SciCam","/SciCam.20240808_204331482.jpg","PilotCam","/PilotCam.20240808_204331482.jpg","BrowCam","/BrowCam.20240808_204331482.jpg","UserSelect","/UserSelect.20240808_204331482.jpg","","","-999.99","18.64","-999.99","-999.99","66b52df32969d9001acb6a01"
"2024-08-08T20:44:01.528Z","44.3597349","-124.9645478","ASNAP","","admin","","","","","0.24","2.86","-0.9","-1.2","176.82","0.83","0.58","SciCam","/SciCam.20240808_204401528.jpg","PilotCam","/PilotCam.20240808_204401528.jpg","BrowCam","/BrowCam.20240808_204401528.jpg","UserSelect","/UserSelect.20240808_204401528.jpg","","","-999.99","18.66","-999.99","-999.99","66b52e112969d9001acb6a09"
"2024-08-08T20:44:31.576Z","44.3597349","-124.9645478","ASNAP","","admin","","","","","0.24","2.86","-0.5","-1.7","175.78","0.83","0.58","SciCam","/SciCam.20240808_204431576.jpg","PilotCam","/PilotCam.20240808_204431576.jpg","BrowCam","/BrowCam.20240808_204431576.jpg","UserSelect","/UserSelect.20240808_204431576.jpg","","","-999.99","18.67","-999.99","-999.99","66b52e2f2969d9001acb6a0d"
"2024-08-08T20:45:01.623Z","44.3597349","-124.9645478","ASNAP","","admin","","","","","0.24","2.86","-0.5","-0.5","175.73","0.83","0.58","SciCam","/SciCam.20240808_204501623.jpg","PilotCam","/PilotCam.20240808_204501623.jpg","BrowCam","/BrowCam.20240808_204501623.jpg","UserSelect","/UserSelect.20240808_204501623.jpg","","","-999.99","18.66","-999.99","-999.99","66b52e4d2969d9001acb6a11"
"2024-08-08T20:45:31.668Z","44.3597349","-124.9645478","ASNAP","","admin","","","","","0.24","2.86","-0.9","-0.6","176.62","0.85","0.58","SciCam","/SciCam.20240808_204531668.jpg","PilotCam","/PilotCam.20240808_204531668.jpg","BrowCam","/BrowCam.20240808_204531668.jpg","UserSelect","/UserSelect.20240808_204531668.jpg","","","-999.99","18.66","-999.99","-999.99","66b52e6b2969d9001acb6a15"
"2024-08-08T20:46:01.712Z","44.3597349","-124.9645478","ASNAP","","admin","","","","","0.24","2.86","-0.1","-0.7","175.98","0.85","0.58","SciCam","/SciCam.20240808_204601712.jpg","PilotCam","/PilotCam.20240808_204601712.jpg","BrowCam","/BrowCam.20240808_204601712.jpg","UserSelect","/UserSelect.20240808_204601712.jpg","","","-999.99","18.65","-999.99","-999.99","66b52e892969d9001acb6a19"
"2024-08-08T20:46:31.759Z","44.3597349","-124.9645478","ASNAP","","admin","","","","","0.24","2.86","-1.0","0.8","176.77","0.87","0.58","SciCam","/SciCam.20240808_204631759.jpg","PilotCam","/PilotCam.20240808_204631759.jpg","BrowCam","/BrowCam.20240808_204631759.jpg","UserSelect","/UserSelect.20240808_204631759.jpg","","","-999.99","18.69","-999.99","-999.99","66b52ea72969d9001acb6a1d"
"2024-08-08T20:47:01.806Z","44.3597349","-124.9645478","ASNAP","","admin","","","","","0.24","2.86","-1.0","-1.0","176.04","0.88","0.58","SciCam","/SciCam.20240808_204701806.jpg","PilotCam","/PilotCam.20240808_204701806.jpg","BrowCam","/BrowCam.20240808_204701806.jpg","UserSelect","/UserSelect.20240808_204701806.jpg","","","-999.99","18.70","-999.99","-999.99","66b52ec52969d9001acb6a21"
"2024-08-08T20:47:31.829Z","44.3597349","-124.9645478","ASNAP","","admin","","","","","0.24","2.86","-0.2","-1.2","175.87","0.87","0.58","SciCam","/SciCam.20240808_204731829.jpg","PilotCam","/PilotCam.20240808_204731829.jpg","BrowCam","/BrowCam.20240808_204731829.jpg","UserSelect","/UserSelect.20240808_204731829.jpg","","","-999.99","18.69","-999.99","-999.99","66b52ee32969d9001acb6a25"
"2024-08-08T20:48:01.869Z","44.3597349","-124.9645478","ASNAP","","admin","","","","","0.24","2.86","-0.9","-0.9","175.96","0.89","0.58","SciCam","/SciCam.20240808_204801869.jpg","PilotCam","/PilotCam.20240808_204801869.jpg","BrowCam","/BrowCam.20240808_204801869.jpg","UserSelect","/UserSelect.20240808_204801869.jpg","","","-999.99","18.70","-999.99","-999.99","66b52f012969d9001acb6a29"
"2024-08-08T20:48:31.915Z","44.3597349","-124.9645478","ASNAP","","admin","","","","","0.24","2.86","-0.2","-1.0","176.58","0.87","0.58","SciCam","/SciCam.20240808_204831915.jpg","PilotCam","/PilotCam.20240808_204831915.jpg","BrowCam","/BrowCam.20240808_204831915.jpg","UserSelect","/UserSelect.20240808_204831915.jpg","","","-999.99","18.68","-999.99","-999.99","66b52f1f2969d9001acb6a2d"
"2024-08-08T20:49:01.960Z","44.3597349","-124.9645478","ASNAP","","admin","","","","","0.24","2.86","-0.7","-0.1","175.73","0.90","0.58","SciCam","/SciCam.20240808_204901960.jpg","PilotCam","/PilotCam.20240808_204901960.jpg","BrowCam","/BrowCam.20240808_204901960.jpg","UserSelect","/UserSelect.20240808_204901960.jpg","","","-999.99","18.69","-999.99","-999.99","66b52f3d2969d9001acb6a35"
"2024-08-08T20:49:32.004Z","44.3597349","-124.9645478","ASNAP","","admin","","","","","0.24","2.86","-0.4","-0.7","175.69","0.89","0.58","SciCam","/SciCam.20240808_204932004.jpg","PilotCam","/PilotCam.20240808_204932004.jpg","BrowCam","/BrowCam.20240808_204932004.jpg","UserSelect","/UserSelect.20240808_204932004.jpg","","","-999.99","18.67","-999.99","-999.99","66b52f5c2969d9001acb6a39"
"2024-08-08T20:50:02.049Z","44.3597349","-124.9645478","ASNAP","","admin","","","","","0.24","2.86","-0.1","-0.9","176.19","0.90","0.58","SciCam","/SciCam.20240808_205002049.jpg","PilotCam","/PilotCam.20240808_205002049.jpg","BrowCam","/BrowCam.20240808_205002049.jpg","UserSelect","/UserSelect.20240808_205002049.jpg","","","-999.99","18.71","-999.99","-999.99","66b52f7a2969d9001acb6a3d"
"2024-08-08T20:50:32.095Z","44.3597349","-124.9645478","ASNAP","","admin","","","","","0.24","2.86","-0.2","-1.8","176.98","0.89","0.58","SciCam","/SciCam.20240808_205032095.jpg","PilotCam","/PilotCam.20240808_205032095.jpg","BrowCam","/BrowCam.20240808_205032095.jpg","UserSelect","/UserSelect.20240808_205032095.jpg","","","-999.99","18.73","-999.99","-999.99","66b52f982969d9001acb6a41"
"2024-08-08T20:51:02.141Z","44.3597349","-124.9645478","ASNAP","","admin","","","","","0.24","2.86","-1.2","-1.0","175.98","0.91","0.58","SciCam","/SciCam.20240808_205102141.jpg","PilotCam","/PilotCam.20240808_205102141.jpg","BrowCam","/BrowCam.20240808_205102141.jpg","UserSelect","/UserSelect.20240808_205102141.jpg","","","-999.99","18.73","-999.99","-999.99","66b52fb62969d9001acb6a45"
"2024-08-08T20:51:32.166Z","44.3597349","-124.9645478","ASNAP","","admin","","","","","0.24","2.86","0.0","-1.2","175.26","0.89","0.58","SciCam","/SciCam.20240808_205132166.jpg","PilotCam","/PilotCam.20240808_205132166.jpg","BrowCam","/BrowCam.20240808_205132166.jpg","UserSelect","/UserSelect.20240808_205132166.jpg","","","-999.99","18.72","-999.99","-999.99","66b52fd42969d9001acb6a49"
"2024-08-08T20:51:55.873Z","44.3597349","-124.9645478","VEHICLE","","guest","Jason off deck","","","","0.24","2.86","-4.0","-0.6","173.07","0.90","0.58","SciCam","/SciCam.20240808_205155873.jpg","PilotCam","/PilotCam.20240808_205155873.jpg","BrowCam","/BrowCam.20240808_205155873.jpg","UserSelect","/UserSelect.20240808_205155873.jpg","","","-999.99","18.75","-999.99","-999.99","66b52feb2969d9001acb6a4d"
"2024-08-08T20:52:02.212Z","44.3597349","-124.9645478","ASNAP","","admin","","","","","0.24","2.86","-0.4","1.0","167.49","0.89","0.58","SciCam","/SciCam.20240808_205202212.jpg","PilotCam","/PilotCam.20240808_205202212.jpg","BrowCam","/BrowCam.20240808_205202212.jpg","UserSelect","/UserSelect.20240808_205202212.jpg","","","-999.99","18.73","-999.99","-999.99","66b52ff22969d9001acb6a51"
"2024-08-08T20:52:32.232Z","44.3597349","-124.9645478","ASNAP","","admin","","","","","0.24","2.86","-0.4","-0.0","185.84","0.92","0.58","SciCam","/SciCam.20240808_205232232.jpg","PilotCam","/PilotCam.20240808_205232232.jpg","BrowCam","/BrowCam.20240808_205232232.jpg","UserSelect","/UserSelect.20240808_205232232.jpg","","","-999.99","18.72","-999.99","-999.99","66b530102969d9001acb6a55"
"2024-08-08T20:53:02.281Z","44.3597349","-124.9645478","ASNAP","","admin","","","","","0.24","2.86","-0.8","-2.5","264.80","0.93","0.58","SciCam","/SciCam.20240808_205302281.jpg","PilotCam","/PilotCam.20240808_205302281.jpg","BrowCam","/BrowCam.20240808_205302281.jpg","UserSelect","/UserSelect.20240808_205302281.jpg","","","-999.99","18.60","-999.99","-999.99","66b5302e2969d9001acb6a59"
"2024-08-08T20:53:32.329Z","44.3597349","-124.9645478","ASNAP","","admin","","","","","0.24","2.86","0.4","-5.0","264.08","0.94","0.58","SciCam","/SciCam.20240808_205332329.jpg","PilotCam","/PilotCam.20240808_205332329.jpg","BrowCam","/BrowCam.20240808_205332329.jpg","UserSelect","/UserSelect.20240808_205332329.jpg","","","-999.99","18.28","-999.99","-999.99","66b5304c2969d9001acb6a5d"
"2024-08-08T20:54:02.374Z","44.3597349","-124.9645478","ASNAP","","admin","","","","","0.24","2.86","-0.7","-1.4","251.27","0.92","0.58","SciCam","/SciCam.20240808_205402374.jpg","PilotCam","/PilotCam.20240808_205402374.jpg","BrowCam","/BrowCam.20240808_205402374.jpg","UserSelect","/UserSelect.20240808_205402374.jpg","","","-999.99","18.01","-999.99","-999.99","66b5306a2969d9001acb6a61"
"2024-08-08T20:54:05.191Z","44.3597349","-124.9645478","VEHICLE","","guest","Jason in water","","","","0.24","2.86","0.2","1.6","245.97","1.30","0.58","SciCam","/SciCam.20240808_205405191.jpg","PilotCam","/PilotCam.20240808_205405191.jpg","BrowCam","/BrowCam.20240808_205405191.jpg","UserSelect","/UserSelect.20240808_205405191.jpg","","","-999.99","17.99","-999.99","-999.99","66b5306d2969d9001acb6a65"
"2024-08-08T20:54:32.421Z","44.3597349","-124.9645478","ASNAP","","admin","","","","","0.24","2.86","-0.4","-9.6","269.58","2.71","0.58","SciCam","/SciCam.20240808_205432421.jpg","PilotCam","/PilotCam.20240808_205432421.jpg","BrowCam","/BrowCam.20240808_205432421.jpg","UserSelect","/UserSelect.20240808_205432421.jpg","","","-999.99","16.02","-999.99","-999.99","66b530882969d9001acb6a69"
"2024-08-08T20:55:02.469Z","44.3597349","-124.9645478","ASNAP","","admin","","","","","0.24","2.86","-3.4","-2.8","265.85","4.13","0.58","SciCam","/SciCam.20240808_205502469.jpg","PilotCam","/PilotCam.20240808_205502469.jpg","BrowCam","/BrowCam.20240808_205502469.jpg","UserSelect","/UserSelect.20240808_205502469.jpg","","","-999.99","15.61","-999.99","-999.99","66b530a62969d9001acb6a6d"
"2024-08-08T20:55:32.516Z","44.3597349","-124.9645478","ASNAP","","admin","","","","","0.24","2.86","-1.1","-4.4","267.06","10.01","0.58","SciCam","/SciCam.20240808_205532516.jpg","PilotCam","/PilotCam.20240808_205532516.jpg","BrowCam","/BrowCam.20240808_205532516.jpg","UserSelect","/UserSelect.20240808_205532516.jpg","","","-999.99","15.44","-999.99","-999.99","66b530c42969d9001acb6a71"
"2024-08-08T20:56:02.569Z","44.3597349","-124.9645478","ASNAP","","admin","","","","","0.24","2.86","2.2","-4.2","267.28","9.07","0.58","SciCam","/SciCam.20240808_205602569.jpg","PilotCam","/PilotCam.20240808_205602569.jpg","BrowCam","/BrowCam.20240808_205602569.jpg","UserSelect","/UserSelect.20240808_205602569.jpg","","","-999.99","14.94","-999.99","-999.99","66b530e22969d9001acb6a75"
"2024-08-08T20:56:32.616Z","44.3597349","-124.9645478","ASNAP","","admin","","","","","0.24","2.86","-0.5","-3.2","264.76","14.52","0.58","SciCam","/SciCam.20240808_205632616.jpg","PilotCam","/PilotCam.20240808_205632616.jpg","BrowCam","/BrowCam.20240808_205632616.jpg","UserSelect","/UserSelect.20240808_205632616.jpg","","","-999.99","12.97","-999.99","-999.99","66b531002969d9001acb6a79"
"2024-08-08T20:57:02.664Z","44.3597349","-124.9645478","ASNAP","","admin","","","","","0.24","2.86","-1.6","-4.4","266.42","19.07","0.58","SciCam","/SciCam.20240808_205702664.jpg","PilotCam","/PilotCam.20240808_205702664.jpg","BrowCam","/BrowCam.20240808_205702664.jpg","UserSelect","/UserSelect.20240808_205702664.jpg","","","-999.99","12.03","-999.99","-999.99","66b5311e2969d9001acb6a7d"
"2024-08-08T20:57:32.686Z","44.3597349","-124.9645478","ASNAP","","admin","","","","","0.24","2.86","-1.0","-3.9","265.81","18.86","0.58","SciCam","/SciCam.20240808_205732686.jpg","PilotCam","/PilotCam.20240808_205732686.jpg","BrowCam","/BrowCam.20240808_205732686.jpg","UserSelect","/UserSelect.20240808_205732686.jpg","","","-999.99","11.24","-999.99","-999.99","66b5313c2969d9001acb6a81"
"2024-08-08T20:58:02.735Z","44.3597349","-124.9645478","ASNAP","","admin","","","","","0.24","2.86","-1.4","-3.9","265.68","19.58","0.58","SciCam","/SciCam.20240808_205802735.jpg","PilotCam","/PilotCam.20240808_205802735.jpg","BrowCam","/BrowCam.20240808_205802735.jpg","UserSelect","/UserSelect.20240808_205802735.jpg","","","-999.99","11.07","-999.99","-999.99","66b5315a2969d9001acb6a85"
"2024-08-08T20:58:32.785Z","44.3597349","-124.9645478","ASNAP","","admin","","","","","0.24","2.86","-0.7","-3.5","265.10","26.31","0.58","SciCam","/SciCam.20240808_205832785.jpg","PilotCam","/PilotCam.20240808_205832785.jpg","BrowCam","/BrowCam.20240808_205832785.jpg","UserSelect","/UserSelect.20240808_205832785.jpg","","","-999.99","10.82","-999.99","-999.99","66b531782969d9001acb6a89"
"2024-08-08T20:59:02.831Z","44.3597349","-124.9645478","ASNAP","","admin","","","","","0.24","2.86","-0.5","-2.7","265.31","28.22","0.58","SciCam","/SciCam.20240808_205902831.jpg","PilotCam","/PilotCam.20240808_205902831.jpg","BrowCam","/BrowCam.20240808_205902831.jpg","UserSelect","/UserSelect.20240808_205902831.jpg","","","-999.99","9.96","-999.99","-999.99","66b531962969d9001acb6a8d"
"2024-08-08T20:59:32.878Z","44.3597349","-124.9645478","ASNAP","","admin","","","","","0.24","2.86","-0.7","-5.4","264.42","36.50","0.58","SciCam","/SciCam.20240808_205932878.jpg","PilotCam","/PilotCam.20240808_205932878.jpg","BrowCam","/BrowCam.20240808_205932878.jpg","UserSelect","/UserSelect.20240808_205932878.jpg","","","-999.99","9.66","-999.99","-999.99","66b531b42969d9001acb6a91"
"2024-08-08T21:00:02.926Z","44.3597349","-124.9645478","ASNAP","","admin","","","","","0.24","2.86","-1.3","-3.9","265.74","36.39","0.58","SciCam","/SciCam.20240808_210002926.jpg","PilotCam","/PilotCam.20240808_210002926.jpg","BrowCam","/BrowCam.20240808_210002926.jpg","UserSelect","/UserSelect.20240808_210002926.jpg","","","-999.99","9.32","-999.99","-999.99","66b531d22969d9001acb6a95"
"2024-08-08T21:00:32.947Z","44.3597349","-124.9645478","ASNAP","","admin","","","","","0.24","2.86","-1.6","-2.4","270.84","35.38","0.58","SciCam","/SciCam.20240808_210032947.jpg","PilotCam","/PilotCam.20240808_210032947.jpg","BrowCam","/BrowCam.20240808_210032947.jpg","UserSelect","/UserSelect.20240808_210032947.jpg","","","-999.99","9.28","-999.99","-999.99","66b531f02969d9001acb6a99"
"2024-08-08T21:00:35.430Z","44.3597349","-124.9645478","Biology Type","","guest","","Shark","","","0.24","2.86","-1.1","-4.6","271.01","35.24","0.58","SciCam","/SciCam.20240808_210035430.jpg","PilotCam","/PilotCam.20240808_210035430.jpg","BrowCam","/BrowCam.20240808_210035430.jpg","UserSelect","/UserSelect.20240808_210035430.jpg","","","-999.99","9.22","-999.99","-999.99","66b531f32969d9001acb6a9d"
"2024-08-08T21:01:00.000Z","","","SulisCam","","admin","","","sulis_20240808210100.jpg","","","","","","","","","","","","","","","","","-3.644","-0.933","","","","","66b6a548111b2e001a27ba6b"
"2024-08-08T21:01:02.993Z","44.3597349","-124.9645478","ASNAP","","admin","","","","","0.24","2.86","-1.3","-3.7","267.05","37.73","0.58","SciCam","/SciCam.20240808_210102993.jpg","PilotCam","/PilotCam.20240808_210102993.jpg","BrowCam","/BrowCam.20240808_210102993.jpg","UserSelect","/UserSelect.20240808_210102993.jpg","","","-999.99","9.22","-999.99","-999.99","66b5320e2969d9001acb6aa1"
"2024-08-08T21:01:33.036Z","44.3597349","-124.9645478","ASNAP","","admin","","","","","0.24","2.86","-1.1","-3.8","266.45","39.52","0.58","SciCam","/SciCam.20240808_210133036.jpg","PilotCam","/PilotCam.20240808_210133036.jpg","BrowCam","/BrowCam.20240808_210133036.jpg","UserSelect","/UserSelect.20240808_210133036.jpg","","","-999.99","9.11","-999.99","-999.99","66b5322d2969d9001acb6aa5"
"2024-08-08T21:02:03.055Z","44.3596976","-124.9646046","ASNAP","","admin","","","","","-4.29","-1.28","-0.6","-3.4","265.50","53.89","68.53","SciCam","/SciCam.20240808_210203055.jpg","PilotCam","/PilotCam.20240808_210203055.jpg","BrowCam","/BrowCam.20240808_210203055.jpg","UserSelect","/UserSelect.20240808_210203055.jpg","","","-999.99","9.02","-999.99","-999.99","66b5324b2969d9001acb6aa9"
"2024-08-08T21:02:33.101Z","44.3596955","-124.9646112","ASNAP","","admin","","","","","-4.82","-1.52","-0.6","-4.5","266.17","68.64","52.29","SciCam","/SciCam.20240808_210233101.jpg","PilotCam","/PilotCam.20240808_210233101.jpg","BrowCam","/BrowCam.20240808_210233101.jpg","UserSelect","/UserSelect.20240808_210233101.jpg","","","-999.99","8.66","-999.99","-999.99","66b532692969d9001acb6aad"
"2024-08-08T21:03:03.148Z","44.3597380","-124.9645947","ASNAP","","admin","","","","","-3.50","3.21","-0.3","-4.3","314.33","78.91","41.74","SciCam","/SciCam.20240808_210303148.jpg","PilotCam","/PilotCam.20240808_210303148.jpg","BrowCam","/BrowCam.20240808_210303148.jpg","UserSelect","/UserSelect.20240808_210303148.jpg","","","-999.99","8.21","-999.99","-999.99","66b532872969d9001acb6ab1"
"2024-08-08T21:03:33.193Z","44.3598042","-124.9646708","ASNAP","","admin","","","","","-9.57","10.56","-0.6","-3.4","314.36","93.30","26.87","SciCam","/SciCam.20240808_210333193.jpg","PilotCam","/PilotCam.20240808_210333193.jpg","BrowCam","/BrowCam.20240808_210333193.jpg","UserSelect","/UserSelect.20240808_210333193.jpg","","","-999.99","8.00","-999.99","-999.99","66b532a52969d9001acb6ab5"
"2024-08-08T21:04:03.240Z","-1.9903116","-14.9930265","ASNAP","","admin","","","","","8767188.67","-5150332.77","-0.3","-2.9","314.27","108.43","15.93","SciCam","/SciCam.20240808_210403240.jpg","PilotCam","/PilotCam.20240808_210403240.jpg","BrowCam","/BrowCam.20240808_210403240.jpg","UserSelect","/UserSelect.20240808_210403240.jpg","","","-999.99","7.75","-999.99","-999.99","66b532c32969d9001acb6ab9"
"2024-08-08T21:04:22.000Z","","","SulisCam","","admin","","","sulis_20240808210422.jpg","","","","","","","","","","","","","","","","","-3.382","-0.013","","","","","66b6a548111b2e001a27ba6d"
"2024-08-08T21:04:33.285Z","3.1190067","-0.6051351","ASNAP","","admin","","","","","9914225.23","-4582594.31","-0.3","-3.3","314.09","122.34","9.75","SciCam","/SciCam.20240808_210433285.jpg","PilotCam","/PilotCam.20240808_210433285.jpg","BrowCam","/BrowCam.20240808_210433285.jpg","UserSelect","/UserSelect.20240808_210433285.jpg","","","-999.99","7.62","-999.99","-999.99","66b532e12969d9001acb6abd"
"2024-08-08T21:05:03.329Z","3.1190067","-0.6051351","ASNAP","","admin","","","","","9914225.23","-4582594.31","0.1","-4.6","314.97","127.45","9.75","SciCam","/SciCam.20240808_210503329.jpg","PilotCam","/PilotCam.20240808_210503329.jpg","BrowCam","/BrowCam.20240808_210503329.jpg","UserSelect","/UserSelect.20240808_210503329.jpg","","","-999.99","7.70","-999.99","-999.99","66b532ff2969d9001acb6ac1"
"2024-08-08T21:05:33.374Z","7.4618456","2.0222382","ASNAP","","admin","","","","","10123685.61","-4100025.69","-0.1","-3.9","314.20","126.98","14.94","SciCam","/SciCam.20240808_210533374.jpg","PilotCam","/PilotCam.20240808_210533374.jpg","BrowCam","/BrowCam.20240808_210533374.jpg","UserSelect","/UserSelect.20240808_210533374.jpg","","","-999.99","7.60","-999.99","-999.99","66b5331d2969d9001acb6ac5"
"2024-08-08T21:05:44.447Z","6.9098599","-0.0259266","Biology Type","","guest","","Jelly","","","9960401.09","-4161361.37","0.1","-3.9","314.44","126.95","15.96","SciCam","/SciCam.20240808_210544447.jpg","PilotCam","/PilotCam.20240808_210544447.jpg","BrowCam","/BrowCam.20240808_210544447.jpg","UserSelect","/UserSelect.20240808_210544447.jpg","","","-999.99","7.39","-999.99","-999.99","66b533282969d9001acb6ac9"
"2024-08-08T21:06:03.399Z","4.7386097","9.9275557","ASNAP","","admin","","","","","10753916.12","-4402626.88","0.0","-3.7","314.67","126.95","22.55","SciCam","/SciCam.20240808_210603399.jpg","PilotCam","/PilotCam.20240808_210603399.jpg","BrowCam","/BrowCam.20240808_210603399.jpg","UserSelect","/UserSelect.20240808_210603399.jpg","","","-999.99","7.47","-999.99","-999.99","66b5333b2969d9001acb6acd"
"2024-08-08T21:06:04.000Z","","","SulisCam","","admin","","","sulis_20240808210604.jpg","","","","","","","","","","","","","","","","","-3.737","0.012","","","","","66b6a548111b2e001a27ba6f"
"2024-08-08T21:06:12.223Z","4.6313279","8.1819524","Biology Type","","guest","","Jelly","","","10614752.52","-4414547.84","1.5","-4.2","314.55","127.10","22.93","SciCam","/SciCam.20240808_210612223.jpg","PilotCam","/PilotCam.20240808_210612223.jpg","BrowCam","/BrowCam.20240808_210612223.jpg","UserSelect","/UserSelect.20240808_210612223.jpg","","","-999.99","7.37","-999.99","-999.99","66b533442969d9001acb6ad1"
"2024-08-08T21:06:33.446Z","4.6313303","8.1819678","ASNAP","","admin","","","","","10614753.75","-4414547.57","-0.0","-4.0","343.71","134.23","20.15","SciCam","/SciCam.20240808_210633446.jpg","PilotCam","/PilotCam.20240808_210633446.jpg","BrowCam","/BrowCam.20240808_210633446.jpg","UserSelect","/UserSelect.20240808_210633446.jpg","","","-999.99","7.25","-999.99","-999.99","66b533592969d9001acb6ad5"
"2024-08-08T21:06:43.641Z","7.5904265","-0.1434320","Biology Type","","guest","","Jelly","","","9951033.29","-4085738.01","0.1","-3.7","343.32","138.66","17.93","SciCam","/SciCam.20240808_210643641.jpg","PilotCam","/PilotCam.20240808_210643641.jpg","BrowCam","/BrowCam.20240808_210643641.jpg","UserSelect","/UserSelect.20240808_210643641.jpg","","","-999.99","7.41","-999.99","-999.99","66b533632969d9001acb6ad9"
"2024-08-08T21:07:03.493Z","7.5904265","-0.1434320","ASNAP","","admin","","","","","9951033.29","-4085738.01","0.3","-3.3","343.83","147.04","17.93","SciCam","/SciCam.20240808_210703493.jpg","PilotCam","/PilotCam.20240808_210703493.jpg","BrowCam","/BrowCam.20240808_210703493.jpg","UserSelect","/UserSelect.20240808_210703493.jpg","","","-999.99","7.17","-999.99","-999.99","66b533772969d9001acb6add"
"2024-08-08T21:07:33.540Z","7.5904265","-0.1434320","ASNAP","","admin","","","","","9951033.29","-4085738.01","0.4","-4.3","343.93","149.08","17.93","SciCam","/SciCam.20240808_210733540.jpg","PilotCam","/PilotCam.20240808_210733540.jpg","BrowCam","/BrowCam.20240808_210733540.jpg","UserSelect","/UserSelect.20240808_210733540.jpg","","","-999.99","7.22","-999.99","-999.99","66b533952969d9001acb6ae1"
"2024-08-08T21:08:03.584Z","7.5904265","-0.1434320","ASNAP","","admin","","","","","9951033.29","-4085738.01","0.4","-5.1","24.71","149.34","17.93","SciCam","/SciCam.20240808_210803584.jpg","PilotCam","/PilotCam.20240808_210803584.jpg","BrowCam","/BrowCam.20240808_210803584.jpg","UserSelect","/UserSelect.20240808_210803584.jpg","","","-999.99","7.33","-999.99","-999.99","66b533b32969d9001acb6ae5"
"2024-08-08T21:08:12.985Z","7.5904265","-0.1434320","Biology Type","","guest","","Jelly","","","9951033.29","-4085738.01","1.4","-4.4","24.07","150.36","17.93","SciCam","/SciCam.20240808_210812985.jpg","PilotCam","/PilotCam.20240808_210812985.jpg","BrowCam","/BrowCam.20240808_210812985.jpg","UserSelect","/UserSelect.20240808_210812985.jpg","","","-999.99","7.24","-999.99","-999.99","66b533bc2969d9001acb6ae9"
"2024-08-08T21:08:26.183Z","7.5904265","-0.1434320","Biology Type","","guest","","Jelly","","","9951033.29","-4085738.01","2.9","-4.4","23.72","153.51","17.93","SciCam","/SciCam.20240808_210826183.jpg","PilotCam","/PilotCam.20240808_210826183.jpg","BrowCam","/BrowCam.20240808_210826183.jpg","UserSelect","/UserSelect.20240808_210826183.jpg","","","-999.99","7.37","-999.99","-999.99","66b533ca2969d9001acb6aed"
"2024-08-08T21:08:33.630Z","7.5904265","-0.1434320","ASNAP","","admin","","","","","9951033.29","-4085738.01","3.2","-4.4","23.69","154.25","17.93","SciCam","/SciCam.20240808_210833630.jpg","PilotCam","/PilotCam.20240808_210833630.jpg","BrowCam","/BrowCam.20240808_210833630.jpg","UserSelect","/UserSelect.20240808_210833630.jpg","","","-999.99","7.29","-999.99","-999.99","66b533d12969d9001acb6af1"
"2024-08-08T21:09:03.678Z","7.5904265","-0.1434320","ASNAP","","admin","","","","","9951033.29","-4085738.01","-0.0","-3.8","24.19","160.75","17.93","SciCam","/SciCam.20240808_210903678.jpg","PilotCam","/PilotCam.20240808_210903678.jpg","BrowCam","/BrowCam.20240808_210903678.jpg","UserSelect","/UserSelect.20240808_210903678.jpg","","","-999.99","7.28","-999.99","-999.99","66b533ef2969d9001acb6af5"
"2024-08-08T21:09:33.727Z","7.5904265","-0.1434320","ASNAP","","admin","","","","","9951033.29","-4085738.01","-0.1","-3.3","23.98","173.95","17.93","SciCam","/SciCam.20240808_210933727.jpg","PilotCam","/PilotCam.20240808_210933727.jpg","BrowCam","/BrowCam.20240808_210933727.jpg","UserSelect","/UserSelect.20240808_210933727.jpg","","","-999.99","7.38","-999.99","-999.99","66b5340d2969d9001acb6af9"
"2024-08-08T21:09:56.461Z","7.5904265","-0.1434320","Biology Type","","guest","","Jelly","","","9951033.29","-4085738.01","0.7","-5.2","25.76","180.52","17.93","SciCam","/SciCam.20240808_210956461.jpg","PilotCam","/PilotCam.20240808_210956461.jpg","BrowCam","/BrowCam.20240808_210956461.jpg","UserSelect","/UserSelect.20240808_210956461.jpg","","","-999.99","7.34","-999.99","-999.99","66b534242969d9001acb6afd"
"2024-08-08T21:10:03.773Z","7.5904265","-0.1434320","ASNAP","","admin","","","","","9951033.29","-4085738.01","-0.1","-4.9","24.48","179.38","17.93","SciCam","/SciCam.20240808_211003773.jpg","PilotCam","/PilotCam.20240808_211003773.jpg","BrowCam","/BrowCam.20240808_211003773.jpg","UserSelect","/UserSelect.20240808_211003773.jpg","","","-999.99","7.24","-999.99","-999.99","66b5342b2969d9001acb6b01"
"2024-08-08T21:10:33.818Z","7.5904265","-0.1434320","ASNAP","","admin","","","","","9951033.29","-4085738.01","0.3","-4.9","24.59","179.49","17.93","SciCam","/SciCam.20240808_211033818.jpg","PilotCam","/PilotCam.20240808_211033818.jpg","BrowCam","/BrowCam.20240808_211033818.jpg","UserSelect","/UserSelect.20240808_211033818.jpg","","","-999.99","7.39","-999.99","-999.99","66b534492969d9001acb6b05"
"2024-08-08T21:11:03.861Z","7.5904265","-0.1434320","ASNAP","","admin","","","","","9951033.29","-4085738.01","0.2","-4.8","24.85","179.57","17.93","SciCam","/SciCam.20240808_211103861.jpg","PilotCam","/PilotCam.20240808_211103861.jpg","BrowCam","/BrowCam.20240808_211103861.jpg","UserSelect","/UserSelect.20240808_211103861.jpg","","","-999.99","7.37","-999.99","-999.99","66b534672969d9001acb6b09"
"2024-08-08T21:11:33.908Z","7.5904265","-0.1434320","ASNAP","","admin","","","","","9951033.29","-4085738.01","0.3","-4.4","24.69","179.57","17.93","SciCam","/SciCam.20240808_211133908.jpg","PilotCam","/PilotCam.20240808_211133908.jpg","BrowCam","/BrowCam.20240808_211133908.jpg","UserSelect","/UserSelect.20240808_211133908.jpg","","","-999.99","7.22","-999.99","-999.99","66b534852969d9001acb6b0d"
"2024-08-08T21:12:03.956Z","7.5904265","-0.1434320","ASNAP","","admin","","","","","9951033.29","-4085738.01","-0.0","-4.8","24.73","179.59","17.93","SciCam","/SciCam.20240808_211203956.jpg","PilotCam","/PilotCam.20240808_211203956.jpg","BrowCam","/BrowCam.20240808_211203956.jpg","UserSelect","/UserSelect.20240808_211203956.jpg","","","-999.99","7.26","-999.99","-999.99","66b534a32969d9001acb6b11"
"2024-08-08T21:12:33.986Z","7.5904265","-0.1434320","ASNAP","","admin","","","","","9951033.29","-4085738.01","0.1","-4.5","24.80","179.63","17.93","SciCam","/SciCam.20240808_211233986.jpg","PilotCam","/PilotCam.20240808_211233986.jpg","BrowCam","/BrowCam.20240808_211233986.jpg","UserSelect","/UserSelect.20240808_211233986.jpg","","","-999.99","7.28","-999.99","-999.99","66b534c12969d9001acb6b15"
"2024-08-08T21:13:04.033Z","7.5904265","-0.1434320","ASNAP","","admin","","","","","9951033.29","-4085738.01","-0.3","-4.5","24.86","179.54","17.93","SciCam","/SciCam.20240808_211304033.jpg","PilotCam","/PilotCam.20240808_211304033.jpg","BrowCam","/BrowCam.20240808_211304033.jpg","UserSelect","/UserSelect.20240808_211304033.jpg","","","-999.99","7.22","-999.99","-999.99","66b534e02969d9001acb6b19"
"2024-08-08T21:13:34.076Z","7.5904265","-0.1434320","ASNAP","","admin","","","","","9951033.29","-4085738.01","-0.2","-4.9","24.57","179.56","17.93","SciCam","/SciCam.20240808_211334076.jpg","PilotCam","/PilotCam.20240808_211334076.jpg","BrowCam","/BrowCam.20240808_211334076.jpg","UserSelect","/UserSelect.20240808_211334076.jpg","","","-999.99","7.37","-999.99","-999.99","66b534fe2969d9001acb6b1d"
"2024-08-08T21:14:04.101Z","7.5904265","-0.1434320","ASNAP","","admin","","","","","9951033.29","-4085738.01","0.2","-4.0","24.57","179.61","17.93","SciCam","/SciCam.20240808_211404101.jpg","PilotCam","/PilotCam.20240808_211404101.jpg","BrowCam","/BrowCam.20240808_211404101.jpg","UserSelect","/UserSelect.20240808_211404101.jpg","","","-999.99","7.35","-999.99","-999.99","66b5351c2969d9001acb6b21"
"2024-08-08T21:14:34.144Z","7.5904265","-0.1434320","ASNAP","","admin","","","","","9951033.29","-4085738.01","-0.2","-4.5","24.71","179.63","17.93","SciCam","/SciCam.20240808_211434144.jpg","PilotCam","/PilotCam.20240808_211434144.jpg","BrowCam","/BrowCam.20240808_211434144.jpg","UserSelect","/UserSelect.20240808_211434144.jpg","","","-999.99","7.24","-999.99","-999.99","66b5353a2969d9001acb6b25"
"2024-08-08T21:15:04.189Z","7.5904265","-0.1434320","ASNAP","","admin","","","","","9951033.29","-4085738.01","-0.0","-4.4","35.99","179.65","17.93","SciCam","/SciCam.20240808_211504189.jpg","PilotCam","/PilotCam.20240808_211504189.jpg","BrowCam","/BrowCam.20240808_211504189.jpg","UserSelect","/UserSelect.20240808_211504189.jpg","","","-999.99","7.42","-999.99","-999.99","66b535582969d9001acb6b29"
"2024-08-08T21:15:34.232Z","7.5904265","-0.1434320","ASNAP","","admin","","","","","9951033.29","-4085738.01","0.5","-4.8","35.87","179.64","17.93","SciCam","/SciCam.20240808_211534232.jpg","PilotCam","/PilotCam.20240808_211534232.jpg","BrowCam","/BrowCam.20240808_211534232.jpg","UserSelect","/UserSelect.20240808_211534232.jpg","","","-999.99","7.25","-999.99","-999.99","66b535762969d9001acb6b2d"
"2024-08-08T21:16:04.279Z","7.5904265","-0.1434320","ASNAP","","admin","","","","","9951033.29","-4085738.01","-0.4","-4.2","36.08","179.66","17.93","SciCam","/SciCam.20240808_211604279.jpg","PilotCam","/PilotCam.20240808_211604279.jpg","BrowCam","/BrowCam.20240808_211604279.jpg","UserSelect","/UserSelect.20240808_211604279.jpg","","","-999.99","7.15","-999.99","-999.99","66b535942969d9001acb6b31"
"2024-08-08T21:16:34.324Z","7.5904265","-0.1434320","ASNAP","","admin","","","","","9951033.29","-4085738.01","-0.3","-4.3","36.13","179.71","17.93","SciCam","/SciCam.20240808_211634324.jpg","PilotCam","/PilotCam.20240808_211634324.jpg","BrowCam","/BrowCam.20240808_211634324.jpg","UserSelect","/UserSelect.20240808_211634324.jpg","","","-999.99","7.19","-999.99","-999.99","66b535b22969d9001acb6b35"
"2024-08-08T21:17:04.373Z","7.5904265","-0.1434320","ASNAP","","admin","","","","","9951033.29","-4085738.01","-0.6","-4.4","22.03","179.73","17.93","SciCam","/SciCam.20240808_211704373.jpg","PilotCam","/PilotCam.20240808_211704373.jpg","BrowCam","/BrowCam.20240808_211704373.jpg","UserSelect","/UserSelect.20240808_211704373.jpg","","","-999.99","7.30","-999.99","-999.99","66b535d02969d9001acb6b39"
"2024-08-08T21:17:34.419Z","7.5904265","-0.1434320","ASNAP","","admin","","","","","9951033.29","-4085738.01","-0.3","-4.3","33.80","179.70","17.93","SciCam","/SciCam.20240808_211734419.jpg","PilotCam","/PilotCam.20240808_211734419.jpg","BrowCam","/BrowCam.20240808_211734419.jpg","UserSelect","/UserSelect.20240808_211734419.jpg","","","-999.99","7.23","-999.99","-999.99","66b535ee2969d9001acb6b3d"
"2024-08-08T21:18:04.468Z","7.5904265","-0.1434320","ASNAP","","admin","","","","","9951033.29","-4085738.01","-0.4","-4.2","32.66","179.72","17.93","SciCam","/SciCam.20240808_211804468.jpg","PilotCam","/PilotCam.20240808_211804468.jpg","BrowCam","/BrowCam.20240808_211804468.jpg","UserSelect","/UserSelect.20240808_211804468.jpg","","","-999.99","7.35","-999.99","-999.99","66b5360c2969d9001acb6b41"
"2024-08-08T21:18:34.490Z","7.5904265","-0.1434320","ASNAP","","admin","","","","","9951033.29","-4085738.01","-0.7","-3.4","28.62","180.00","17.93","SciCam","/SciCam.20240808_211834490.jpg","PilotCam","/PilotCam.20240808_211834490.jpg","BrowCam","/BrowCam.20240808_211834490.jpg","UserSelect","/UserSelect.20240808_211834490.jpg","","","-999.99","7.28","-999.99","-999.99","66b5362a2969d9001acb6b45"
"2024-08-08T21:19:04.540Z","7.5904265","-0.1434320","ASNAP","","admin","","","","","9951033.29","-4085738.01","-0.4","-3.6","22.94","190.20","17.93","SciCam","/SciCam.20240808_211904540.jpg","PilotCam","/PilotCam.20240808_211904540.jpg","BrowCam","/BrowCam.20240808_211904540.jpg","UserSelect","/UserSelect.20240808_211904540.jpg","","","-999.99","7.32","-999.99","-999.99","66b536482969d9001acb6b49"
"2024-08-08T21:19:34.588Z","7.5904265","-0.1434320","ASNAP","","admin","","","","","9951033.29","-4085738.01","-0.6","-5.1","10.26","194.50","17.93","SciCam","/SciCam.20240808_211934588.jpg","PilotCam","/PilotCam.20240808_211934588.jpg","BrowCam","/BrowCam.20240808_211934588.jpg","UserSelect","/UserSelect.20240808_211934588.jpg","","","-999.99","7.15","-999.99","-999.99","66b536662969d9001acb6b4d"
"2024-08-08T21:20:04.632Z","7.5904265","-0.1434320","ASNAP","","admin","","","","","9951033.29","-4085738.01","-0.0","-4.6","10.79","194.18","17.93","SciCam","/SciCam.20240808_212004632.jpg","PilotCam","/PilotCam.20240808_212004632.jpg","BrowCam","/BrowCam.20240808_212004632.jpg","UserSelect","/UserSelect.20240808_212004632.jpg","","","-999.99","7.30","-999.99","-999.99","66b536842969d9001acb6b51"
"2024-08-08T21:20:34.677Z","7.5904265","-0.1434320","ASNAP","","admin","","","","","9951033.29","-4085738.01","0.1","-4.5","10.98","197.63","17.93","SciCam","/SciCam.20240808_212034677.jpg","PilotCam","/PilotCam.20240808_212034677.jpg","BrowCam","/BrowCam.20240808_212034677.jpg","UserSelect","/UserSelect.20240808_212034677.jpg","","","-999.99","7.24","-999.99","-999.99","66b536a22969d9001acb6b55"
"2024-08-08T21:20:34.767Z","7.5904265","-0.1434320","FREE_FORM","Mooring coming into view","guest","","","","","9951033.29","-4085738.01","0.1","-4.5","10.98","197.63","17.93","SciCam","/SciCam.20240808_212034767.jpg","PilotCam","/PilotCam.20240808_212034767.jpg","BrowCam","/BrowCam.20240808_212034767.jpg","UserSelect","/UserSelect.20240808_212034767.jpg","","","-999.99","7.24","-999.99","-999.99","66b536a22969d9001acb6b58"
"2024-08-08T21:20:35.000Z","","","SulisCam","","admin","","","sulis_20240808212035.jpg","","","","","","","","","","","","","","","","","-4.480","0.137","","","","","66b6a548111b2e001a27ba71"
"2024-08-08T21:20:51.672Z","7.5904265","-0.1434320","VEHICLE","O1B Shallow Profiler","guest","On bottom","","","","9951033.29","-4085738.01","0.4","-4.7","11.68","197.82","17.93","SciCam","/SciCam.20240808_212051672.jpg","PilotCam","/PilotCam.20240808_212051672.jpg","BrowCam","/BrowCam.20240808_212051672.jpg","UserSelect","/UserSelect.20240808_212051672.jpg","","","-999.99","7.35","-999.99","-999.99","66b536b32969d9001acb6b5d"
"2024-08-08T21:20:54.000Z","","","SulisCam","","admin","","","sulis_20240808212054.jpg","","","","","","","","","","","","","","","","","-4.154","-0.841","","","","","66b6a548111b2e001a27ba73"
"2024-08-08T21:21:04.723Z","7.5904265","-0.1434320","ASNAP","","admin","","","","","9951033.29","-4085738.01","-0.4","-4.2","12.81","197.56","17.93","SciCam","/SciCam.20240808_212104723.jpg","PilotCam","/PilotCam.20240808_212104723.jpg","BrowCam","/BrowCam.20240808_212104723.jpg","UserSelect","/UserSelect.20240808_212104723.jpg","","","-999.99","7.36","-999.99","-999.99","66b536c02969d9001acb6b61"
"2024-08-08T21:21:34.764Z","7.5904265","-0.1434320","ASNAP","","admin","","","","","9951033.29","-4085738.01","-0.6","-4.5","9.77","197.64","17.93","SciCam","/SciCam.20240808_212134764.jpg","PilotCam","/PilotCam.20240808_212134764.jpg","BrowCam","/BrowCam.20240808_212134764.jpg","UserSelect","/UserSelect.20240808_212134764.jpg","","","-999.99","7.31","-999.99","-999.99","66b536de2969d9001acb6b65"
"2024-08-08T21:22:04.791Z","7.5904265","-0.1434320","ASNAP","","admin","","","","","9951033.29","-4085738.01","-0.2","-4.3","9.00","197.70","17.93","SciCam","/SciCam.20240808_212204791.jpg","PilotCam","/PilotCam.20240808_212204791.jpg","BrowCam","/BrowCam.20240808_212204791.jpg","UserSelect","/UserSelect.20240808_212204791.jpg","","","-999.99","7.60","-999.99","-999.99","66b536fc2969d9001acb6b69"
"2024-08-08T21:22:12.000Z","","","SulisCam","","admin","","","sulis_20240808212212.jpg","","","","","","","","","","","","","","","","","-4.372","-0.295","","","","","66b6a548111b2e001a27ba75"
"2024-08-08T21:22:29.652Z","7.5904265","-0.1434320","FREE_FORM","4k has been turned on","guest","","","","","9951033.29","-4085738.01","-0.4","-4.5","8.81","197.69","17.93","SciCam","/SciCam.20240808_212229652.jpg","PilotCam","/PilotCam.20240808_212229652.jpg","BrowCam","/BrowCam.20240808_212229652.jpg","UserSelect","/UserSelect.20240808_212229652.jpg","","","-999.99","7.33","-999.99","-999.99","66b537152969d9001acb6b6d"
"2024-08-08T21:22:34.841Z","7.5904265","-0.1434320","ASNAP","","admin","","","","","9951033.29","-4085738.01","-0.0","-5.0","9.09","197.67","17.93","SciCam","/SciCam.20240808_212234841.jpg","PilotCam","/PilotCam.20240808_212234841.jpg","BrowCam","/BrowCam.20240808_212234841.jpg","UserSelect","/UserSelect.20240808_212234841.jpg","","","-999.99","7.23","-999.99","-999.99","66b5371a2969d9001acb6b71"
"2024-08-08T21:23:04.888Z","7.5904265","-0.1434320","ASNAP","","admin","","","","","9951033.29","-4085738.01","-0.2","-4.8","8.43","197.71","17.93","SciCam","/SciCam.20240808_212304888.jpg","PilotCam","/PilotCam.20240808_212304888.jpg","BrowCam","/BrowCam.20240808_212304888.jpg","UserSelect","/UserSelect.20240808_212304888.jpg","","","-999.99","7.25","-999.99","-999.99","66b537382969d9001acb6b75"
"2024-08-08T21:23:22.000Z","","","SulisCam","","admin","","","sulis_20240808212322.jpg","","","","","","","","","","","","","","","","","-4.873","-0.173","","","","","66b6a548111b2e001a27ba77"
"2024-08-08T21:23:34.906Z","7.5904265","-0.1434320","ASNAP","","admin","","","","","9951033.29","-4085738.01","-0.2","-4.8","3.75","197.80","17.93","SciCam","/SciCam.20240808_212334906.jpg","PilotCam","/PilotCam.20240808_212334906.jpg","BrowCam","/BrowCam.20240808_212334906.jpg","UserSelect","/UserSelect.20240808_212334906.jpg","","","-999.99","7.27","-999.99","-999.99","66b537562969d9001acb6b79"
"2024-08-08T21:24:04.933Z","7.5904265","-0.1434320","ASNAP","","admin","","","","","9951033.29","-4085738.01","-0.5","-4.9","329.83","197.73","17.93","SciCam","/SciCam.20240808_212404933.jpg","PilotCam","/PilotCam.20240808_212404933.jpg","BrowCam","/BrowCam.20240808_212404933.jpg","UserSelect","/UserSelect.20240808_212404933.jpg","","","-999.99","7.35","-999.99","-999.99","66b537742969d9001acb6b7d"
"2024-08-08T21:24:34.982Z","7.5904265","-0.1434320","ASNAP","","admin","","","","","9951033.29","-4085738.01","-0.4","-4.6","305.50","197.72","17.93","SciCam","/SciCam.20240808_212434982.jpg","PilotCam","/PilotCam.20240808_212434982.jpg","BrowCam","/BrowCam.20240808_212434982.jpg","UserSelect","/UserSelect.20240808_212434982.jpg","","","-999.99","7.40","-999.99","-999.99","66b537922969d9001acb6b81"
"2024-08-08T21:25:05.011Z","7.5904265","-0.1434320","ASNAP","","admin","","","","","9951033.29","-4085738.01","-0.7","-4.5","274.21","197.71","17.93","SciCam","/SciCam.20240808_212505011.jpg","PilotCam","/PilotCam.20240808_212505011.jpg","BrowCam","/BrowCam.20240808_212505011.jpg","UserSelect","/UserSelect.20240808_212505011.jpg","","","-999.99","7.43","-999.99","-999.99","66b537b12969d9001acb6b85"
"2024-08-08T21:25:35.033Z","7.5904265","-0.1434320","ASNAP","","admin","","","","","9951033.29","-4085738.01","-0.6","-4.6","266.73","197.77","17.93","SciCam","/SciCam.20240808_212535033.jpg","PilotCam","/PilotCam.20240808_212535033.jpg","BrowCam","/BrowCam.20240808_212535033.jpg","UserSelect","/UserSelect.20240808_212535033.jpg","","","-999.99","7.21","-999.99","-999.99","66b537cf2969d9001acb6b89"
"2024-08-08T21:26:05.076Z","7.5904265","-0.1434320","ASNAP","","admin","","","","","9951033.29","-4085738.01","-0.8","-4.7","265.81","197.70","17.93","SciCam","/SciCam.20240808_212605076.jpg","PilotCam","/PilotCam.20240808_212605076.jpg","BrowCam","/BrowCam.20240808_212605076.jpg","UserSelect","/UserSelect.20240808_212605076.jpg","","","-999.99","7.32","-999.99","-999.99","66b537ed2969d9001acb6b8d"
"2024-08-08T21:26:35.093Z","7.5904265","-0.1434320","ASNAP","","admin","","","","","9951033.29","-4085738.01","-0.3","-4.8","264.60","197.74","17.93","SciCam","/SciCam.20240808_212635093.jpg","PilotCam","/PilotCam.20240808_212635093.jpg","BrowCam","/BrowCam.20240808_212635093.jpg","UserSelect","/UserSelect.20240808_212635093.jpg","","","-999.99","7.22","-999.99","-999.99","66b5380b2969d9001acb6b91"
"2024-08-08T21:26:49.570Z","7.5904265","-0.1434320","FREE_FORM","Close up on instrumental poles","guest","","","","","9951033.29","-4085738.01","-0.6","-4.9","265.92","197.77","17.93","SciCam","/SciCam.20240808_212649570.jpg","PilotCam","/PilotCam.20240808_212649570.jpg","BrowCam","/BrowCam.20240808_212649570.jpg","UserSelect","/UserSelect.20240808_212649570.jpg","","","-999.99","7.20","-999.99","-999.99","66b538192969d9001acb6b95"
"2024-08-08T21:27:05.126Z","7.5904265","-0.1434320","ASNAP","","admin","","","","","9951033.29","-4085738.01","-0.7","-4.7","265.69","197.75","17.93","SciCam","/SciCam.20240808_212705126.jpg","PilotCam","/PilotCam.20240808_212705126.jpg","BrowCam","/BrowCam.20240808_212705126.jpg","UserSelect","/UserSelect.20240808_212705126.jpg","","","-999.99","7.19","-999.99","-999.99","66b538292969d9001acb6b99"
"2024-08-08T21:27:35.145Z","7.5904265","-0.1434320","ASNAP","","admin","","","","","9951033.29","-4085738.01","-0.6","-4.8","264.90","197.78","17.93","SciCam","/SciCam.20240808_212735145.jpg","PilotCam","/PilotCam.20240808_212735145.jpg","BrowCam","/BrowCam.20240808_212735145.jpg","UserSelect","/UserSelect.20240808_212735145.jpg","","","-999.99","7.27","-999.99","-999.99","66b538472969d9001acb6b9d"
"2024-08-08T21:28:05.173Z","7.5904265","-0.1434320","ASNAP","","admin","","","","","9951033.29","-4085738.01","-0.7","-4.6","262.81","197.75","17.93","SciCam","/SciCam.20240808_212805173.jpg","PilotCam","/PilotCam.20240808_212805173.jpg","BrowCam","/BrowCam.20240808_212805173.jpg","UserSelect","/UserSelect.20240808_212805173.jpg","","","-999.99","7.27","-999.99","-999.99","66b538652969d9001acb6ba1"
"2024-08-08T21:28:20.303Z","7.5904265","-0.1434320","Biology Type","","guest","","Squat lobster","","","9951033.29","-4085738.01","-0.8","-4.6","262.49","197.72","17.93","SciCam","/SciCam.20240808_212820303.jpg","PilotCam","/PilotCam.20240808_212820303.jpg","BrowCam","/BrowCam.20240808_212820303.jpg","UserSelect","/UserSelect.20240808_212820303.jpg","","","-999.99","7.26","-999.99","-999.99","66b538742969d9001acb6ba5"
"2024-08-08T21:28:35.190Z","7.5904265","-0.1434320","ASNAP","","admin","","","","","9951033.29","-4085738.01","-1.4","-4.4","262.33","197.78","17.93","SciCam","/SciCam.20240808_212835190.jpg","PilotCam","/PilotCam.20240808_212835190.jpg","BrowCam","/BrowCam.20240808_212835190.jpg","UserSelect","/UserSelect.20240808_212835190.jpg","","","-999.99","7.26","-999.99","-999.99","66b538832969d9001acb6ba9"
"2024-08-08T21:29:05.219Z","7.5904265","-0.1434320","ASNAP","","admin","","","","","9951033.29","-4085738.01","-0.6","-4.8","262.14","197.72","17.93","SciCam","/SciCam.20240808_212905219.jpg","PilotCam","/PilotCam.20240808_212905219.jpg","BrowCam","/BrowCam.20240808_212905219.jpg","UserSelect","/UserSelect.20240808_212905219.jpg","","","-999.99","7.21","-999.99","-999.99","66b538a12969d9001acb6bad"
"2024-08-08T21:29:35.266Z","7.5904265","-0.1434320","ASNAP","","admin","","","","","9951033.29","-4085738.01","-0.8","-4.7","241.71","197.70","17.93","SciCam","/SciCam.20240808_212935266.jpg","PilotCam","/PilotCam.20240808_212935266.jpg","BrowCam","/BrowCam.20240808_212935266.jpg","UserSelect","/UserSelect.20240808_212935266.jpg","","","-999.99","7.14","-999.99","-999.99","66b538bf2969d9001acb6bb1"
"2024-08-08T21:30:05.307Z","7.5904265","-0.1434320","ASNAP","","admin","","","","","9951033.29","-4085738.01","-1.0","-5.1","197.40","197.74","17.93","SciCam","/SciCam.20240808_213005307.jpg","PilotCam","/PilotCam.20240808_213005307.jpg","BrowCam","/BrowCam.20240808_213005307.jpg","UserSelect","/UserSelect.20240808_213005307.jpg","","","-999.99","7.39","-999.99","-999.99","66b538dd2969d9001acb6bb5"
"2024-08-08T21:30:35.353Z","7.5904265","-0.1434320","ASNAP","","admin","","","","","9951033.29","-4085738.01","-0.8","-5.2","156.27","197.74","17.93","SciCam","/SciCam.20240808_213035353.jpg","PilotCam","/PilotCam.20240808_213035353.jpg","BrowCam","/BrowCam.20240808_213035353.jpg","UserSelect","/UserSelect.20240808_213035353.jpg","","","-999.99","7.17","-999.99","-999.99","66b538fb2969d9001acb6bb9"
"2024-08-08T21:31:05.399Z","7.5904265","-0.1434320","ASNAP","","admin","","","","","9951033.29","-4085738.01","-0.2","-5.5","92.57","197.75","17.93","SciCam","/SciCam.20240808_213105399.jpg","PilotCam","/PilotCam.20240808_213105399.jpg","BrowCam","/BrowCam.20240808_213105399.jpg","UserSelect","/UserSelect.20240808_213105399.jpg","","","-999.99","6.98","-999.99","-999.99","66b539192969d9001acb6bbd"
"2024-08-08T21:31:35.444Z","7.5904265","-0.1434320","ASNAP","","admin","","","","","9951033.29","-4085738.01","-0.4","-5.2","93.35","197.63","17.93","SciCam","/SciCam.20240808_213135444.jpg","PilotCam","/PilotCam.20240808_213135444.jpg","BrowCam","/BrowCam.20240808_213135444.jpg","UserSelect","/UserSelect.20240808_213135444.jpg","","","-999.99","7.15","-999.99","-999.99","66b539372969d9001acb6bc1"
"2024-08-08T21:32:05.466Z","7.5904265","-0.1434320","ASNAP","","admin","","","","","9951033.29","-4085738.01","0.2","-5.0","94.50","197.75","17.93","SciCam","/SciCam.20240808_213205466.jpg","PilotCam","/PilotCam.20240808_213205466.jpg","BrowCam","/BrowCam.20240808_213205466.jpg","UserSelect","/UserSelect.20240808_213205466.jpg","","","-999.99","7.28","-999.99","-999.99","66b539552969d9001acb6bc5"
"2024-08-08T21:32:35.493Z","7.5904265","-0.1434320","ASNAP","","admin","","","","","9951033.29","-4085738.01","-0.2","-5.3","94.51","197.77","17.93","SciCam","/SciCam.20240808_213235493.jpg","PilotCam","/PilotCam.20240808_213235493.jpg","BrowCam","/BrowCam.20240808_213235493.jpg","UserSelect","/UserSelect.20240808_213235493.jpg","","","-999.99","7.40","-999.99","-999.99","66b539732969d9001acb6bc9"
"2024-08-08T21:33:04.524Z","7.5904265","-0.1434320","FREE_FORM","Zooming in on profiler winch","guest","","","","","9951033.29","-4085738.01","-0.3","-5.2","96.14","197.71","17.93","SciCam","/SciCam.20240808_213304524.jpg","PilotCam","/PilotCam.20240808_213304524.jpg","BrowCam","/BrowCam.20240808_213304524.jpg","UserSelect","/UserSelect.20240808_213304524.jpg","","","-999.99","7.20","-999.99","-999.99","66b539902969d9001acb6bcd"
"2024-08-08T21:33:05.539Z","7.5904265","-0.1434320","ASNAP","","admin","","","","","9951033.29","-4085738.01","-0.2","-5.3","96.12","197.70","17.93","SciCam","/SciCam.20240808_213305539.jpg","PilotCam","/PilotCam.20240808_213305539.jpg","BrowCam","/BrowCam.20240808_213305539.jpg","UserSelect","/UserSelect.20240808_213305539.jpg","","","-999.99","7.20","-999.99","-999.99","66b539912969d9001acb6bd1"
"2024-08-08T21:33:35.556Z","7.5904265","-0.1434320","ASNAP","","admin","","","","","9951033.29","-4085738.01","-0.1","-5.2","96.04","197.71","17.93","SciCam","/SciCam.20240808_213335556.jpg","PilotCam","/PilotCam.20240808_213335556.jpg","BrowCam","/BrowCam.20240808_213335556.jpg","UserSelect","/UserSelect.20240808_213335556.jpg","","","-999.99","7.25","-999.99","-999.99","66b539af2969d9001acb6bd5"
"2024-08-08T21:34:05.600Z","7.5904265","-0.1434320","ASNAP","","admin","","","","","9951033.29","-4085738.01","-0.4","-5.0","131.32","197.56","17.93","SciCam","/SciCam.20240808_213405600.jpg","PilotCam","/PilotCam.20240808_213405600.jpg","BrowCam","/BrowCam.20240808_213405600.jpg","UserSelect","/UserSelect.20240808_213405600.jpg","","","-999.99","7.41","-999.99","-999.99","66b539cd2969d9001acb6bd9"
"2024-08-08T21:34:35.649Z","7.5904265","-0.1434320","ASNAP","","admin","","","","","9951033.29","-4085738.01","-0.6","-5.5","168.53","197.60","17.93","SciCam","/SciCam.20240808_213435649.jpg","PilotCam","/PilotCam.20240808_213435649.jpg","BrowCam","/BrowCam.20240808_213435649.jpg","UserSelect","/UserSelect.20240808_213435649.jpg","","","-999.99","7.24","-999.99","-999.99","66b539eb2969d9001acb6bdd"
"2024-08-08T21:35:05.672Z","7.5904265","-0.1434320","ASNAP","","admin","","","","","9951033.29","-4085738.01","-0.8","-5.0","176.30","197.62","17.93","SciCam","/SciCam.20240808_213505672.jpg","PilotCam","/PilotCam.20240808_213505672.jpg","BrowCam","/BrowCam.20240808_213505672.jpg","UserSelect","/UserSelect.20240808_213505672.jpg","","","-999.99","7.19","-999.99","-999.99","66b53a092969d9001acb6be1"
"2024-08-08T21:35:35.693Z","7.5904265","-0.1434320","ASNAP","","admin","","","","","9951033.29","-4085738.01","-0.7","-5.1","175.12","197.63","17.93","SciCam","/SciCam.20240808_213535693.jpg","PilotCam","/PilotCam.20240808_213535693.jpg","BrowCam","/BrowCam.20240808_213535693.jpg","UserSelect","/UserSelect.20240808_213535693.jpg","","","-999.99","7.23","-999.99","-999.99","66b53a272969d9001acb6be5"
"2024-08-08T21:36:05.736Z","7.5904265","-0.1434320","ASNAP","","admin","","","","","9951033.29","-4085738.01","-0.5","-5.2","175.84","197.74","17.93","SciCam","/SciCam.20240808_213605736.jpg","PilotCam","/PilotCam.20240808_213605736.jpg","BrowCam","/BrowCam.20240808_213605736.jpg","UserSelect","/UserSelect.20240808_213605736.jpg","","","-999.99","7.20","-999.99","-999.99","66b53a452969d9001acb6be9"
"2024-08-08T21:36:35.782Z","7.5904265","-0.1434320","ASNAP","","admin","","","","","9951033.29","-4085738.01","-0.8","-5.3","171.87","197.73","17.93","SciCam","/SciCam.20240808_213635782.jpg","PilotCam","/PilotCam.20240808_213635782.jpg","BrowCam","/BrowCam.20240808_213635782.jpg","UserSelect","/UserSelect.20240808_213635782.jpg","","","-999.99","7.23","-999.99","-999.99","66b53a632969d9001acb6bed"
"2024-08-08T21:36:45.117Z","7.5904265","-0.1434320","FREE_FORM","Close up of growth on shallow profiler platform","guest","","","","","9951033.29","-4085738.01","-0.8","-5.2","175.37","197.74","17.93","SciCam","/SciCam.20240808_213645117.jpg","PilotCam","/PilotCam.20240808_213645117.jpg","BrowCam","/BrowCam.20240808_213645117.jpg","UserSelect","/UserSelect.20240808_213645117.jpg","","","-999.99","7.37","-999.99","-999.99","66b53a6d2969d9001acb6bf1"
"2024-08-08T21:37:05.832Z","7.5904265","-0.1434320","ASNAP","","admin","","","","","9951033.29","-4085738.01","-1.0","-5.2","174.80","197.68","17.93","SciCam","/SciCam.20240808_213705832.jpg","PilotCam","/PilotCam.20240808_213705832.jpg","BrowCam","/BrowCam.20240808_213705832.jpg","UserSelect","/UserSelect.20240808_213705832.jpg","","","-999.99","7.25","-999.99","-999.99","66b53a812969d9001acb6bf5"
"2024-08-08T21:37:35.880Z","7.5904265","-0.1434320","ASNAP","","admin","","","","","9951033.29","-4085738.01","-0.7","-5.2","176.40","197.74","17.93","SciCam","/SciCam.20240808_213735880.jpg","PilotCam","/PilotCam.20240808_213735880.jpg","BrowCam","/BrowCam.20240808_213735880.jpg","UserSelect","/UserSelect.20240808_213735880.jpg","","","-999.99","7.16","-999.99","-999.99","66b53a9f2969d9001acb6bf9"
"2024-08-08T21:38:05.926Z","7.5904265","-0.1434320","ASNAP","","admin","","","","","9951033.29","-4085738.01","-0.6","-5.1","177.46","197.67","17.93","SciCam","/SciCam.20240808_213805926.jpg","PilotCam","/PilotCam.20240808_213805926.jpg","BrowCam","/BrowCam.20240808_213805926.jpg","UserSelect","/UserSelect.20240808_213805926.jpg","","","-999.99","7.26","-999.99","-999.99","66b53abd2969d9001acb6bfd"
"2024-08-08T21:38:35.946Z","7.5904265","-0.1434320","ASNAP","","admin","","","","","9951033.29","-4085738.01","-1.0","-4.9","220.68","197.71","17.93","SciCam","/SciCam.20240808_213835946.jpg","PilotCam","/PilotCam.20240808_213835946.jpg","BrowCam","/BrowCam.20240808_213835946.jpg","UserSelect","/UserSelect.20240808_213835946.jpg","","","-999.99","7.12","-999.99","-999.99","66b53adb2969d9001acb6c01"
