Date/Time (UTC),vehicleRealtimeNavData.latitude (ddeg),vehicleRealtimeNavData.longitude (ddeg),event_value,event_free_text,event_author,event_option.actions,event_option.new_watchstander,event_option.milestone,event_option.location,event_option.dive_#/summary,event_option.filename,event_option.dummy_plug,event_option.cabled_plug,event_option.type,event_option.sample_name,event_option.highlights,vehicleRealtimeNavData.local_x (meters),vehicleRealtimeNavData.local_y (meters),vehicleRealtimeNavData.roll (deg),vehicleRealtimeNavData.pitch (deg),vehicleRealtimeNavData.heading (deg),vehicleRealtimeNavData.depth (meters),vehicleRealtimeNavData.altitude (meters),vehicleRealtimeFramegrabberData.camera_name_1,vehicleRealtimeFramegrabberData.filename_1,vehicleRealtimeFramegrabberData.camera_name_2,vehicleRealtimeFramegrabberData.filename_2,vehicleRealtimeFramegrabberData.camera_name_3,vehicleRealtimeFramegrabberData.filename_3,vehicleRealtimeFramegrabberData.camera_name_4,vehicleRealtimeFramegrabberData.filename_4,vehicleReNavData.pitch (deg),vehicleReNavData.roll (deg),vehicleTemperatureProbe.probe1_temperature (degC),vehicleTemperatureProbe.probe2_temperature (degC),vehicleTemperatureProbe.probe3_temperature (degC),vehicleTemperatureProbe.probe4_temperature (degC),id
"2024-08-30T12:10:53.725Z","45.9166599","-130.0249745","ROV Actions","SPA for Dive 1648 for Axial Base","guest","Latching to","","","","","","","","","","","1.98","-0.75","-2.7","1.5","91.87","0.93","0.58","SciCam","/SciCam.20240830_121053725.jpg","PilotCam","/PilotCam.20240830_121053725.jpg","BrowCam","/BrowCam.20240830_121053725.jpg","UserSelect","/UserSelect.20240830_121053725.jpg","","","-999.99","16.11","-999.99","-999.99","66d1b6cdf9835f001a7ff5ef"
"2024-08-30T12:14:09.717Z","45.9166413","-130.0250070","WATCH_CHANGE","Hot Seat","guest","","James","","","","","","","","","","-0.54","-2.82","-0.6","0.1","183.08","0.92","0.58","SciCam","/SciCam.20240830_121409717.jpg","PilotCam","/PilotCam.20240830_121409717.jpg","BrowCam","/BrowCam.20240830_121409717.jpg","UserSelect","/UserSelect.20240830_121409717.jpg","","","-999.99","16.12","-999.99","-999.99","66d1b791f9835f001a7ff5f3"
"2024-08-30T12:15:31.396Z","45.9166610","-130.0250259","VEHICLE","","guest","","","Jason in water","","","","","","","","","-2.01","-0.63","-1.0","4.0","245.23","0.87","0.58","SciCam","/SciCam.20240830_121531396.jpg","PilotCam","/PilotCam.20240830_121531396.jpg","BrowCam","/BrowCam.20240830_121531396.jpg","UserSelect","/UserSelect.20240830_121531396.jpg","","","-999.99","16.21","-999.99","-999.99","66d1b7e3f9835f001a7ff5f7"
"2024-08-30T12:16:48.861Z","45.9166738","-130.0250249","ASNAP","","admin","","","","","","","","","","","","-1.93","0.79","-5.8","-4.5","272.13","4.66","0.58","SciCam","/SciCam.20240830_121648861.jpg","PilotCam","/PilotCam.20240830_121648861.jpg","BrowCam","/BrowCam.20240830_121648861.jpg","UserSelect","/UserSelect.20240830_121648861.jpg","","","-999.99","18.26","-999.99","-999.99","66d1b830f9835f001a7ff5fb"
"2024-08-30T12:17:03.886Z","45.9166737","-130.0250245","ASNAP","","admin","","","","","","","","","","","","-1.90","0.78","3.4","-5.9","273.55","4.34","0.58","SciCam","/SciCam.20240830_121703886.jpg","PilotCam","/PilotCam.20240830_121703886.jpg","BrowCam","/BrowCam.20240830_121703886.jpg","UserSelect","/UserSelect.20240830_121703886.jpg","","","-999.99","18.17","-999.99","-999.99","66d1b83ff9835f001a7ff5ff"
"2024-08-30T12:17:18.914Z","45.9166757","-130.0250249","ASNAP","","admin","","","","","","","","","","","","-1.93","1.00","-2.8","2.5","276.96","4.67","0.58","SciCam","/SciCam.20240830_121718914.jpg","PilotCam","/PilotCam.20240830_121718914.jpg","BrowCam","/BrowCam.20240830_121718914.jpg","UserSelect","/UserSelect.20240830_121718914.jpg","","","-999.99","18.16","-999.99","-999.99","66d1b84ef9835f001a7ff603"
"2024-08-30T12:17:33.946Z","45.9166737","-130.0250251","ASNAP","","admin","","","","","","","","","","","","-1.95","0.78","1.9","-0.4","273.95","4.53","0.58","SciCam","/SciCam.20240830_121733946.jpg","PilotCam","/PilotCam.20240830_121733946.jpg","BrowCam","/BrowCam.20240830_121733946.jpg","UserSelect","/UserSelect.20240830_121733946.jpg","","","-999.99","18.23","-999.99","-999.99","66d1b85df9835f001a7ff607"
"2024-08-30T12:17:48.975Z","45.9166740","-130.0250249","ASNAP","","admin","","","","","","","","","","","","-1.93","0.82","-2.9","-4.2","272.89","4.22","0.58","SciCam","/SciCam.20240830_121748975.jpg","PilotCam","/PilotCam.20240830_121748975.jpg","BrowCam","/BrowCam.20240830_121748975.jpg","UserSelect","/UserSelect.20240830_121748975.jpg","","","-999.99","18.16","-999.99","-999.99","66d1b86cf9835f001a7ff60b"
"2024-08-30T12:18:04.003Z","45.9166730","-130.0250250","ASNAP","","admin","","","","","","","","","","","","-1.94","0.70","3.4","-3.3","272.21","4.52","0.58","SciCam","/SciCam.20240830_121804003.jpg","PilotCam","/PilotCam.20240830_121804003.jpg","BrowCam","/BrowCam.20240830_121804003.jpg","UserSelect","/UserSelect.20240830_121804003.jpg","","","-999.99","18.22","-999.99","-999.99","66d1b87cf9835f001a7ff60f"
"2024-08-30T12:18:19.034Z","45.9166733","-130.0250250","ASNAP","","admin","","","","","","","","","","","","-1.94","0.74","2.7","-2.5","272.89","5.54","0.58","SciCam","/SciCam.20240830_121819034.jpg","PilotCam","/PilotCam.20240830_121819034.jpg","BrowCam","/BrowCam.20240830_121819034.jpg","UserSelect","/UserSelect.20240830_121819034.jpg","","","-999.99","18.22","-999.99","-999.99","66d1b88bf9835f001a7ff613"
"2024-08-30T12:18:34.064Z","45.9166740","-130.0250249","ASNAP","","admin","","","","","","","","","","","","-1.93","0.81","-1.5","-3.0","273.29","11.40","0.58","SciCam","/SciCam.20240830_121834064.jpg","PilotCam","/PilotCam.20240830_121834064.jpg","BrowCam","/BrowCam.20240830_121834064.jpg","UserSelect","/UserSelect.20240830_121834064.jpg","","","-999.99","18.25","-999.99","-999.99","66d1b89af9835f001a7ff61a"
"2024-08-30T12:18:36.812Z","45.9166735","-130.0250249","ROV Actions"," ","guest","First Football on","","","","","","","","","","","-1.93","0.76","1.6","-3.2","273.00","12.05","0.58","SciCam","/SciCam.20240830_121836812.jpg","PilotCam","/PilotCam.20240830_121836812.jpg","BrowCam","/BrowCam.20240830_121836812.jpg","UserSelect","/UserSelect.20240830_121836812.jpg","","","-999.99","17.98","-999.99","-999.99","66d1b89cf9835f001a7ff61f"
"2024-08-30T12:18:49.095Z","45.9166736","-130.0250247","ASNAP","","admin","","","","","","","","","","","","-1.92","0.77","-0.2","-4.6","273.08","12.29","0.58","SciCam","/SciCam.20240830_121849095.jpg","PilotCam","/PilotCam.20240830_121849095.jpg","BrowCam","/BrowCam.20240830_121849095.jpg","UserSelect","/UserSelect.20240830_121849095.jpg","","","-999.99","18.24","-999.99","-999.99","66d1b8a9f9835f001a7ff623"
"2024-08-30T12:19:04.126Z","45.9166733","-130.0250251","ASNAP","","admin","","","","","","","","","","","","-1.95","0.74","0.1","-2.1","272.22","11.47","0.58","SciCam","/SciCam.20240830_121904126.jpg","PilotCam","/PilotCam.20240830_121904126.jpg","BrowCam","/BrowCam.20240830_121904126.jpg","UserSelect","/UserSelect.20240830_121904126.jpg","","","-999.99","18.16","-999.99","-999.99","66d1b8b8f9835f001a7ff627"
"2024-08-30T12:19:19.155Z","45.9166737","-130.0250250","ASNAP","","admin","","","","","","","","","","","","-1.94","0.78","0.5","-2.1","273.17","11.89","0.58","SciCam","/SciCam.20240830_121919155.jpg","PilotCam","/PilotCam.20240830_121919155.jpg","BrowCam","/BrowCam.20240830_121919155.jpg","UserSelect","/UserSelect.20240830_121919155.jpg","","","-999.99","18.27","-999.99","-999.99","66d1b8c7f9835f001a7ff62b"
"2024-08-30T12:19:34.186Z","45.9166727","-130.0250253","ASNAP","","admin","","","","","","","","","","","","-1.96","0.67","0.2","-2.7","270.89","11.86","0.58","SciCam","/SciCam.20240830_121934186.jpg","PilotCam","/PilotCam.20240830_121934186.jpg","BrowCam","/BrowCam.20240830_121934186.jpg","UserSelect","/UserSelect.20240830_121934186.jpg","","","-999.99","18.17","-999.99","-999.99","66d1b8d6f9835f001a7ff62f"
"2024-08-30T12:19:49.219Z","45.9166735","-130.0250250","ASNAP","","admin","","","","","","","","","","","","-1.94","0.76","-2.5","-3.4","272.21","15.54","0.58","SciCam","/SciCam.20240830_121949219.jpg","PilotCam","/PilotCam.20240830_121949219.jpg","BrowCam","/BrowCam.20240830_121949219.jpg","UserSelect","/UserSelect.20240830_121949219.jpg","","","-999.99","18.22","-999.99","-999.99","66d1b8e5f9835f001a7ff633"
"2024-08-30T12:20:04.251Z","45.9166727","-130.0250254","ASNAP","","admin","","","","","","","","","","","","-1.97","0.67","-1.2","-0.9","270.48","17.00","0.58","SciCam","/SciCam.20240830_122004251.jpg","PilotCam","/PilotCam.20240830_122004251.jpg","BrowCam","/BrowCam.20240830_122004251.jpg","UserSelect","/UserSelect.20240830_122004251.jpg","","","-999.99","18.13","-999.99","-999.99","66d1b8f4f9835f001a7ff637"
"2024-08-30T12:20:19.281Z","45.9166733","-130.0250249","ASNAP","","admin","","","","","","","","","","","","-1.93","0.74","0.4","-4.4","271.95","18.13","0.58","SciCam","/SciCam.20240830_122019281.jpg","PilotCam","/PilotCam.20240830_122019281.jpg","BrowCam","/BrowCam.20240830_122019281.jpg","UserSelect","/UserSelect.20240830_122019281.jpg","","","-999.99","18.20","-999.99","-999.99","66d1b903f9835f001a7ff63b"
"2024-08-30T12:20:34.315Z","45.9166716","-130.0250253","ASNAP","","admin","","","","","","","","","","","","-1.96","0.55","3.0","-3.8","268.82","18.11","0.58","SciCam","/SciCam.20240830_122034315.jpg","PilotCam","/PilotCam.20240830_122034315.jpg","BrowCam","/BrowCam.20240830_122034315.jpg","UserSelect","/UserSelect.20240830_122034315.jpg","","","-999.99","18.23","-999.99","-999.99","66d1b912f9835f001a7ff63f"
"2024-08-30T12:20:49.347Z","45.9166729","-130.0250253","ASNAP","","admin","","","","","","","","","","","","-1.96","0.69","0.5","-1.4","271.30","17.91","0.58","SciCam","/SciCam.20240830_122049347.jpg","PilotCam","/PilotCam.20240830_122049347.jpg","BrowCam","/BrowCam.20240830_122049347.jpg","UserSelect","/UserSelect.20240830_122049347.jpg","","","-999.99","18.22","-999.99","-999.99","66d1b921f9835f001a7ff643"
"2024-08-30T12:21:04.365Z","45.9166731","-130.0250251","ASNAP","","admin","","","","","","","","","","","","-1.95","0.72","-0.0","-2.4","271.78","18.26","0.58","SciCam","/SciCam.20240830_122104365.jpg","PilotCam","/PilotCam.20240830_122104365.jpg","BrowCam","/BrowCam.20240830_122104365.jpg","UserSelect","/UserSelect.20240830_122104365.jpg","","","-999.99","17.98","-999.99","-999.99","66d1b930f9835f001a7ff647"
"2024-08-30T12:21:19.395Z","45.9166726","-130.0250251","ASNAP","","admin","","","","","","","","","","","","-1.95","0.66","1.0","-3.2","270.77","23.30","0.58","SciCam","/SciCam.20240830_122119395.jpg","PilotCam","/PilotCam.20240830_122119395.jpg","BrowCam","/BrowCam.20240830_122119395.jpg","UserSelect","/UserSelect.20240830_122119395.jpg","","","-999.99","18.15","-999.99","-999.99","66d1b93ff9835f001a7ff64b"
"2024-08-30T12:21:34.427Z","45.9166730","-130.0250249","ASNAP","","admin","","","","","","","","","","","","-1.93","0.70","0.2","-4.4","271.47","27.64","0.58","SciCam","/SciCam.20240830_122134427.jpg","PilotCam","/PilotCam.20240830_122134427.jpg","BrowCam","/BrowCam.20240830_122134427.jpg","UserSelect","/UserSelect.20240830_122134427.jpg","","","-999.99","18.29","-999.99","-999.99","66d1b94ef9835f001a7ff64f"
"2024-08-30T12:21:49.460Z","45.9166731","-130.0250250","ASNAP","","admin","","","","","","","","","","","","-1.94","0.72","1.2","-3.5","272.19","27.31","0.58","SciCam","/SciCam.20240830_122149460.jpg","PilotCam","/PilotCam.20240830_122149460.jpg","BrowCam","/BrowCam.20240830_122149460.jpg","UserSelect","/UserSelect.20240830_122149460.jpg","","","-999.99","18.06","-999.99","-999.99","66d1b95df9835f001a7ff653"
"2024-08-30T12:22:04.491Z","45.9166731","-130.0250251","ASNAP","","admin","","","","","","","","","","","","-1.95","0.71","-0.5","-2.4","271.49","26.81","0.58","SciCam","/SciCam.20240830_122204491.jpg","PilotCam","/PilotCam.20240830_122204491.jpg","BrowCam","/BrowCam.20240830_122204491.jpg","UserSelect","/UserSelect.20240830_122204491.jpg","","","-999.99","18.12","-999.99","-999.99","66d1b96cf9835f001a7ff657"
"2024-08-30T12:22:19.511Z","45.9166734","-130.0250249","ASNAP","","admin","","","","","","","","","","","","-1.93","0.75","0.9","-4.4","272.53","29.19","0.58","SciCam","/SciCam.20240830_122219511.jpg","PilotCam","/PilotCam.20240830_122219511.jpg","BrowCam","/BrowCam.20240830_122219511.jpg","UserSelect","/UserSelect.20240830_122219511.jpg","","","-999.99","18.29","-999.99","-999.99","66d1b97bf9835f001a7ff65b"
"2024-08-30T12:22:30.910Z","45.9166730","-130.0250251","ROV Actions"," ","guest","Last Football on","","","","","","","","","","","-1.95","0.70","0.2","-3.2","271.41","29.83","0.58","SciCam","/SciCam.20240830_122230910.jpg","PilotCam","/PilotCam.20240830_122230910.jpg","BrowCam","/BrowCam.20240830_122230910.jpg","UserSelect","/UserSelect.20240830_122230910.jpg","","","-999.99","18.26","-999.99","-999.99","66d1b986f9835f001a7ff65f"
"2024-08-30T12:22:34.544Z","45.9166730","-130.0250250","ASNAP","","admin","","","","","","","","","","","","-1.94","0.70","0.5","-3.8","271.51","29.60","0.58","SciCam","/SciCam.20240830_122234544.jpg","PilotCam","/PilotCam.20240830_122234544.jpg","BrowCam","/BrowCam.20240830_122234544.jpg","UserSelect","/UserSelect.20240830_122234544.jpg","","","-999.99","18.10","-999.99","-999.99","66d1b98af9835f001a7ff663"
"2024-08-30T12:22:49.574Z","45.9166738","-130.0250245","ASNAP","","admin","","","","","","","","","","","","-1.90","0.79","2.6","-5.6","273.86","29.44","0.58","SciCam","/SciCam.20240830_122249574.jpg","PilotCam","/PilotCam.20240830_122249574.jpg","BrowCam","/BrowCam.20240830_122249574.jpg","UserSelect","/UserSelect.20240830_122249574.jpg","","","-999.99","17.97","-999.99","-999.99","66d1b999f9835f001a7ff667"
"2024-08-30T12:23:04.607Z","45.9166742","-130.0250250","ASNAP","","admin","","","","","","","","","","","","-1.94","0.84","-1.1","-1.3","274.30","34.67","0.58","SciCam","/SciCam.20240830_122304607.jpg","PilotCam","/PilotCam.20240830_122304607.jpg","BrowCam","/BrowCam.20240830_122304607.jpg","UserSelect","/UserSelect.20240830_122304607.jpg","","","-999.99","18.08","-999.99","-999.99","66d1b9a8f9835f001a7ff66b"
"2024-08-30T12:23:19.639Z","45.9166740","-130.0250249","ASNAP","","admin","","","","","","","","","","","","-1.93","0.82","-1.1","-2.6","273.56","45.78","0.58","SciCam","/SciCam.20240830_122319639.jpg","PilotCam","/PilotCam.20240830_122319639.jpg","BrowCam","/BrowCam.20240830_122319639.jpg","UserSelect","/UserSelect.20240830_122319639.jpg","","","-999.99","16.68","-999.99","-999.99","66d1b9b7f9835f001a7ff66f"
"2024-08-30T12:23:34.672Z","45.9166740","-130.0250247","ASNAP","","admin","","","","","","","","","","","","-1.92","0.82","-0.9","-3.6","273.67","54.63","0.58","SciCam","/SciCam.20240830_122334672.jpg","PilotCam","/PilotCam.20240830_122334672.jpg","BrowCam","/BrowCam.20240830_122334672.jpg","UserSelect","/UserSelect.20240830_122334672.jpg","","","-999.99","14.75","-999.99","-999.99","66d1b9c6f9835f001a7ff673"
"2024-08-30T12:23:49.704Z","45.9166736","-130.0250249","ASNAP","","admin","","","","","","","","","","","","-1.93","0.77","-0.2","-3.5","272.77","59.68","0.58","SciCam","/SciCam.20240830_122349704.jpg","PilotCam","/PilotCam.20240830_122349704.jpg","BrowCam","/BrowCam.20240830_122349704.jpg","UserSelect","/UserSelect.20240830_122349704.jpg","","","-999.99","13.46","-999.99","-999.99","66d1b9d5f9835f001a7ff677"
"2024-08-30T12:24:04.738Z","45.9166745","-130.0250245","ASNAP","","admin","","","","","","","","","","","","-1.90","0.87","0.1","-4.0","274.93","63.67","0.58","SciCam","/SciCam.20240830_122404738.jpg","PilotCam","/PilotCam.20240830_122404738.jpg","BrowCam","/BrowCam.20240830_122404738.jpg","UserSelect","/UserSelect.20240830_122404738.jpg","","","-999.99","12.21","-999.99","-999.99","66d1b9e4f9835f001a7ff67b"
"2024-08-30T12:24:19.767Z","45.9166741","-130.0250247","ASNAP","","admin","","","","","","","","","","","","-1.92","0.83","-0.4","-3.9","274.06","69.10","0.58","SciCam","/SciCam.20240830_122419767.jpg","PilotCam","/PilotCam.20240830_122419767.jpg","BrowCam","/BrowCam.20240830_122419767.jpg","UserSelect","/UserSelect.20240830_122419767.jpg","","","-999.99","11.35","-999.99","-999.99","66d1b9f3f9835f001a7ff67f"
"2024-08-30T12:24:34.797Z","45.9166741","-130.0250247","ASNAP","","admin","","","","","","","","","","","","-1.92","0.83","-0.2","-2.9","274.07","74.35","0.58","SciCam","/SciCam.20240830_122434797.jpg","PilotCam","/PilotCam.20240830_122434797.jpg","BrowCam","/BrowCam.20240830_122434797.jpg","UserSelect","/UserSelect.20240830_122434797.jpg","","","-999.99","10.77","-999.99","-999.99","66d1ba02f9835f001a7ff683"
"2024-08-30T12:24:49.829Z","45.9166740","-130.0250247","ASNAP","","admin","","","","","","","","","","","","-1.92","0.82","0.2","-3.1","273.95","80.54","0.58","SciCam","/SciCam.20240830_122449829.jpg","PilotCam","/PilotCam.20240830_122449829.jpg","BrowCam","/BrowCam.20240830_122449829.jpg","UserSelect","/UserSelect.20240830_122449829.jpg","","","-999.99","10.54","-999.99","-999.99","66d1ba11f9835f001a7ff687"
"2024-08-30T12:25:04.861Z","45.9166731","-130.0250250","ASNAP","","admin","","","","","","","","","","","","-1.94","0.71","0.6","-4.0","271.68","84.93","0.58","SciCam","/SciCam.20240830_122504861.jpg","PilotCam","/PilotCam.20240830_122504861.jpg","BrowCam","/BrowCam.20240830_122504861.jpg","UserSelect","/UserSelect.20240830_122504861.jpg","","","-999.99","10.24","-999.99","-999.99","66d1ba20f9835f001a7ff68b"
"2024-08-30T12:25:19.891Z","45.9166740","-130.0250247","ASNAP","","admin","","","","","","","","","","","","-1.92","0.82","-0.4","-3.8","273.74","88.31","0.58","SciCam","/SciCam.20240830_122519891.jpg","PilotCam","/PilotCam.20240830_122519891.jpg","BrowCam","/BrowCam.20240830_122519891.jpg","UserSelect","/UserSelect.20240830_122519891.jpg","","","-999.99","9.56","-999.99","-999.99","66d1ba2ff9835f001a7ff68f"
"2024-08-30T12:25:34.912Z","45.9166731","-130.0250250","ASNAP","","admin","","","","","","","","","","","","-1.94","0.72","-0.6","-3.1","272.00","90.42","0.58","SciCam","/SciCam.20240830_122534912.jpg","PilotCam","/PilotCam.20240830_122534912.jpg","BrowCam","/BrowCam.20240830_122534912.jpg","UserSelect","/UserSelect.20240830_122534912.jpg","","","-999.99","9.28","-999.99","-999.99","66d1ba3ef9835f001a7ff693"
"2024-08-30T12:25:49.944Z","45.9166738","-130.0250249","ASNAP","","admin","","","","","","","","","","","","-1.93","0.79","-0.1","-3.3","273.20","95.23","0.58","SciCam","/SciCam.20240830_122549944.jpg","PilotCam","/PilotCam.20240830_122549944.jpg","BrowCam","/BrowCam.20240830_122549944.jpg","UserSelect","/UserSelect.20240830_122549944.jpg","","","-999.99","8.92","-999.99","-999.99","66d1ba4df9835f001a7ff697"
"2024-08-30T12:26:04.970Z","45.9166738","-130.0250249","ASNAP","","admin","","","","","","","","","","","","-1.93","0.79","-0.1","-3.1","273.35","102.28","0.58","SciCam","/SciCam.20240830_122604970.jpg","PilotCam","/PilotCam.20240830_122604970.jpg","BrowCam","/BrowCam.20240830_122604970.jpg","UserSelect","/UserSelect.20240830_122604970.jpg","","","-999.99","8.77","-999.99","-999.99","66d1ba5cf9835f001a7ff69b"
"2024-08-30T12:26:20.003Z","45.9166739","-130.0250249","ASNAP","","admin","","","","","","","","","","","","-1.93","0.80","-0.6","-3.0","273.28","110.95","0.58","SciCam","/SciCam.20240830_122620003.jpg","PilotCam","/PilotCam.20240830_122620003.jpg","BrowCam","/BrowCam.20240830_122620003.jpg","UserSelect","/UserSelect.20240830_122620003.jpg","","","-999.99","8.40","-999.99","-999.99","66d1ba6cf9835f001a7ff69f"
"2024-08-30T12:26:35.037Z","45.9166742","-130.0250246","ASNAP","","admin","","","","","","","","","","","","-1.91","0.84","-0.2","-4.4","274.25","119.52","0.58","SciCam","/SciCam.20240830_122635037.jpg","PilotCam","/PilotCam.20240830_122635037.jpg","BrowCam","/BrowCam.20240830_122635037.jpg","UserSelect","/UserSelect.20240830_122635037.jpg","","","-999.99","8.22","-999.99","-999.99","66d1ba7bf9835f001a7ff6a3"
"2024-08-30T12:26:50.069Z","45.9166749","-130.0250244","ASNAP","","admin","","","","","","","","","","","","-1.89","0.92","1.3","-4.9","275.87","124.66","0.58","SciCam","/SciCam.20240830_122650069.jpg","PilotCam","/PilotCam.20240830_122650069.jpg","BrowCam","/BrowCam.20240830_122650069.jpg","UserSelect","/UserSelect.20240830_122650069.jpg","","","-999.99","8.03","-999.99","-999.99","66d1ba8af9835f001a7ff6a7"
"2024-08-30T12:27:05.090Z","45.9166758","-130.0250240","ASNAP","","admin","","","","","","","","","","","","-1.86","1.01","-0.0","-4.5","278.15","126.55","0.58","SciCam","/SciCam.20240830_122705090.jpg","PilotCam","/PilotCam.20240830_122705090.jpg","BrowCam","/BrowCam.20240830_122705090.jpg","UserSelect","/UserSelect.20240830_122705090.jpg","","","-999.99","8.04","-999.99","-999.99","66d1ba99f9835f001a7ff6ab"
"2024-08-30T12:27:17.360Z","45.9166740","-130.0250247","ROV Actions","beacon on","guest","Transponder on","","","","","","","","","","","-1.92","0.82","-0.4","-3.5","273.80","125.60","0.58","SciCam","/SciCam.20240830_122717360.jpg","PilotCam","/PilotCam.20240830_122717360.jpg","BrowCam","/BrowCam.20240830_122717360.jpg","UserSelect","/UserSelect.20240830_122717360.jpg","","","-999.99","8.05","-999.99","-999.99","66d1baa5f9835f001a7ff6af"
"2024-08-30T12:27:20.118Z","45.9166741","-130.0250247","ASNAP","","admin","","","","","","","","","","","","-1.92","0.83","-0.1","-3.8","274.07","125.53","0.58","SciCam","/SciCam.20240830_122720118.jpg","PilotCam","/PilotCam.20240830_122720118.jpg","BrowCam","/BrowCam.20240830_122720118.jpg","UserSelect","/UserSelect.20240830_122720118.jpg","","","-999.99","7.96","-999.99","-999.99","66d1baa8f9835f001a7ff6b3"
"2024-08-30T12:27:35.144Z","45.9166744","-130.0250246","ASNAP","","admin","","","","","","","","","","","","-1.91","0.86","0.3","-3.3","274.67","125.84","0.58","SciCam","/SciCam.20240830_122735144.jpg","PilotCam","/PilotCam.20240830_122735144.jpg","BrowCam","/BrowCam.20240830_122735144.jpg","UserSelect","/UserSelect.20240830_122735144.jpg","","","-999.99","7.83","-999.99","-999.99","66d1bab7f9835f001a7ff6b7"
"2024-08-30T12:27:50.171Z","45.9166718","-130.0250253","ASNAP","","admin","","","","","","","","","","","","-1.96","0.57","-0.5","-3.7","268.76","125.90","0.58","SciCam","/SciCam.20240830_122750171.jpg","PilotCam","/PilotCam.20240830_122750171.jpg","BrowCam","/BrowCam.20240830_122750171.jpg","UserSelect","/UserSelect.20240830_122750171.jpg","","","-999.99","7.94","-999.99","-999.99","66d1bac6f9835f001a7ff6bb"
"2024-08-30T12:28:05.204Z","45.9166723","-130.0250253","ASNAP","","admin","","","","","","","","","","","","-1.96","0.63","-0.7","-3.4","269.85","125.72","0.58","SciCam","/SciCam.20240830_122805204.jpg","PilotCam","/PilotCam.20240830_122805204.jpg","BrowCam","/BrowCam.20240830_122805204.jpg","UserSelect","/UserSelect.20240830_122805204.jpg","","","-999.99","7.79","-999.99","-999.99","66d1bad5f9835f001a7ff6bf"
"2024-08-30T12:28:20.224Z","45.9166740","-130.0250246","ASNAP","","admin","","","","","","","","","","","","-1.91","0.82","-0.3","-4.2","273.82","125.87","0.58","SciCam","/SciCam.20240830_122820224.jpg","PilotCam","/PilotCam.20240830_122820224.jpg","BrowCam","/BrowCam.20240830_122820224.jpg","UserSelect","/UserSelect.20240830_122820224.jpg","","","-999.99","7.76","-999.99","-999.99","66d1bae4f9835f001a7ff6c3"
"2024-08-30T12:28:34.634Z","45.9166720","-130.0250253","VEHICLE","Descending to 160 m","guest","","","Other","","","","","","","","","-1.96","0.59","0.3","-3.7","269.34","125.75","0.58","SciCam","/SciCam.20240830_122834634.jpg","PilotCam","/PilotCam.20240830_122834634.jpg","BrowCam","/BrowCam.20240830_122834634.jpg","UserSelect","/UserSelect.20240830_122834634.jpg","","","-999.99","8.00","-999.99","-999.99","66d1baf2f9835f001a7ff6c7"
"2024-08-30T12:28:35.251Z","45.9166720","-130.0250253","ASNAP","","admin","","","","","","","","","","","","-1.96","0.59","0.3","-3.7","269.34","125.75","0.58","SciCam","/SciCam.20240830_122835251.jpg","PilotCam","/PilotCam.20240830_122835251.jpg","BrowCam","/BrowCam.20240830_122835251.jpg","UserSelect","/UserSelect.20240830_122835251.jpg","","","-999.99","7.99","-999.99","-999.99","66d1baf3f9835f001a7ff6ca"
"2024-08-30T12:28:50.284Z","45.9166718","-130.0250253","ASNAP","","admin","","","","","","","","","","","","-1.96","0.57","-0.0","-4.2","268.84","130.43","0.58","SciCam","/SciCam.20240830_122850284.jpg","PilotCam","/PilotCam.20240830_122850284.jpg","BrowCam","/BrowCam.20240830_122850284.jpg","UserSelect","/UserSelect.20240830_122850284.jpg","","","-999.99","7.98","-999.99","-999.99","66d1bb02f9835f001a7ff6cf"
"2024-08-30T12:29:05.318Z","45.9166740","-130.0250247","ASNAP","","admin","","","","","","","","","","","","-1.92","0.81","-1.2","-3.6","273.54","135.04","0.58","SciCam","/SciCam.20240830_122905318.jpg","PilotCam","/PilotCam.20240830_122905318.jpg","BrowCam","/BrowCam.20240830_122905318.jpg","UserSelect","/UserSelect.20240830_122905318.jpg","","","-999.99","7.87","-999.99","-999.99","66d1bb11f9835f001a7ff6d3"
"2024-08-30T12:29:20.350Z","45.9166722","-130.0250250","ASNAP","","admin","","","","","","","","","","","","-1.94","0.62","-2.7","-5.8","269.26","138.83","0.58","SciCam","/SciCam.20240830_122920350.jpg","PilotCam","/PilotCam.20240830_122920350.jpg","BrowCam","/BrowCam.20240830_122920350.jpg","UserSelect","/UserSelect.20240830_122920350.jpg","","","-999.99","7.67","-999.99","-999.99","66d1bb20f9835f001a7ff6d7"
"2024-08-30T12:29:35.380Z","45.9166723","-130.0250251","ASNAP","","admin","","","","","","","","","","","","-1.95","0.63","-2.1","-4.6","269.66","140.51","0.58","SciCam","/SciCam.20240830_122935380.jpg","PilotCam","/PilotCam.20240830_122935380.jpg","BrowCam","/BrowCam.20240830_122935380.jpg","UserSelect","/UserSelect.20240830_122935380.jpg","","","-999.99","7.63","-999.99","-999.99","66d1bb2ff9835f001a7ff6db"
"2024-08-30T12:29:50.414Z","45.9166702","-130.0250255","ASNAP","","admin","","","","","","","","","","","","-1.98","0.39","-0.5","-3.7","265.11","143.86","0.58","SciCam","/SciCam.20240830_122950414.jpg","PilotCam","/PilotCam.20240830_122950414.jpg","BrowCam","/BrowCam.20240830_122950414.jpg","UserSelect","/UserSelect.20240830_122950414.jpg","","","-999.99","7.48","-999.99","-999.99","66d1bb3ef9835f001a7ff6df"
"2024-08-30T12:30:05.448Z","45.9166715","-130.0250253","ASNAP","","admin","","","","","","","","","","","","-1.96","0.54","0.4","-4.2","268.25","146.57","0.58","SciCam","/SciCam.20240830_123005448.jpg","PilotCam","/PilotCam.20240830_123005448.jpg","BrowCam","/BrowCam.20240830_123005448.jpg","UserSelect","/UserSelect.20240830_123005448.jpg","","","-999.99","7.45","-999.99","-999.99","66d1bb4df9835f001a7ff6e3"
"2024-08-30T12:30:20.473Z","45.9166732","-130.0250251","ASNAP","","admin","","","","","","","","","","","","-1.95","0.73","-3.8","-3.6","271.37","145.64","0.58","SciCam","/SciCam.20240830_123020473.jpg","PilotCam","/PilotCam.20240830_123020473.jpg","BrowCam","/BrowCam.20240830_123020473.jpg","UserSelect","/UserSelect.20240830_123020473.jpg","","","-999.99","7.36","-999.99","-999.99","66d1bb5cf9835f001a7ff6e7"
"2024-08-30T12:30:35.504Z","45.9166760","-130.0250241","ASNAP","","admin","","","","","","","","","","","","-1.87","1.04","0.5","-3.5","278.58","145.67","0.58","SciCam","/SciCam.20240830_123035504.jpg","PilotCam","/PilotCam.20240830_123035504.jpg","BrowCam","/BrowCam.20240830_123035504.jpg","UserSelect","/UserSelect.20240830_123035504.jpg","","","-999.99","7.40","-999.99","-999.99","66d1bb6bf9835f001a7ff6eb"
"2024-08-30T12:30:50.533Z","45.9166759","-130.0250241","ASNAP","","admin","","","","","","","","","","","","-1.87","1.03","0.2","-3.6","278.39","145.67","0.58","SciCam","/SciCam.20240830_123050533.jpg","PilotCam","/PilotCam.20240830_123050533.jpg","BrowCam","/BrowCam.20240830_123050533.jpg","UserSelect","/UserSelect.20240830_123050533.jpg","","","-999.99","7.36","-999.99","-999.99","66d1bb7af9835f001a7ff6f3"
"2024-08-30T12:31:01.117Z","45.9166759","-130.0250241","NAV","Ship all stop","guest","","","","","","","","","","","","-1.87","1.03","0.0","-3.6","278.34","145.70","0.58","SciCam","/SciCam.20240830_123101117.jpg","PilotCam","/PilotCam.20240830_123101117.jpg","BrowCam","/BrowCam.20240830_123101117.jpg","UserSelect","/UserSelect.20240830_123101117.jpg","","","-999.99","7.42","-999.99","-999.99","66d1bb85f9835f001a7ff6f7"
"2024-08-30T12:31:05.561Z","45.9166759","-130.0250241","ASNAP","","admin","","","","","","","","","","","","-1.87","1.03","0.0","-3.6","278.36","145.72","0.58","SciCam","/SciCam.20240830_123105561.jpg","PilotCam","/PilotCam.20240830_123105561.jpg","BrowCam","/BrowCam.20240830_123105561.jpg","UserSelect","/UserSelect.20240830_123105561.jpg","","","-999.99","7.43","-999.99","-999.99","66d1bb89f9835f001a7ff6fb"
"2024-08-30T12:31:20.585Z","45.9166924","-130.0249966","ASNAP","","admin","","","","","","","","","","","","0.26","2.86","-2.0","-3.3","358.11","147.66","0.58","SciCam","/SciCam.20240830_123120585.jpg","PilotCam","/PilotCam.20240830_123120585.jpg","BrowCam","/BrowCam.20240830_123120585.jpg","UserSelect","/UserSelect.20240830_123120585.jpg","","","-999.99","7.44","-999.99","-999.99","66d1bb98f9835f001a7ff6ff"
"2024-08-30T12:31:35.617Z","45.9166911","-130.0249914","ASNAP","","admin","","","","","","","","","","","","0.67","2.72","-0.3","-3.3","7.24","151.39","0.58","SciCam","/SciCam.20240830_123135617.jpg","PilotCam","/PilotCam.20240830_123135617.jpg","BrowCam","/BrowCam.20240830_123135617.jpg","UserSelect","/UserSelect.20240830_123135617.jpg","","","-999.99","7.60","-999.99","-999.99","66d1bba7f9835f001a7ff703"
"2024-08-30T12:31:50.650Z","45.9166914","-130.0249930","ASNAP","","admin","","","","","","","","","","","","0.54","2.75","0.4","-5.2","2.80","156.61","0.58","SciCam","/SciCam.20240830_123150650.jpg","PilotCam","/PilotCam.20240830_123150650.jpg","BrowCam","/BrowCam.20240830_123150650.jpg","UserSelect","/UserSelect.20240830_123150650.jpg","","","-999.99","7.51","-999.99","-999.99","66d1bbb6f9835f001a7ff707"
"2024-08-30T12:32:05.681Z","45.9166915","-130.0249924","ASNAP","","admin","","","","","","","","","","","","0.59","2.76","-0.1","-3.2","4.43","160.35","0.58","SciCam","/SciCam.20240830_123205681.jpg","PilotCam","/PilotCam.20240830_123205681.jpg","BrowCam","/BrowCam.20240830_123205681.jpg","UserSelect","/UserSelect.20240830_123205681.jpg","","","-999.99","7.36","-999.99","-999.99","66d1bbc5f9835f001a7ff70b"
"2024-08-30T12:32:20.712Z","45.9166914","-130.0249921","ASNAP","","admin","","","","","","","","","","","","0.61","2.75","-0.1","-2.9","4.95","167.68","0.58","SciCam","/SciCam.20240830_123220712.jpg","PilotCam","/PilotCam.20240830_123220712.jpg","BrowCam","/BrowCam.20240830_123220712.jpg","UserSelect","/UserSelect.20240830_123220712.jpg","","","-999.99","7.22","-999.99","-999.99","66d1bbd4f9835f001a7ff70f"
"2024-08-30T12:32:35.745Z","45.9166903","-130.0249893","ASNAP","","admin","","","","","","","","","","","","0.83","2.63","-0.6","-3.2","11.90","172.63","0.58","SciCam","/SciCam.20240830_123235745.jpg","PilotCam","/PilotCam.20240830_123235745.jpg","BrowCam","/BrowCam.20240830_123235745.jpg","UserSelect","/UserSelect.20240830_123235745.jpg","","","-999.99","7.17","-999.99","-999.99","66d1bbe3f9835f001a7ff713"
"2024-08-30T12:32:50.779Z","45.9166905","-130.0249899","ASNAP","","admin","","","","","","","","","","","","0.78","2.65","-0.2","-3.7","10.20","175.00","0.58","SciCam","/SciCam.20240830_123250779.jpg","PilotCam","/PilotCam.20240830_123250779.jpg","BrowCam","/BrowCam.20240830_123250779.jpg","UserSelect","/UserSelect.20240830_123250779.jpg","","","-999.99","7.25","-999.99","-999.99","66d1bbf2f9835f001a7ff717"
"2024-08-30T12:33:05.806Z","45.9166910","-130.0249916","ASNAP","","admin","","","","","","","","","","","","0.65","2.71","1.1","-4.2","6.48","178.40","0.58","SciCam","/SciCam.20240830_123305806.jpg","PilotCam","/PilotCam.20240830_123305806.jpg","BrowCam","/BrowCam.20240830_123305806.jpg","UserSelect","/UserSelect.20240830_123305806.jpg","","","-999.99","7.19","-999.99","-999.99","66d1bc01f9835f001a7ff71b"
"2024-08-30T12:33:20.837Z","45.9166908","-130.0249905","ASNAP","","admin","","","","","","","","","","","","0.74","2.68","0.8","-3.0","8.87","184.37","0.58","SciCam","/SciCam.20240830_123320837.jpg","PilotCam","/PilotCam.20240830_123320837.jpg","BrowCam","/BrowCam.20240830_123320837.jpg","UserSelect","/UserSelect.20240830_123320837.jpg","","","-999.99","7.17","-999.99","-999.99","66d1bc10f9835f001a7ff71f"
"2024-08-30T12:33:35.870Z","45.9166883","-130.0249860","ASNAP","","admin","","","","","","","","","","","","1.09","2.40","-0.1","-4.6","20.46","192.87","0.58","SciCam","/SciCam.20240830_123335870.jpg","PilotCam","/PilotCam.20240830_123335870.jpg","BrowCam","/BrowCam.20240830_123335870.jpg","UserSelect","/UserSelect.20240830_123335870.jpg","","","-999.99","7.08","-999.99","-999.99","66d1bc1ff9835f001a7ff723"
"2024-08-30T12:33:50.902Z","45.9166689","-130.0249745","ASNAP","","admin","","","","","","","","","","","","1.98","0.25","0.2","-5.1","72.19","195.27","0.58","SciCam","/SciCam.20240830_123350902.jpg","PilotCam","/PilotCam.20240830_123350902.jpg","BrowCam","/BrowCam.20240830_123350902.jpg","UserSelect","/UserSelect.20240830_123350902.jpg","","","-999.99","7.24","-999.99","-999.99","66d1bc2ef9835f001a7ff727"
"2024-08-30T12:34:05.934Z","45.9166686","-130.0249743","ASNAP","","admin","","","","","","","","","","","","1.99","0.22","-0.2","-3.7","72.86","193.55","0.58","SciCam","/SciCam.20240830_123405934.jpg","PilotCam","/PilotCam.20240830_123405934.jpg","BrowCam","/BrowCam.20240830_123405934.jpg","UserSelect","/UserSelect.20240830_123405934.jpg","","","-999.99","7.30","-999.99","-999.99","66d1bc3df9835f001a7ff72b"
"2024-08-30T12:34:20.964Z","45.9166662","-130.0249742","ASNAP","","admin","","","","","","","","","","","","2.00","-0.05","-1.0","-3.5","78.22","192.05","0.58","SciCam","/SciCam.20240830_123420964.jpg","PilotCam","/PilotCam.20240830_123420964.jpg","BrowCam","/BrowCam.20240830_123420964.jpg","UserSelect","/UserSelect.20240830_123420964.jpg","","","-999.99","7.50","-999.99","-999.99","66d1bc4cf9835f001a7ff737"
"2024-08-30T12:34:28.706Z","45.9166689","-130.0249745","Site Interactions","SPA ","guest","","","","Axial Base","Dive J2-1648","","","","","","","1.98","0.25","0.2","-4.8","72.72","191.77","0.58","SciCam","/SciCam.20240830_123428706.jpg","PilotCam","/PilotCam.20240830_123428706.jpg","BrowCam","/BrowCam.20240830_123428706.jpg","UserSelect","/UserSelect.20240830_123428706.jpg","","","-999.99","7.25","-999.99","-999.99","66d1bc54f9835f001a7ff73b"
"2024-08-30T12:34:35.998Z","45.9166666","-130.0249745","ASNAP","","admin","","","","","","","","","","","","1.98","-0.01","-2.4","-6.2","76.88","191.98","0.58","SciCam","/SciCam.20240830_123435998.jpg","PilotCam","/PilotCam.20240830_123435998.jpg","BrowCam","/BrowCam.20240830_123435998.jpg","UserSelect","/UserSelect.20240830_123435998.jpg","","","-999.99","7.29","-999.99","-999.99","66d1bc5bf9835f001a7ff73f"
"2024-08-30T12:34:51.029Z","45.9166597","-130.0249753","ASNAP","","admin","","","","","","","","","","","","1.92","-0.77","-1.2","-4.9","92.43","192.16","0.58","SciCam","/SciCam.20240830_123451029.jpg","PilotCam","/PilotCam.20240830_123451029.jpg","BrowCam","/BrowCam.20240830_123451029.jpg","UserSelect","/UserSelect.20240830_123451029.jpg","","","-999.99","7.39","-999.99","-999.99","66d1bc6bf9835f001a7ff743"
"2024-08-30T12:35:06.061Z","45.9166574","-130.0249759","ASNAP","","admin","","","","","","","","","","","","1.87","-1.03","-0.2","-3.7","98.13","191.97","0.58","SciCam","/SciCam.20240830_123506061.jpg","PilotCam","/PilotCam.20240830_123506061.jpg","BrowCam","/BrowCam.20240830_123506061.jpg","UserSelect","/UserSelect.20240830_123506061.jpg","","","-999.99","7.28","-999.99","-999.99","66d1bc7af9835f001a7ff747"
"2024-08-30T12:35:21.094Z","45.9166581","-130.0249758","ASNAP","","admin","","","","","","","","","","","","1.88","-0.95","0.1","-4.4","96.56","191.97","0.58","SciCam","/SciCam.20240830_123521094.jpg","PilotCam","/PilotCam.20240830_123521094.jpg","BrowCam","/BrowCam.20240830_123521094.jpg","UserSelect","/UserSelect.20240830_123521094.jpg","","","-999.99","7.23","-999.99","-999.99","66d1bc89f9835f001a7ff74b"
"2024-08-30T12:35:36.126Z","45.9166555","-130.0249768","ASNAP","","admin","","","","","","","","","","","","1.80","-1.24","0.6","-3.6","103.20","191.95","0.58","SciCam","/SciCam.20240830_123536126.jpg","PilotCam","/PilotCam.20240830_123536126.jpg","BrowCam","/BrowCam.20240830_123536126.jpg","UserSelect","/UserSelect.20240830_123536126.jpg","","","-999.99","7.23","-999.99","-999.99","66d1bc98f9835f001a7ff74f"
"2024-08-30T12:35:51.155Z","45.9166569","-130.0249762","ASNAP","","admin","","","","","","","","","","","","1.85","-1.09","-0.1","-3.8","99.59","191.94","0.58","SciCam","/SciCam.20240830_123551155.jpg","PilotCam","/PilotCam.20240830_123551155.jpg","BrowCam","/BrowCam.20240830_123551155.jpg","UserSelect","/UserSelect.20240830_123551155.jpg","","","-999.99","7.22","-999.99","-999.99","66d1bca7f9835f001a7ff753"
"2024-08-30T12:36:06.187Z","45.9166574","-130.0249759","ASNAP","","admin","","","","","","","","","","","","1.87","-1.03","-0.4","-4.0","98.26","192.00","0.58","SciCam","/SciCam.20240830_123606187.jpg","PilotCam","/PilotCam.20240830_123606187.jpg","BrowCam","/BrowCam.20240830_123606187.jpg","UserSelect","/UserSelect.20240830_123606187.jpg","","","-999.99","7.30","-999.99","-999.99","66d1bcb6f9835f001a7ff757"
"2024-08-30T12:36:21.218Z","45.9166562","-130.0249764","ASNAP","","admin","","","","","","","","","","","","1.83","-1.16","-2.1","-4.2","101.35","192.10","0.58","SciCam","/SciCam.20240830_123621218.jpg","PilotCam","/PilotCam.20240830_123621218.jpg","BrowCam","/BrowCam.20240830_123621218.jpg","UserSelect","/UserSelect.20240830_123621218.jpg","","","-999.99","7.29","-999.99","-999.99","66d1bcc5f9835f001a7ff75b"
"2024-08-30T12:36:36.238Z","45.9166533","-130.0249777","ASNAP","","admin","","","","","","","","","","","","1.73","-1.49","-2.0","-2.3","108.16","192.12","0.58","SciCam","/SciCam.20240830_123636238.jpg","PilotCam","/PilotCam.20240830_123636238.jpg","BrowCam","/BrowCam.20240830_123636238.jpg","UserSelect","/UserSelect.20240830_123636238.jpg","","","-999.99","7.29","-999.99","-999.99","66d1bcd4f9835f001a7ff75f"
"2024-08-30T12:36:51.265Z","45.9166543","-130.0249772","ASNAP","","admin","","","","","","","","","","","","1.77","-1.38","-0.8","-2.6","105.67","191.87","0.58","SciCam","/SciCam.20240830_123651265.jpg","PilotCam","/PilotCam.20240830_123651265.jpg","BrowCam","/BrowCam.20240830_123651265.jpg","UserSelect","/UserSelect.20240830_123651265.jpg","","","-999.99","7.25","-999.99","-999.99","66d1bce3f9835f001a7ff763"
"2024-08-30T12:37:06.296Z","45.9166482","-130.0249821","ASNAP","","admin","","","","","","","","","","","","1.39","-2.05","-0.8","-4.8","122.81","192.02","0.58","SciCam","/SciCam.20240830_123706296.jpg","PilotCam","/PilotCam.20240830_123706296.jpg","BrowCam","/BrowCam.20240830_123706296.jpg","UserSelect","/UserSelect.20240830_123706296.jpg","","","-999.99","7.25","-999.99","-999.99","66d1bcf2f9835f001a7ff767"
"2024-08-30T12:37:21.327Z","45.9166486","-130.0249814","ASNAP","","admin","","","","","","","","","","","","1.44","-2.01","-2.8","-3.6","121.91","192.01","0.58","SciCam","/SciCam.20240830_123721327.jpg","PilotCam","/PilotCam.20240830_123721327.jpg","BrowCam","/BrowCam.20240830_123721327.jpg","UserSelect","/UserSelect.20240830_123721327.jpg","","","-999.99","7.24","-999.99","-999.99","66d1bd01f9835f001a7ff76b"
"2024-08-30T12:37:36.353Z","45.9166472","-130.0249830","ASNAP","","admin","","","","","","","","","","","","1.32","-2.16","0.8","-3.7","126.33","192.02","0.58","SciCam","/SciCam.20240830_123736353.jpg","PilotCam","/PilotCam.20240830_123736353.jpg","BrowCam","/BrowCam.20240830_123736353.jpg","UserSelect","/UserSelect.20240830_123736353.jpg","","","-999.99","7.22","-999.99","-999.99","66d1bd10f9835f001a7ff76f"
"2024-08-30T12:37:51.380Z","45.9166483","-130.0249818","ASNAP","","admin","","","","","","","","","","","","1.41","-2.04","0.2","-4.0","122.52","192.01","0.58","SciCam","/SciCam.20240830_123751380.jpg","PilotCam","/PilotCam.20240830_123751380.jpg","BrowCam","/BrowCam.20240830_123751380.jpg","UserSelect","/UserSelect.20240830_123751380.jpg","","","-999.99","7.27","-999.99","-999.99","66d1bd1ff9835f001a7ff773"
"2024-08-30T12:38:06.414Z","45.9166493","-130.0249809","ASNAP","","admin","","","","","","","","","","","","1.48","-1.93","0.3","-4.0","119.62","191.98","0.58","SciCam","/SciCam.20240830_123806414.jpg","PilotCam","/PilotCam.20240830_123806414.jpg","BrowCam","/BrowCam.20240830_123806414.jpg","UserSelect","/UserSelect.20240830_123806414.jpg","","","-999.99","7.26","-999.99","-999.99","66d1bd2ef9835f001a7ff777"
"2024-08-30T12:38:21.446Z","45.9166507","-130.0249798","ASNAP","","admin","","","","","","","","","","","","1.57","-1.77","-0.3","-4.7","115.47","191.95","0.58","SciCam","/SciCam.20240830_123821446.jpg","PilotCam","/PilotCam.20240830_123821446.jpg","BrowCam","/BrowCam.20240830_123821446.jpg","UserSelect","/UserSelect.20240830_123821446.jpg","","","-999.99","7.15","-999.99","-999.99","66d1bd3df9835f001a7ff77b"
"2024-08-30T12:38:36.478Z","45.9166554","-130.0249768","ASNAP","","admin","","","","","","","","","","","","1.80","-1.25","-0.5","-3.3","103.07","192.02","0.58","SciCam","/SciCam.20240830_123836478.jpg","PilotCam","/PilotCam.20240830_123836478.jpg","BrowCam","/BrowCam.20240830_123836478.jpg","UserSelect","/UserSelect.20240830_123836478.jpg","","","-999.99","7.32","-999.99","-999.99","66d1bd4cf9835f001a7ff77f"
"2024-08-30T12:38:51.495Z","45.9166547","-130.0249772","ASNAP","","admin","","","","","","","","","","","","1.77","-1.33","0.1","-3.9","105.12","190.50","0.58","SciCam","/SciCam.20240830_123851495.jpg","PilotCam","/PilotCam.20240830_123851495.jpg","BrowCam","/BrowCam.20240830_123851495.jpg","UserSelect","/UserSelect.20240830_123851495.jpg","","","-999.99","7.27","-999.99","-999.99","66d1bd5bf9835f001a7ff783"
"2024-08-30T12:39:06.526Z","45.9166562","-130.0249767","ASNAP","","admin","","","","","","","","","","","","1.81","-1.16","2.9","-4.8","101.67","187.34","0.58","SciCam","/SciCam.20240830_123906526.jpg","PilotCam","/PilotCam.20240830_123906526.jpg","BrowCam","/BrowCam.20240830_123906526.jpg","UserSelect","/UserSelect.20240830_123906526.jpg","","","-999.99","7.17","-999.99","-999.99","66d1bd6af9835f001a7ff787"
"2024-08-30T12:39:21.557Z","45.9166671","-130.0249745","ASNAP","","admin","","","","","","","","","","","","1.98","0.05","0.8","-5.9","76.37","186.50","0.58","SciCam","/SciCam.20240830_123921557.jpg","PilotCam","/PilotCam.20240830_123921557.jpg","BrowCam","/BrowCam.20240830_123921557.jpg","UserSelect","/UserSelect.20240830_123921557.jpg","","","-999.99","7.35","-999.99","-999.99","66d1bd79f9835f001a7ff78b"
"2024-08-30T12:39:36.587Z","45.9166783","-130.0249769","ASNAP","","admin","","","","","","","","","","","","1.79","1.29","-0.9","-4.0","50.46","185.41","0.58","SciCam","/SciCam.20240830_123936587.jpg","PilotCam","/PilotCam.20240830_123936587.jpg","BrowCam","/BrowCam.20240830_123936587.jpg","UserSelect","/UserSelect.20240830_123936587.jpg","","","-999.99","7.19","-999.99","-999.99","66d1bd88f9835f001a7ff78f"
"2024-08-30T12:39:51.613Z","45.9166793","-130.0249776","ASNAP","","admin","","","","","","","","","","","","1.74","1.40","1.8","-4.1","48.46","183.27","0.58","SciCam","/SciCam.20240830_123951613.jpg","PilotCam","/PilotCam.20240830_123951613.jpg","BrowCam","/BrowCam.20240830_123951613.jpg","UserSelect","/UserSelect.20240830_123951613.jpg","","","-999.99","7.33","-999.99","-999.99","66d1bd97f9835f001a7ff793"
"2024-08-30T12:40:06.645Z","45.9166870","-130.0249845","ASNAP","","admin","","","","","","","","","","","","1.20","2.26","-0.0","-5.7","24.03","183.46","0.58","SciCam","/SciCam.20240830_124006645.jpg","PilotCam","/PilotCam.20240830_124006645.jpg","BrowCam","/BrowCam.20240830_124006645.jpg","UserSelect","/UserSelect.20240830_124006645.jpg","","","-999.99","7.17","-999.99","-999.99","66d1bda6f9835f001a7ff797"
"2024-08-30T12:40:21.679Z","45.9166911","-130.0249920","ASNAP","","admin","","","","","","","","","","","","0.62","2.72","0.1","-4.5","5.27","182.88","0.58","SciCam","/SciCam.20240830_124021679.jpg","PilotCam","/PilotCam.20240830_124021679.jpg","BrowCam","/BrowCam.20240830_124021679.jpg","UserSelect","/UserSelect.20240830_124021679.jpg","","","-999.99","7.34","-999.99","-999.99","66d1bdb5f9835f001a7ff79b"
"2024-08-30T12:40:36.714Z","45.9166922","-130.0249947","ASNAP","","admin","","","","","","","","","","","","0.41","2.84","-1.7","-1.8","359.05","183.31","0.58","SciCam","/SciCam.20240830_124036714.jpg","PilotCam","/PilotCam.20240830_124036714.jpg","BrowCam","/BrowCam.20240830_124036714.jpg","UserSelect","/UserSelect.20240830_124036714.jpg","","","-999.99","7.07","-999.99","-999.99","66d1bdc4f9835f001a7ff79f"
"2024-08-30T12:40:51.746Z","45.9166901","-130.0249897","ASNAP","","admin","","","","","","","","","","","","0.80","2.60","-0.7","-6.5","9.17","184.20","0.58","SciCam","/SciCam.20240830_124051746.jpg","PilotCam","/PilotCam.20240830_124051746.jpg","BrowCam","/BrowCam.20240830_124051746.jpg","UserSelect","/UserSelect.20240830_124051746.jpg","","","-999.99","7.29","-999.99","-999.99","66d1bdd3f9835f001a7ff7a3"
"2024-08-30T12:41:06.779Z","45.9166915","-130.0249927","ASNAP","","admin","","","","","","","","","","","","0.57","2.76","1.7","-2.8","4.82","184.61","0.58","SciCam","/SciCam.20240830_124106779.jpg","PilotCam","/PilotCam.20240830_124106779.jpg","BrowCam","/BrowCam.20240830_124106779.jpg","UserSelect","/UserSelect.20240830_124106779.jpg","","","-999.99","7.32","-999.99","-999.99","66d1bde2f9835f001a7ff7a7"
"2024-08-30T12:41:21.812Z","45.9166926","-130.0249981","ASNAP","","admin","","","","","","","","","","","","0.15","2.88","-2.2","-2.7","351.34","184.26","0.58","SciCam","/SciCam.20240830_124121812.jpg","PilotCam","/PilotCam.20240830_124121812.jpg","BrowCam","/BrowCam.20240830_124121812.jpg","UserSelect","/UserSelect.20240830_124121812.jpg","","","-999.99","7.30","-999.99","-999.99","66d1bdf1f9835f001a7ff7ab"
"2024-08-30T12:41:36.843Z","45.9166899","-130.0249890","ASNAP","","admin","","","","","","","","","","","","0.85","2.58","1.4","-5.1","13.70","184.49","0.58","SciCam","/SciCam.20240830_124136843.jpg","PilotCam","/PilotCam.20240830_124136843.jpg","BrowCam","/BrowCam.20240830_124136843.jpg","UserSelect","/UserSelect.20240830_124136843.jpg","","","-999.99","7.36","-999.99","-999.99","66d1be00f9835f001a7ff7af"
"2024-08-30T12:41:51.873Z","45.9166902","-130.0249890","ASNAP","","admin","","","","","","","","","","","","0.85","2.62","-0.7","-2.9","12.36","185.13","0.58","SciCam","/SciCam.20240830_124151873.jpg","PilotCam","/PilotCam.20240830_124151873.jpg","BrowCam","/BrowCam.20240830_124151873.jpg","UserSelect","/UserSelect.20240830_124151873.jpg","","","-999.99","7.32","-999.99","-999.99","66d1be0ff9835f001a7ff7b3"
"2024-08-30T12:42:06.906Z","45.9166913","-130.0249930","ASNAP","","admin","","","","","","","","","","","","0.54","2.74","2.3","-5.1","4.05","184.54","0.58","SciCam","/SciCam.20240830_124206906.jpg","PilotCam","/PilotCam.20240830_124206906.jpg","BrowCam","/BrowCam.20240830_124206906.jpg","UserSelect","/UserSelect.20240830_124206906.jpg","","","-999.99","7.15","-999.99","-999.99","66d1be1ef9835f001a7ff7bb"
"2024-08-30T12:42:21.938Z","45.9166909","-130.0249905","ASNAP","","admin","","","","","","","","","","","","0.74","2.69","0.0","-2.4","8.54","185.17","0.58","SciCam","/SciCam.20240830_124221938.jpg","PilotCam","/PilotCam.20240830_124221938.jpg","BrowCam","/BrowCam.20240830_124221938.jpg","UserSelect","/UserSelect.20240830_124221938.jpg","","","-999.99","7.36","-999.99","-999.99","66d1be2df9835f001a7ff7c3"
"2024-08-30T12:42:36.967Z","45.9166916","-130.0249930","ASNAP","","admin","","","","","","","","","","","","0.54","2.77","3.6","-2.4","4.34","184.55","0.58","SciCam","/SciCam.20240830_124236967.jpg","PilotCam","/PilotCam.20240830_124236967.jpg","BrowCam","/BrowCam.20240830_124236967.jpg","UserSelect","/UserSelect.20240830_124236967.jpg","","","-999.99","7.23","-999.99","-999.99","66d1be3cf9835f001a7ff7c7"
"2024-08-30T12:42:52.001Z","45.9166927","-130.0249961","ASNAP","","admin","","","","","","","","","","","","0.30","2.89","-1.4","0.1","355.76","184.78","0.58","SciCam","/SciCam.20240830_124252001.jpg","PilotCam","/PilotCam.20240830_124252001.jpg","BrowCam","/BrowCam.20240830_124252001.jpg","UserSelect","/UserSelect.20240830_124252001.jpg","","","-999.99","7.29","-999.99","-999.99","66d1be4cf9835f001a7ff7cb"
"2024-08-30T12:43:07.033Z","45.9166908","-130.0249890","ASNAP","","admin","","","","","","","","","","","","0.85","2.68","0.9","3.9","11.53","185.90","0.58","SciCam","/SciCam.20240830_124307033.jpg","PilotCam","/PilotCam.20240830_124307033.jpg","BrowCam","/BrowCam.20240830_124307033.jpg","UserSelect","/UserSelect.20240830_124307033.jpg","","","-999.99","7.32","-999.99","-999.99","66d1be5bf9835f001a7ff7cf"
"2024-08-30T12:43:22.066Z","45.9166915","-130.0249956","ASNAP","","admin","","","","","","","","","","","","0.34","2.76","-2.5","-9.5","356.06","186.05","0.58","SciCam","/SciCam.20240830_124322066.jpg","PilotCam","/PilotCam.20240830_124322066.jpg","BrowCam","/BrowCam.20240830_124322066.jpg","UserSelect","/UserSelect.20240830_124322066.jpg","","","-999.99","7.05","-999.99","-999.99","66d1be6af9835f001a7ff7d7"
"2024-08-30T12:43:37.095Z","45.9166925","-130.0249960","ASNAP","","admin","","","","","","","","","","","","0.31","2.87","-1.0","-1.4","356.50","186.95","0.58","SciCam","/SciCam.20240830_124337095.jpg","PilotCam","/PilotCam.20240830_124337095.jpg","BrowCam","/BrowCam.20240830_124337095.jpg","UserSelect","/UserSelect.20240830_124337095.jpg","","","-999.99","7.31","-999.99","-999.99","66d1be79f9835f001a7ff7db"
"2024-08-30T12:43:52.118Z","45.9166914","-130.0249902","ASNAP","","admin","","","","","","","","","","","","0.76","2.75","-2.6","3.7","8.69","186.61","0.58","SciCam","/SciCam.20240830_124352118.jpg","PilotCam","/PilotCam.20240830_124352118.jpg","BrowCam","/BrowCam.20240830_124352118.jpg","UserSelect","/UserSelect.20240830_124352118.jpg","","","-999.99","7.17","-999.99","-999.99","66d1be88f9835f001a7ff7df"
"2024-08-30T12:44:07.153Z","45.9166892","-130.0249866","ASNAP","","admin","","","","","","","","","","","","1.04","2.50","-3.0","-0.6","17.88","187.17","0.58","SciCam","/SciCam.20240830_124407153.jpg","PilotCam","/PilotCam.20240830_124407153.jpg","BrowCam","/BrowCam.20240830_124407153.jpg","UserSelect","/UserSelect.20240830_124407153.jpg","","","-999.99","7.17","-999.99","-999.99","66d1be97f9835f001a7ff7e3"
"2024-08-30T12:44:22.184Z","45.9166910","-130.0249906","ASNAP","","admin","","","","","","","","","","","","0.73","2.71","-1.0","-1.8","8.75","187.78","0.58","SciCam","/SciCam.20240830_124422184.jpg","PilotCam","/PilotCam.20240830_124422184.jpg","BrowCam","/BrowCam.20240830_124422184.jpg","UserSelect","/UserSelect.20240830_124422184.jpg","","","-999.99","7.30","-999.99","-999.99","66d1bea6f9835f001a7ff7e7"
"2024-08-30T12:44:37.216Z","45.9166907","-130.0249897","ASNAP","","admin","","","","","","","","","","","","0.80","2.67","-0.2","-1.4","10.80","187.69","0.58","SciCam","/SciCam.20240830_124437216.jpg","PilotCam","/PilotCam.20240830_124437216.jpg","BrowCam","/BrowCam.20240830_124437216.jpg","UserSelect","/UserSelect.20240830_124437216.jpg","","","-999.99","7.34","-999.99","-999.99","66d1beb5f9835f001a7ff7eb"
"2024-08-30T12:44:52.234Z","45.9166909","-130.0249903","ASNAP","","admin","","","","","","","","","","","","0.75","2.69","-0.2","-1.8","9.20","187.68","0.58","SciCam","/SciCam.20240830_124452234.jpg","PilotCam","/PilotCam.20240830_124452234.jpg","BrowCam","/BrowCam.20240830_124452234.jpg","UserSelect","/UserSelect.20240830_124452234.jpg","","","-999.99","7.41","-999.99","-999.99","66d1bec4f9835f001a7ff7ef"
"2024-08-30T12:45:07.267Z","45.9166909","-130.0249903","ASNAP","","admin","","","","","","","","","","","","0.75","2.69","-0.3","-1.8","9.30","187.65","0.58","SciCam","/SciCam.20240830_124507267.jpg","PilotCam","/PilotCam.20240830_124507267.jpg","BrowCam","/BrowCam.20240830_124507267.jpg","UserSelect","/UserSelect.20240830_124507267.jpg","","","-999.99","7.23","-999.99","-999.99","66d1bed3f9835f001a7ff7f3"
"2024-08-30T12:45:22.298Z","45.9166910","-130.0249905","ASNAP","","admin","","","","","","","","","","","","0.74","2.70","-0.2","-1.9","9.02","187.67","0.58","SciCam","/SciCam.20240830_124522298.jpg","PilotCam","/PilotCam.20240830_124522298.jpg","BrowCam","/BrowCam.20240830_124522298.jpg","UserSelect","/UserSelect.20240830_124522298.jpg","","","-999.99","7.33","-999.99","-999.99","66d1bee2f9835f001a7ff7f7"
"2024-08-30T12:45:37.329Z","45.9166909","-130.0249905","ASNAP","","admin","","","","","","","","","","","","0.74","2.69","-0.2","-2.3","8.91","187.71","0.58","SciCam","/SciCam.20240830_124537329.jpg","PilotCam","/PilotCam.20240830_124537329.jpg","BrowCam","/BrowCam.20240830_124537329.jpg","UserSelect","/UserSelect.20240830_124537329.jpg","","","-999.99","7.27","-999.99","-999.99","66d1bef1f9835f001a7ff7fb"
"2024-08-30T12:45:45.298Z","45.9166905","-130.0249894","ROV Actions","SPA 2024","guest","Unlatching from","","","","","","","","","","","0.82","2.65","0.4","-2.1","11.50","187.76","0.58","SciCam","/SciCam.20240830_124545298.jpg","PilotCam","/PilotCam.20240830_124545298.jpg","BrowCam","/BrowCam.20240830_124545298.jpg","UserSelect","/UserSelect.20240830_124545298.jpg","","","-999.99","7.33","-999.99","-999.99","66d1bef9f9835f001a7ff7ff"
"2024-08-30T12:45:52.352Z","45.9166919","-130.0249948","ASNAP","","admin","","","","","","","","","","","","0.40","2.80","-0.6","-5.8","356.45","187.43","0.58","SciCam","/SciCam.20240830_124552352.jpg","PilotCam","/PilotCam.20240830_124552352.jpg","BrowCam","/BrowCam.20240830_124552352.jpg","UserSelect","/UserSelect.20240830_124552352.jpg","","","-999.99","7.25","-999.99","-999.99","66d1bf00f9835f001a7ff803"
"2024-08-30T12:46:07.384Z","45.9166659","-130.0250257","ASNAP","","admin","","","","","","","","","","","","-1.99","-0.08","-0.6","-5.2","253.36","187.44","0.58","SciCam","/SciCam.20240830_124607384.jpg","PilotCam","/PilotCam.20240830_124607384.jpg","BrowCam","/BrowCam.20240830_124607384.jpg","UserSelect","/UserSelect.20240830_124607384.jpg","","","-999.99","7.33","-999.99","-999.99","66d1bf0ff9835f001a7ff807"
"2024-08-30T12:46:22.417Z","45.9166466","-130.0250160","ASNAP","","admin","","","","","","","","","","","","-1.24","-2.23","-0.5","-5.5","205.77","188.46","0.58","SciCam","/SciCam.20240830_124622417.jpg","PilotCam","/PilotCam.20240830_124622417.jpg","BrowCam","/BrowCam.20240830_124622417.jpg","UserSelect","/UserSelect.20240830_124622417.jpg","","","-999.99","7.28","-999.99","-999.99","66d1bf1ef9835f001a7ff80b"
"2024-08-30T12:46:37.449Z","45.9166473","-130.0250169","ASNAP","","admin","","","","","","","","","","","","-1.31","-2.15","-1.2","-5.3","208.23","188.54","0.58","SciCam","/SciCam.20240830_124637449.jpg","PilotCam","/PilotCam.20240830_124637449.jpg","BrowCam","/BrowCam.20240830_124637449.jpg","UserSelect","/UserSelect.20240830_124637449.jpg","","","-999.99","7.25","-999.99","-999.99","66d1bf2df9835f001a7ff80f"
"2024-08-30T12:46:50.789Z","45.9166473","-130.0250168","ROV Actions"," ","guest","(Port) Manipulator in use","","","","","","","","","","","-1.30","-2.15","-2.1","-6.0","207.92","188.47","0.58","SciCam","/SciCam.20240830_124650789.jpg","PilotCam","/PilotCam.20240830_124650789.jpg","BrowCam","/BrowCam.20240830_124650789.jpg","UserSelect","/UserSelect.20240830_124650789.jpg","","","-999.99","7.30","-999.99","-999.99","66d1bf3af9835f001a7ff813"
"2024-08-30T12:46:52.480Z","45.9166472","-130.0250168","ASNAP","","admin","","","","","","","","","","","","-1.30","-2.16","-2.1","-6.0","207.49","188.48","0.58","SciCam","/SciCam.20240830_124652480.jpg","PilotCam","/PilotCam.20240830_124652480.jpg","BrowCam","/BrowCam.20240830_124652480.jpg","UserSelect","/UserSelect.20240830_124652480.jpg","","","-999.99","7.21","-999.99","-999.99","66d1bf3cf9835f001a7ff817"
"2024-08-30T12:47:07.512Z","45.9166467","-130.0250160","ASNAP","","admin","","","","","","","","","","","","-1.24","-2.22","-0.4","-5.6","205.79","188.93","0.58","SciCam","/SciCam.20240830_124707512.jpg","PilotCam","/PilotCam.20240830_124707512.jpg","BrowCam","/BrowCam.20240830_124707512.jpg","UserSelect","/UserSelect.20240830_124707512.jpg","","","-999.99","7.28","-999.99","-999.99","66d1bf4bf9835f001a7ff81b"
"2024-08-30T12:47:11.611Z","45.9166453","-130.0250142","ROV Actions","SPA 2024","guest","Latching to","","","","","","","","","","","-1.10","-2.38","-0.1","-5.0","200.98","188.74","0.58","SciCam","/SciCam.20240830_124711611.jpg","PilotCam","/PilotCam.20240830_124711611.jpg","BrowCam","/BrowCam.20240830_124711611.jpg","UserSelect","/UserSelect.20240830_124711611.jpg","","","-999.99","7.32","-999.99","-999.99","66d1bf4ff9835f001a7ff81f"
"2024-08-30T12:47:22.542Z","45.9166477","-130.0250169","ASNAP","","admin","","","","","","","","","","","","-1.31","-2.11","-0.7","-7.3","208.72","188.58","0.58","SciCam","/SciCam.20240830_124722542.jpg","PilotCam","/PilotCam.20240830_124722542.jpg","BrowCam","/BrowCam.20240830_124722542.jpg","UserSelect","/UserSelect.20240830_124722542.jpg","","","-999.99","7.22","-999.99","-999.99","66d1bf5af9835f001a7ff823"
"2024-08-30T12:47:25.000Z","","","SulisCam","","admin","","","","","","sulis_20240830124725.jpg","","","","","","","","","","","","","","","","","","","","","-7.063","-1.024","","","","","66d4c7c3f9835f001a80b28b"
"2024-08-30T12:47:25.928Z","45.9166476","-130.0250169","ROV Actions"," ","guest","(Starboard) Manipulator in use","","","","","","","","","","","-1.31","-2.12","-1.5","-6.8","208.47","188.63","0.58","SciCam","/SciCam.20240830_124725928.jpg","PilotCam","/PilotCam.20240830_124725928.jpg","BrowCam","/BrowCam.20240830_124725928.jpg","UserSelect","/UserSelect.20240830_124725928.jpg","","","-999.99","7.17","-999.99","-999.99","66d1bf5df9835f001a7ff827"
"2024-08-30T12:47:37.572Z","45.9166480","-130.0250171","ASNAP","","admin","","","","","","","","","","","","-1.33","-2.07","-1.8","-8.0","209.49","188.57","0.58","SciCam","/SciCam.20240830_124737572.jpg","PilotCam","/PilotCam.20240830_124737572.jpg","BrowCam","/BrowCam.20240830_124737572.jpg","UserSelect","/UserSelect.20240830_124737572.jpg","","","-999.99","7.30","-999.99","-999.99","66d1bf69f9835f001a7ff82b"
"2024-08-30T12:47:39.930Z","45.9166480","-130.0250171","ROV Actions","locking latch","guest","(Starboard) Manipulator in use","","","","","","","","","","","-1.33","-2.07","-1.6","-8.1","209.62","188.57","0.58","SciCam","/SciCam.20240830_124739930.jpg","PilotCam","/PilotCam.20240830_124739930.jpg","BrowCam","/BrowCam.20240830_124739930.jpg","UserSelect","/UserSelect.20240830_124739930.jpg","","","-999.99","7.26","-999.99","-999.99","66d1bf6bf9835f001a7ff82f"
"2024-08-30T12:47:52.000Z","","","SulisCam","","admin","","","","","","sulis_20240830124752.jpg","","","","","","","","","","","","","","","","","","","","","-7.661","-1.477","","","","","66d4c7c3f9835f001a80b28d"
"2024-08-30T12:47:52.604Z","45.9166478","-130.0250170","ASNAP","","admin","","","","","","","","","","","","-1.32","-2.10","-1.5","-7.9","208.88","188.59","0.58","SciCam","/SciCam.20240830_124752604.jpg","PilotCam","/PilotCam.20240830_124752604.jpg","BrowCam","/BrowCam.20240830_124752604.jpg","UserSelect","/UserSelect.20240830_124752604.jpg","","","-999.99","7.28","-999.99","-999.99","66d1bf78f9835f001a7ff833"
"2024-08-30T12:48:07.623Z","45.9166478","-130.0250170","ASNAP","","admin","","","","","","","","","","","","-1.32","-2.10","-1.4","-7.5","209.00","188.60","0.58","SciCam","/SciCam.20240830_124807623.jpg","PilotCam","/PilotCam.20240830_124807623.jpg","BrowCam","/BrowCam.20240830_124807623.jpg","UserSelect","/UserSelect.20240830_124807623.jpg","","","-999.99","7.24","-999.99","-999.99","66d1bf87f9835f001a7ff837"
