Date/Time (UTC),vehicleRealtimeNavData.latitude (ddeg),vehicleRealtimeNavData.longitude (ddeg),event_value,event_free_text,event_author,event_option.milestone,event_option.actions,event_option.filename,event_option.new_watchstander,event_option.event_comment,event_option.type,event_option.cabled_plug,event_option.dummy_plug,vehicleRealtimeNavData.local_x (meters),vehicleRealtimeNavData.local_y (meters),vehicleRealtimeNavData.roll (deg),vehicleRealtimeNavData.pitch (deg),vehicleRealtimeNavData.heading (deg),vehicleRealtimeNavData.depth (meters),vehicleRealtimeNavData.altitude (meters),vehicleRealtimeFramegrabberData.camera_name_1,vehicleRealtimeFramegrabberData.filename_1,vehicleRealtimeFramegrabberData.camera_name_2,vehicleRealtimeFramegrabberData.filename_2,vehicleRealtimeFramegrabberData.camera_name_3,vehicleRealtimeFramegrabberData.filename_3,vehicleRealtimeFramegrabberData.camera_name_4,vehicleRealtimeFramegrabberData.filename_4,vehicleReNavData.pitch (deg),vehicleReNavData.roll (deg),vehicleTemperatureProbe.probe1_temperature (degC),vehicleTemperatureProbe.probe2_temperature (degC),vehicleTemperatureProbe.probe3_temperature (degC),vehicleTemperatureProbe.probe4_temperature (degC),id
"2024-08-30T05:30:04.153Z","45.9166420","-130.0249907","ASNAP","","admin","","","","","","","","","0.72","-2.74","-1.9","-0.1","180.50","0.66","0.58","SciCam","/SciCam.20240830_053004153.jpg","PilotCam","/PilotCam.20240830_053004153.jpg","BrowCam","/BrowCam.20240830_053004153.jpg","UserSelect","/UserSelect.20240830_053004153.jpg","","","-999.99","16.72","-999.99","-999.99","66d158dcf9835f001a7fe3da"
"2024-08-30T05:30:19.172Z","45.9166420","-130.0249908","ASNAP","","admin","","","","","","","","","0.71","-2.74","-0.5","-1.2","180.50","0.60","0.58","SciCam","/SciCam.20240830_053019172.jpg","PilotCam","/PilotCam.20240830_053019172.jpg","BrowCam","/BrowCam.20240830_053019172.jpg","UserSelect","/UserSelect.20240830_053019172.jpg","","","-999.99","16.74","-999.99","-999.99","66d158ebf9835f001a7fe3de"
"2024-08-30T05:30:34.197Z","45.9166420","-130.0249907","ASNAP","","admin","","","","","","","","","0.72","-2.74","-1.0","-0.8","180.50","0.62","0.58","SciCam","/SciCam.20240830_053034197.jpg","PilotCam","/PilotCam.20240830_053034197.jpg","BrowCam","/BrowCam.20240830_053034197.jpg","UserSelect","/UserSelect.20240830_053034197.jpg","","","-999.99","16.71","-999.99","-999.99","66d158faf9835f001a7fe3e2"
"2024-08-30T05:30:49.228Z","45.9166421","-130.0249905","ASNAP","","admin","","","","","","","","","0.74","-2.73","-1.1","0.0","180.50","0.62","0.58","SciCam","/SciCam.20240830_053049228.jpg","PilotCam","/PilotCam.20240830_053049228.jpg","BrowCam","/BrowCam.20240830_053049228.jpg","UserSelect","/UserSelect.20240830_053049228.jpg","","","-999.99","16.73","-999.99","-999.99","66d15909f9835f001a7fe3e6"
"2024-08-30T05:31:04.261Z","45.9166421","-130.0249906","ASNAP","","admin","","","","","","","","","0.73","-2.73","-0.9","-0.7","180.50","0.60","0.58","SciCam","/SciCam.20240830_053104261.jpg","PilotCam","/PilotCam.20240830_053104261.jpg","BrowCam","/BrowCam.20240830_053104261.jpg","UserSelect","/UserSelect.20240830_053104261.jpg","","","-999.99","16.73","-999.99","-999.99","66d15918f9835f001a7fe3ea"
"2024-08-30T05:31:19.294Z","45.9166419","-130.0249910","ASNAP","","admin","","","","","","","","","0.70","-2.75","-0.6","-0.2","180.50","0.61","0.58","SciCam","/SciCam.20240830_053119294.jpg","PilotCam","/PilotCam.20240830_053119294.jpg","BrowCam","/BrowCam.20240830_053119294.jpg","UserSelect","/UserSelect.20240830_053119294.jpg","","","-999.99","16.71","-999.99","-999.99","66d15927f9835f001a7fe3ee"
"2024-08-30T05:31:34.326Z","45.9166421","-130.0249908","ASNAP","","admin","","","","","","","","","0.71","-2.73","-0.5","-0.7","180.50","0.61","0.58","SciCam","/SciCam.20240830_053134326.jpg","PilotCam","/PilotCam.20240830_053134326.jpg","BrowCam","/BrowCam.20240830_053134326.jpg","UserSelect","/UserSelect.20240830_053134326.jpg","","","-999.99","16.71","-999.99","-999.99","66d15936f9835f001a7fe3f2"
"2024-08-30T05:31:49.357Z","45.9166416","-130.0249916","ASNAP","","admin","","","","","","","","","0.65","-2.79","-0.2","-0.4","180.50","0.63","0.58","SciCam","/SciCam.20240830_053149357.jpg","PilotCam","/PilotCam.20240830_053149357.jpg","BrowCam","/BrowCam.20240830_053149357.jpg","UserSelect","/UserSelect.20240830_053149357.jpg","","","-999.99","16.69","-999.99","-999.99","66d15945f9835f001a7fe3f6"
"2024-08-30T05:32:04.381Z","45.9166418","-130.0249911","ASNAP","","admin","","","","","","","","","0.69","-2.76","-0.6","-0.3","180.50","0.64","0.58","SciCam","/SciCam.20240830_053204381.jpg","PilotCam","/PilotCam.20240830_053204381.jpg","BrowCam","/BrowCam.20240830_053204381.jpg","UserSelect","/UserSelect.20240830_053204381.jpg","","","-999.99","16.69","-999.99","-999.99","66d15954f9835f001a7fe3fa"
"2024-08-30T05:32:19.415Z","45.9166421","-130.0249910","ASNAP","","admin","","","","","","","","","0.70","-2.73","-0.8","-2.0","180.50","0.65","0.58","SciCam","/SciCam.20240830_053219415.jpg","PilotCam","/PilotCam.20240830_053219415.jpg","BrowCam","/BrowCam.20240830_053219415.jpg","UserSelect","/UserSelect.20240830_053219415.jpg","","","-999.99","16.66","-999.99","-999.99","66d15963f9835f001a7fe3fe"
"2024-08-30T05:32:34.450Z","45.9166422","-130.0249906","ASNAP","","admin","","","","","","","","","0.73","-2.72","-1.0","-0.7","180.50","0.67","0.58","SciCam","/SciCam.20240830_053234450.jpg","PilotCam","/PilotCam.20240830_053234450.jpg","BrowCam","/BrowCam.20240830_053234450.jpg","UserSelect","/UserSelect.20240830_053234450.jpg","","","-999.99","16.66","-999.99","-999.99","66d15972f9835f001a7fe402"
"2024-08-30T05:32:49.484Z","45.9166419","-130.0249906","ASNAP","","admin","","","","","","","","","0.73","-2.75","-1.5","0.0","180.50","0.71","0.58","SciCam","/SciCam.20240830_053249484.jpg","PilotCam","/PilotCam.20240830_053249484.jpg","BrowCam","/BrowCam.20240830_053249484.jpg","UserSelect","/UserSelect.20240830_053249484.jpg","","","-999.99","16.66","-999.99","-999.99","66d15981f9835f001a7fe406"
"2024-08-30T05:33:04.511Z","45.9166423","-130.0249902","ASNAP","","admin","","","","","","","","","0.76","-2.71","-0.9","-0.3","180.50","0.70","0.58","SciCam","/SciCam.20240830_053304511.jpg","PilotCam","/PilotCam.20240830_053304511.jpg","BrowCam","/BrowCam.20240830_053304511.jpg","UserSelect","/UserSelect.20240830_053304511.jpg","","","-999.99","16.65","-999.99","-999.99","66d15990f9835f001a7fe40a"
"2024-08-30T05:33:19.543Z","45.9166417","-130.0249912","ASNAP","","admin","","","","","","","","","0.68","-2.77","-1.3","-1.7","180.50","0.73","0.58","SciCam","/SciCam.20240830_053319543.jpg","PilotCam","/PilotCam.20240830_053319543.jpg","BrowCam","/BrowCam.20240830_053319543.jpg","UserSelect","/UserSelect.20240830_053319543.jpg","","","-999.99","16.63","-999.99","-999.99","66d1599ff9835f001a7fe40e"
"2024-08-30T05:33:34.564Z","45.9166422","-130.0249903","ASNAP","","admin","","","","","","","","","0.75","-2.72","-1.1","-1.1","180.50","0.72","0.58","SciCam","/SciCam.20240830_053334564.jpg","PilotCam","/PilotCam.20240830_053334564.jpg","BrowCam","/BrowCam.20240830_053334564.jpg","UserSelect","/UserSelect.20240830_053334564.jpg","","","-999.99","16.63","-999.99","-999.99","66d159aef9835f001a7fe412"
"2024-08-30T05:33:49.595Z","45.9166424","-130.0249902","ASNAP","","admin","","","","","","","","","0.76","-2.70","-0.7","0.1","180.50","0.73","0.58","SciCam","/SciCam.20240830_053349595.jpg","PilotCam","/PilotCam.20240830_053349595.jpg","BrowCam","/BrowCam.20240830_053349595.jpg","UserSelect","/UserSelect.20240830_053349595.jpg","","","-999.99","16.64","-999.99","-999.99","66d159bdf9835f001a7fe416"
"2024-08-30T05:34:04.614Z","45.9166423","-130.0249905","ASNAP","","admin","","","","","","","","","0.74","-2.71","-0.6","-1.0","180.50","0.72","0.58","SciCam","/SciCam.20240830_053404614.jpg","PilotCam","/PilotCam.20240830_053404614.jpg","BrowCam","/BrowCam.20240830_053404614.jpg","UserSelect","/UserSelect.20240830_053404614.jpg","","","-999.99","16.66","-999.99","-999.99","66d159ccf9835f001a7fe41a"
"2024-08-30T05:34:19.639Z","45.9166422","-130.0249905","ASNAP","","admin","","","","","","","","","0.74","-2.72","-0.7","-0.5","180.50","0.75","0.58","SciCam","/SciCam.20240830_053419639.jpg","PilotCam","/PilotCam.20240830_053419639.jpg","BrowCam","/BrowCam.20240830_053419639.jpg","UserSelect","/UserSelect.20240830_053419639.jpg","","","-999.99","16.66","-999.99","-999.99","66d159dbf9835f001a7fe41e"
"2024-08-30T05:34:34.669Z","45.9166565","-130.0250240","ASNAP","","admin","","","","","","","","","-1.86","-1.13","-0.2","-1.1","234.60","0.76","0.58","SciCam","/SciCam.20240830_053434669.jpg","PilotCam","/PilotCam.20240830_053434669.jpg","BrowCam","/BrowCam.20240830_053434669.jpg","UserSelect","/UserSelect.20240830_053434669.jpg","","","-999.99","16.66","-999.99","-999.99","66d159eaf9835f001a7fe422"
"2024-08-30T05:34:49.699Z","45.9166553","-130.0250236","ASNAP","","admin","","","","","","","","","-1.83","-1.26","-1.3","-0.4","231.68","0.81","0.58","SciCam","/SciCam.20240830_053449699.jpg","PilotCam","/PilotCam.20240830_053449699.jpg","BrowCam","/BrowCam.20240830_053449699.jpg","UserSelect","/UserSelect.20240830_053449699.jpg","","","-999.99","16.65","-999.99","-999.99","66d159f9f9835f001a7fe426"
"2024-08-30T05:35:04.730Z","45.9166536","-130.0250227","ASNAP","","admin","","","","","","","","","-1.76","-1.45","-1.4","-1.1","227.40","0.79","0.58","SciCam","/SciCam.20240830_053504730.jpg","PilotCam","/PilotCam.20240830_053504730.jpg","BrowCam","/BrowCam.20240830_053504730.jpg","UserSelect","/UserSelect.20240830_053504730.jpg","","","-999.99","16.67","-999.99","-999.99","66d15a08f9835f001a7fe42a"
"2024-08-30T05:35:19.754Z","45.9166531","-130.0250223","ASNAP","","admin","","","","","","","","","-1.73","-1.51","-0.5","-1.2","226.09","0.79","0.58","SciCam","/SciCam.20240830_053519754.jpg","PilotCam","/PilotCam.20240830_053519754.jpg","BrowCam","/BrowCam.20240830_053519754.jpg","UserSelect","/UserSelect.20240830_053519754.jpg","","","-999.99","16.64","-999.99","-999.99","66d15a17f9835f001a7fe42e"
"2024-08-30T05:35:34.785Z","45.9166531","-130.0250223","ASNAP","","admin","","","","","","","","","-1.73","-1.51","-1.2","-1.5","225.97","0.82","0.58","SciCam","/SciCam.20240830_053534785.jpg","PilotCam","/PilotCam.20240830_053534785.jpg","BrowCam","/BrowCam.20240830_053534785.jpg","UserSelect","/UserSelect.20240830_053534785.jpg","","","-999.99","16.66","-999.99","-999.99","66d15a26f9835f001a7fe432"
"2024-08-30T05:35:49.811Z","45.9166528","-130.0250222","ASNAP","","admin","","","","","","","","","-1.72","-1.54","-1.1","-0.2","225.39","0.84","0.58","SciCam","/SciCam.20240830_053549811.jpg","PilotCam","/PilotCam.20240830_053549811.jpg","BrowCam","/BrowCam.20240830_053549811.jpg","UserSelect","/UserSelect.20240830_053549811.jpg","","","-999.99","16.65","-999.99","-999.99","66d15a35f9835f001a7fe436"
"2024-08-30T05:36:04.836Z","45.9166528","-130.0250222","ASNAP","","admin","","","","","","","","","-1.72","-1.54","-0.5","-0.3","225.59","0.81","0.58","SciCam","/SciCam.20240830_053604836.jpg","PilotCam","/PilotCam.20240830_053604836.jpg","BrowCam","/BrowCam.20240830_053604836.jpg","UserSelect","/UserSelect.20240830_053604836.jpg","","","-999.99","16.64","-999.99","-999.99","66d15a44f9835f001a7fe43a"
"2024-08-30T05:36:19.868Z","45.9166529","-130.0250223","ASNAP","","admin","","","","","","","","","-1.73","-1.53","-0.7","0.3","225.74","0.85","0.58","SciCam","/SciCam.20240830_053619868.jpg","PilotCam","/PilotCam.20240830_053619868.jpg","BrowCam","/BrowCam.20240830_053619868.jpg","UserSelect","/UserSelect.20240830_053619868.jpg","","","-999.99","16.66","-999.99","-999.99","66d15a53f9835f001a7fe43e"
"2024-08-30T05:36:34.901Z","45.9166535","-130.0250226","ASNAP","","admin","","","","","","","","","-1.75","-1.46","-0.4","-1.0","227.38","0.82","0.58","SciCam","/SciCam.20240830_053634901.jpg","PilotCam","/PilotCam.20240830_053634901.jpg","BrowCam","/BrowCam.20240830_053634901.jpg","UserSelect","/UserSelect.20240830_053634901.jpg","","","-999.99","16.65","-999.99","-999.99","66d15a62f9835f001a7fe442"
"2024-08-30T05:36:49.933Z","45.9166535","-130.0250226","ASNAP","","admin","","","","","","","","","-1.75","-1.46","-0.9","-1.7","227.24","0.83","0.58","SciCam","/SciCam.20240830_053649933.jpg","PilotCam","/PilotCam.20240830_053649933.jpg","BrowCam","/BrowCam.20240830_053649933.jpg","UserSelect","/UserSelect.20240830_053649933.jpg","","","-999.99","16.67","-999.99","-999.99","66d15a71f9835f001a7fe446"
"2024-08-30T05:37:04.965Z","45.9166531","-130.0250223","ASNAP","","admin","","","","","","","","","-1.73","-1.51","-0.5","-1.0","226.13","0.85","0.58","SciCam","/SciCam.20240830_053704965.jpg","PilotCam","/PilotCam.20240830_053704965.jpg","BrowCam","/BrowCam.20240830_053704965.jpg","UserSelect","/UserSelect.20240830_053704965.jpg","","","-999.99","16.67","-999.99","-999.99","66d15a80f9835f001a7fe44a"
"2024-08-30T05:37:20.001Z","45.9166527","-130.0250222","ASNAP","","admin","","","","","","","","","-1.72","-1.55","-0.9","-0.1","225.24","0.86","0.58","SciCam","/SciCam.20240830_053720001.jpg","PilotCam","/PilotCam.20240830_053720001.jpg","BrowCam","/BrowCam.20240830_053720001.jpg","UserSelect","/UserSelect.20240830_053720001.jpg","","","-999.99","16.63","-999.99","-999.99","66d15a90f9835f001a7fe44e"
"2024-08-30T05:37:35.028Z","45.9166524","-130.0250218","ASNAP","","admin","","","","","","","","","-1.69","-1.59","0.4","-1.2","224.46","0.84","0.58","SciCam","/SciCam.20240830_053735028.jpg","PilotCam","/PilotCam.20240830_053735028.jpg","BrowCam","/BrowCam.20240830_053735028.jpg","UserSelect","/UserSelect.20240830_053735028.jpg","","","-999.99","16.66","-999.99","-999.99","66d15a9ff9835f001a7fe452"
"2024-08-30T05:37:50.060Z","45.9166523","-130.0250219","ASNAP","","admin","","","","","","","","","-1.70","-1.60","-0.8","-0.4","224.04","0.88","0.58","SciCam","/SciCam.20240830_053750060.jpg","PilotCam","/PilotCam.20240830_053750060.jpg","BrowCam","/BrowCam.20240830_053750060.jpg","UserSelect","/UserSelect.20240830_053750060.jpg","","","-999.99","16.67","-999.99","-999.99","66d15aaef9835f001a7fe456"
"2024-08-30T05:38:05.092Z","45.9166524","-130.0250219","ASNAP","","admin","","","","","","","","","-1.70","-1.59","-0.9","-0.4","224.35","0.87","0.58","SciCam","/SciCam.20240830_053805092.jpg","PilotCam","/PilotCam.20240830_053805092.jpg","BrowCam","/BrowCam.20240830_053805092.jpg","UserSelect","/UserSelect.20240830_053805092.jpg","","","-999.99","16.65","-999.99","-999.99","66d15abdf9835f001a7fe45a"
"2024-08-30T05:38:20.123Z","45.9166534","-130.0250224","ASNAP","","admin","","","","","","","","","-1.74","-1.48","-0.8","-1.9","226.61","0.85","0.58","SciCam","/SciCam.20240830_053820123.jpg","PilotCam","/PilotCam.20240830_053820123.jpg","BrowCam","/BrowCam.20240830_053820123.jpg","UserSelect","/UserSelect.20240830_053820123.jpg","","","-999.99","16.63","-999.99","-999.99","66d15accf9835f001a7fe45e"
"2024-08-30T05:38:35.155Z","45.9166534","-130.0250226","ASNAP","","admin","","","","","","","","","-1.75","-1.47","-0.9","-1.2","226.88","0.88","0.58","SciCam","/SciCam.20240830_053835155.jpg","PilotCam","/PilotCam.20240830_053835155.jpg","BrowCam","/BrowCam.20240830_053835155.jpg","UserSelect","/UserSelect.20240830_053835155.jpg","","","-999.99","16.67","-999.99","-999.99","66d15adbf9835f001a7fe462"
"2024-08-30T05:41:22.528Z","45.9166910","-130.0250099","Name","Victoria","guest","","","","","","","","","-0.77","2.70","-1.7","-0.8","324.78","0.94","0.58","SciCam","/SciCam.20240830_054122528.jpg","PilotCam","/PilotCam.20240830_054122528.jpg","BrowCam","/BrowCam.20240830_054122528.jpg","UserSelect","/UserSelect.20240830_054122528.jpg","","","-999.99","16.65","-999.99","-999.99","66d15b82f9835f001a7fe466"
"2024-08-30T05:42:18.154Z","45.9166907","-130.0250102","VEHICLE","","guest","Jason off deck","","","","","","","","-0.79","2.67","-2.3","-2.5","323.90","0.97","0.58","SciCam","/SciCam.20240830_054218154.jpg","PilotCam","/PilotCam.20240830_054218154.jpg","BrowCam","/BrowCam.20240830_054218154.jpg","UserSelect","/UserSelect.20240830_054218154.jpg","","","-999.99","16.61","-999.99","-999.99","66d15bbaf9835f001a7fe46a"
"2024-08-30T05:42:26.603Z","45.9166867","-130.0250166","VEHICLE","","guest","Jason in water","","","","","","","","-1.29","2.23","-1.2","-2.4","307.25","0.93","0.58","SciCam","/SciCam.20240830_054226603.jpg","PilotCam","/PilotCam.20240830_054226603.jpg","BrowCam","/BrowCam.20240830_054226603.jpg","UserSelect","/UserSelect.20240830_054226603.jpg","","","-999.99","16.64","-999.99","-999.99","66d15bc2f9835f001a7fe46e"
"2024-08-30T05:44:54.590Z","45.9166859","-130.0250168","ROV Actions"," ","guest","","First Football on","","","","","","","-1.30","2.14","-0.9","-6.6","306.00","7.51","0.58","SciCam","/SciCam.20240830_054454590.jpg","PilotCam","/PilotCam.20240830_054454590.jpg","BrowCam","/BrowCam.20240830_054454590.jpg","UserSelect","/UserSelect.20240830_054454590.jpg","","","-999.99","18.26","-999.99","-999.99","66d15c56f9835f001a7fe476"
"2024-08-30T05:49:36.160Z","45.9166470","-130.0250170","ASNAP","","admin","","","","","","","","","-1.32","-2.19","-1.4","-5.9","243.89","25.88","0.58","SciCam","/SciCam.20240830_054936160.jpg","PilotCam","/PilotCam.20240830_054936160.jpg","BrowCam","/BrowCam.20240830_054936160.jpg","UserSelect","/UserSelect.20240830_054936160.jpg","","","-999.99","17.81","-999.99","-999.99","66d15d70f9835f001a7fe47e"
"2024-08-30T05:49:41.973Z","45.9166469","-130.0250169","ROV Actions"," ","guest","","Last Football on","","","","","","","-1.31","-2.20","-1.6","-4.3","243.73","26.30","0.58","SciCam","/SciCam.20240830_054941973.jpg","PilotCam","/PilotCam.20240830_054941973.jpg","BrowCam","/BrowCam.20240830_054941973.jpg","UserSelect","/UserSelect.20240830_054941973.jpg","","","-999.99","17.72","-999.99","-999.99","66d15d75f9835f001a7fe482"
"2024-08-30T05:49:51.185Z","45.9166463","-130.0250165","ASNAP","","admin","","","","","","","","","-1.28","-2.26","-2.5","-4.8","242.95","30.19","0.58","SciCam","/SciCam.20240830_054951185.jpg","PilotCam","/PilotCam.20240830_054951185.jpg","BrowCam","/BrowCam.20240830_054951185.jpg","UserSelect","/UserSelect.20240830_054951185.jpg","","","-999.99","17.93","-999.99","-999.99","66d15d7ff9835f001a7fe486"
"2024-08-30T05:50:06.216Z","45.9166469","-130.0250170","ASNAP","","admin","","","","","","","","","-1.32","-2.20","-1.5","-4.8","243.79","37.15","0.58","SciCam","/SciCam.20240830_055006216.jpg","PilotCam","/PilotCam.20240830_055006216.jpg","BrowCam","/BrowCam.20240830_055006216.jpg","UserSelect","/UserSelect.20240830_055006216.jpg","","","-999.99","17.04","-999.99","-999.99","66d15d8ef9835f001a7fe48a"
"2024-08-30T05:50:21.249Z","45.9166560","-130.0250238","ASNAP","","admin","","","","","","","","","-1.85","-1.19","-1.9","-5.7","273.09","44.00","0.58","SciCam","/SciCam.20240830_055021249.jpg","PilotCam","/PilotCam.20240830_055021249.jpg","BrowCam","/BrowCam.20240830_055021249.jpg","UserSelect","/UserSelect.20240830_055021249.jpg","","","-999.99","15.37","-999.99","-999.99","66d15d9df9835f001a7fe48e"
"2024-08-30T05:50:36.282Z","45.9166544","-130.0250231","ASNAP","","admin","","","","","","","","","-1.79","-1.36","-1.8","-4.7","270.19","49.49","0.58","SciCam","/SciCam.20240830_055036282.jpg","PilotCam","/PilotCam.20240830_055036282.jpg","BrowCam","/BrowCam.20240830_055036282.jpg","UserSelect","/UserSelect.20240830_055036282.jpg","","","-999.99","14.16","-999.99","-999.99","66d15dacf9835f001a7fe492"
"2024-08-30T05:50:51.316Z","45.9166545","-130.0250232","ASNAP","","admin","","","","","","","","","-1.80","-1.35","-1.9","-4.7","270.40","55.04","0.58","SciCam","/SciCam.20240830_055051316.jpg","PilotCam","/PilotCam.20240830_055051316.jpg","BrowCam","/BrowCam.20240830_055051316.jpg","UserSelect","/UserSelect.20240830_055051316.jpg","","","-999.99","13.11","-999.99","-999.99","66d15dbbf9835f001a7fe496"
"2024-08-30T05:51:06.349Z","45.9166538","-130.0250227","ASNAP","","admin","","","","","","","","","-1.76","-1.43","-1.5","-4.3","268.89","61.50","0.58","SciCam","/SciCam.20240830_055106349.jpg","PilotCam","/PilotCam.20240830_055106349.jpg","BrowCam","/BrowCam.20240830_055106349.jpg","UserSelect","/UserSelect.20240830_055106349.jpg","","","-999.99","12.14","-999.99","-999.99","66d15dcaf9835f001a7fe49a"
"2024-08-30T05:51:20.000Z","","","SulisCam","","admin","","","sulis_20240830055120.jpg","","","","","","","","","","","","","","","","","","","","","-2.378","-5.282","","","","","66d4c77cf9835f001a80b23b"
"2024-08-30T05:51:21.382Z","45.9166497","-130.0250197","ASNAP","","admin","","","","","","","","","-1.53","-1.89","-1.4","-5.1","253.12","68.85","0.58","SciCam","/SciCam.20240830_055121382.jpg","PilotCam","/PilotCam.20240830_055121382.jpg","BrowCam","/BrowCam.20240830_055121382.jpg","UserSelect","/UserSelect.20240830_055121382.jpg","","","-999.99","11.47","-999.99","-999.99","66d15dd9f9835f001a7fe49e"
"2024-08-30T05:51:36.414Z","45.9166503","-130.0250204","ASNAP","","admin","","","","","","","","","-1.58","-1.82","-1.4","-5.1","255.54","76.40","0.58","SciCam","/SciCam.20240830_055136414.jpg","PilotCam","/PilotCam.20240830_055136414.jpg","BrowCam","/BrowCam.20240830_055136414.jpg","UserSelect","/UserSelect.20240830_055136414.jpg","","","-999.99","10.72","-999.99","-999.99","66d15de8f9835f001a7fe4a2"
"2024-08-30T05:51:51.442Z","45.9166500","-130.0250201","ASNAP","","admin","","","","","","","","","-1.56","-1.85","-1.3","-5.4","255.02","83.33","0.58","SciCam","/SciCam.20240830_055151442.jpg","PilotCam","/PilotCam.20240830_055151442.jpg","BrowCam","/BrowCam.20240830_055151442.jpg","UserSelect","/UserSelect.20240830_055151442.jpg","","","-999.99","10.22","-999.99","-999.99","66d15df7f9835f001a7fe4a6"
"2024-08-30T05:52:06.474Z","45.9166501","-130.0250202","ASNAP","","admin","","","","","","","","","-1.57","-1.84","-1.5","-5.4","255.47","89.84","0.58","SciCam","/SciCam.20240830_055206474.jpg","PilotCam","/PilotCam.20240830_055206474.jpg","BrowCam","/BrowCam.20240830_055206474.jpg","UserSelect","/UserSelect.20240830_055206474.jpg","","","-999.99","9.79","-999.99","-999.99","66d15e06f9835f001a7fe4aa"
"2024-08-30T05:52:21.506Z","45.9166499","-130.0250200","ASNAP","","admin","","","","","","","","","-1.55","-1.86","-1.7","-5.5","255.20","95.82","0.58","SciCam","/SciCam.20240830_055221506.jpg","PilotCam","/PilotCam.20240830_055221506.jpg","BrowCam","/BrowCam.20240830_055221506.jpg","UserSelect","/UserSelect.20240830_055221506.jpg","","","-999.99","9.13","-999.99","-999.99","66d15e15f9835f001a7fe4ae"
"2024-08-30T05:52:36.540Z","45.9166503","-130.0250202","ASNAP","","admin","","","","","","","","","-1.57","-1.82","-1.2","-5.3","254.96","101.79","0.58","SciCam","/SciCam.20240830_055236540.jpg","PilotCam","/PilotCam.20240830_055236540.jpg","BrowCam","/BrowCam.20240830_055236540.jpg","UserSelect","/UserSelect.20240830_055236540.jpg","","","-999.99","8.88","-999.99","-999.99","66d15e24f9835f001a7fe4b2"
"2024-08-30T05:52:51.563Z","45.9166760","-130.0250238","ASNAP","","admin","","","","","","","","","-1.85","1.04","-1.5","-5.2","255.35","108.04","0.58","SciCam","/SciCam.20240830_055251563.jpg","PilotCam","/PilotCam.20240830_055251563.jpg","BrowCam","/BrowCam.20240830_055251563.jpg","UserSelect","/UserSelect.20240830_055251563.jpg","","","-999.99","8.58","-999.99","-999.99","66d15e33f9835f001a7fe4b6"
"2024-08-30T05:53:06.594Z","45.9166762","-130.0250238","ASNAP","","admin","","","","","","","","","-1.85","1.06","-1.4","-5.2","255.03","114.36","0.58","SciCam","/SciCam.20240830_055306594.jpg","PilotCam","/PilotCam.20240830_055306594.jpg","BrowCam","/BrowCam.20240830_055306594.jpg","UserSelect","/UserSelect.20240830_055306594.jpg","","","-999.99","8.33","-999.99","-999.99","66d15e42f9835f001a7fe4ba"
"2024-08-30T05:53:21.623Z","45.9166760","-130.0250238","ASNAP","","admin","","","","","","","","","-1.85","1.04","-1.4","-5.8","255.01","120.74","0.58","SciCam","/SciCam.20240830_055321623.jpg","PilotCam","/PilotCam.20240830_055321623.jpg","BrowCam","/BrowCam.20240830_055321623.jpg","UserSelect","/UserSelect.20240830_055321623.jpg","","","-999.99","8.20","-999.99","-999.99","66d15e51f9835f001a7fe4be"
"2024-08-30T05:53:36.655Z","45.9166757","-130.0250236","ASNAP","","admin","","","","","","","","","-1.83","1.00","0.1","-8.1","277.90","125.73","0.58","SciCam","/SciCam.20240830_055336655.jpg","PilotCam","/PilotCam.20240830_055336655.jpg","BrowCam","/BrowCam.20240830_055336655.jpg","UserSelect","/UserSelect.20240830_055336655.jpg","","","-999.99","8.15","-999.99","-999.99","66d15e60f9835f001a7fe4c2"
"2024-08-30T05:53:51.686Z","45.9166856","-130.0250173","ASNAP","","admin","","","","","","","","","-1.34","2.10","-1.2","-5.6","303.44","124.58","0.58","SciCam","/SciCam.20240830_055351686.jpg","PilotCam","/PilotCam.20240830_055351686.jpg","BrowCam","/BrowCam.20240830_055351686.jpg","UserSelect","/UserSelect.20240830_055351686.jpg","","","-999.99","7.99","-999.99","-999.99","66d15e6ff9835f001a7fe4c6"
"2024-08-30T05:54:06.705Z","45.9166840","-130.0250188","ASNAP","","admin","","","","","","","","","-1.46","1.93","-1.0","-6.0","299.55","124.89","0.58","SciCam","/SciCam.20240830_055406705.jpg","PilotCam","/PilotCam.20240830_055406705.jpg","BrowCam","/BrowCam.20240830_055406705.jpg","UserSelect","/UserSelect.20240830_055406705.jpg","","","-999.99","8.00","-999.99","-999.99","66d15e7ef9835f001a7fe4ca"
"2024-08-30T05:54:10.618Z","45.9166842","-130.0250186","ROV Actions"," ","guest","","Transponder on","","","","","","","-1.44","1.95","-1.0","-5.8","300.27","124.89","0.58","SciCam","/SciCam.20240830_055410618.jpg","PilotCam","/PilotCam.20240830_055410618.jpg","BrowCam","/BrowCam.20240830_055410618.jpg","UserSelect","/UserSelect.20240830_055410618.jpg","","","-999.99","7.92","-999.99","-999.99","66d15e82f9835f001a7fe4ce"
"2024-08-30T05:54:21.738Z","45.9166842","-130.0250186","ASNAP","","admin","","","","","","","","","-1.44","1.95","-1.2","-6.0","300.17","124.78","0.58","SciCam","/SciCam.20240830_055421738.jpg","PilotCam","/PilotCam.20240830_055421738.jpg","BrowCam","/BrowCam.20240830_055421738.jpg","UserSelect","/UserSelect.20240830_055421738.jpg","","","-999.99","7.97","-999.99","-999.99","66d15e8df9835f001a7fe4d2"
"2024-08-30T05:54:36.769Z","45.9166842","-130.0250187","ASNAP","","admin","","","","","","","","","-1.45","1.95","-1.1","-5.7","300.06","124.86","0.58","SciCam","/SciCam.20240830_055436769.jpg","PilotCam","/PilotCam.20240830_055436769.jpg","BrowCam","/BrowCam.20240830_055436769.jpg","UserSelect","/UserSelect.20240830_055436769.jpg","","","-999.99","8.00","-999.99","-999.99","66d15e9cf9835f001a7fe4d6"
"2024-08-30T05:54:51.797Z","45.9166840","-130.0250189","ASNAP","","admin","","","","","","","","","-1.47","1.93","-1.2","-5.4","299.48","126.24","0.58","SciCam","/SciCam.20240830_055451797.jpg","PilotCam","/PilotCam.20240830_055451797.jpg","BrowCam","/BrowCam.20240830_055451797.jpg","UserSelect","/UserSelect.20240830_055451797.jpg","","","-999.99","7.98","-999.99","-999.99","66d15eabf9835f001a7fe4da"
"2024-08-30T05:55:06.829Z","45.9166839","-130.0250189","ASNAP","","admin","","","","","","","","","-1.47","1.92","-0.9","-5.4","299.34","132.65","0.58","SciCam","/SciCam.20240830_055506829.jpg","PilotCam","/PilotCam.20240830_055506829.jpg","BrowCam","/BrowCam.20240830_055506829.jpg","UserSelect","/UserSelect.20240830_055506829.jpg","","","-999.99","7.91","-999.99","-999.99","66d15ebaf9835f001a7fe4de"
"2024-08-30T05:55:21.863Z","45.9166840","-130.0250188","ASNAP","","admin","","","","","","","","","-1.46","1.93","-1.3","-5.6","299.58","140.13","0.58","SciCam","/SciCam.20240830_055521863.jpg","PilotCam","/PilotCam.20240830_055521863.jpg","BrowCam","/BrowCam.20240830_055521863.jpg","UserSelect","/UserSelect.20240830_055521863.jpg","","","-999.99","7.92","-999.99","-999.99","66d15ec9f9835f001a7fe4e2"
"2024-08-30T05:55:36.895Z","45.9166843","-130.0250183","ASNAP","","admin","","","","","","","","","-1.42","1.96","-2.1","-7.7","300.37","146.44","0.58","SciCam","/SciCam.20240830_055536895.jpg","PilotCam","/PilotCam.20240830_055536895.jpg","BrowCam","/BrowCam.20240830_055536895.jpg","UserSelect","/UserSelect.20240830_055536895.jpg","","","-999.99","7.80","-999.99","-999.99","66d15ed8f9835f001a7fe4e6"
"2024-08-30T05:55:51.929Z","45.9166841","-130.0250186","ASNAP","","admin","","","","","","","","","-1.44","1.94","-1.1","-6.3","300.12","145.45","0.58","SciCam","/SciCam.20240830_055551929.jpg","PilotCam","/PilotCam.20240830_055551929.jpg","BrowCam","/BrowCam.20240830_055551929.jpg","UserSelect","/UserSelect.20240830_055551929.jpg","","","-999.99","7.63","-999.99","-999.99","66d15ee7f9835f001a7fe4ea"
"2024-08-30T05:56:06.959Z","45.9166841","-130.0250187","ASNAP","","admin","","","","","","","","","-1.45","1.94","-1.0","-6.0","299.86","145.20","0.58","SciCam","/SciCam.20240830_055606959.jpg","PilotCam","/PilotCam.20240830_055606959.jpg","BrowCam","/BrowCam.20240830_055606959.jpg","UserSelect","/UserSelect.20240830_055606959.jpg","","","-999.99","7.69","-999.99","-999.99","66d15ef6f9835f001a7fe4ee"
"2024-08-30T05:56:21.992Z","45.9166840","-130.0250188","ASNAP","","admin","","","","","","","","","-1.46","1.93","-1.1","-5.9","299.68","145.56","0.58","SciCam","/SciCam.20240830_055621992.jpg","PilotCam","/PilotCam.20240830_055621992.jpg","BrowCam","/BrowCam.20240830_055621992.jpg","UserSelect","/UserSelect.20240830_055621992.jpg","","","-999.99","7.69","-999.99","-999.99","66d15f05f9835f001a7fe4f2"
"2024-08-30T05:56:30.039Z","45.9166840","-130.0250188","VEHICLE","descending to 2600 m","guest","Other","","","","","","","","-1.46","1.93","-1.0","-5.6","299.56","147.09","0.58","SciCam","/SciCam.20240830_055630039.jpg","PilotCam","/PilotCam.20240830_055630039.jpg","BrowCam","/BrowCam.20240830_055630039.jpg","UserSelect","/UserSelect.20240830_055630039.jpg","","","-999.99","7.66","-999.99","-999.99","66d15f0ef9835f001a7fe4f6"
"2024-08-30T05:56:37.017Z","45.9166841","-130.0250188","ASNAP","","admin","","","","","","","","","-1.46","1.94","-1.1","-5.9","299.74","148.70","0.58","SciCam","/SciCam.20240830_055637017.jpg","PilotCam","/PilotCam.20240830_055637017.jpg","BrowCam","/BrowCam.20240830_055637017.jpg","UserSelect","/UserSelect.20240830_055637017.jpg","","","-999.99","7.59","-999.99","-999.99","66d15f15f9835f001a7fe4fa"
"2024-08-30T05:56:52.045Z","45.9166840","-130.0250188","ASNAP","","admin","","","","","","","","","-1.46","1.93","-0.9","-5.9","299.60","153.85","0.58","SciCam","/SciCam.20240830_055652045.jpg","PilotCam","/PilotCam.20240830_055652045.jpg","BrowCam","/BrowCam.20240830_055652045.jpg","UserSelect","/UserSelect.20240830_055652045.jpg","","","-999.99","7.62","-999.99","-999.99","66d15f24f9835f001a7fe4fe"
"2024-08-30T05:57:07.077Z","45.9166840","-130.0250188","ASNAP","","admin","","","","","","","","","-1.46","1.93","-1.1","-5.8","299.62","159.34","0.58","SciCam","/SciCam.20240830_055707077.jpg","PilotCam","/PilotCam.20240830_055707077.jpg","BrowCam","/BrowCam.20240830_055707077.jpg","UserSelect","/UserSelect.20240830_055707077.jpg","","","-999.99","7.45","-999.99","-999.99","66d15f33f9835f001a7fe502"
"2024-08-30T05:57:22.111Z","45.9166840","-130.0250189","ASNAP","","admin","","","","","","","","","-1.47","1.93","-1.1","-5.2","299.48","165.14","0.58","SciCam","/SciCam.20240830_055722111.jpg","PilotCam","/PilotCam.20240830_055722111.jpg","BrowCam","/BrowCam.20240830_055722111.jpg","UserSelect","/UserSelect.20240830_055722111.jpg","","","-999.99","7.43","-999.99","-999.99","66d15f42f9835f001a7fe506"
"2024-08-30T05:57:37.138Z","45.9166853","-130.0250177","ASNAP","","admin","","","","","","","","","-1.37","2.07","-1.3","-5.1","303.36","172.69","0.58","SciCam","/SciCam.20240830_055737138.jpg","PilotCam","/PilotCam.20240830_055737138.jpg","BrowCam","/BrowCam.20240830_055737138.jpg","UserSelect","/UserSelect.20240830_055737138.jpg","","","-999.99","7.45","-999.99","-999.99","66d15f51f9835f001a7fe50a"
"2024-08-30T05:57:52.170Z","45.9166877","-130.0250148","ASNAP","","admin","","","","","","","","","-1.15","2.34","-1.3","-5.3","311.85","180.43","0.58","SciCam","/SciCam.20240830_055752170.jpg","PilotCam","/PilotCam.20240830_055752170.jpg","BrowCam","/BrowCam.20240830_055752170.jpg","UserSelect","/UserSelect.20240830_055752170.jpg","","","-999.99","7.25","-999.99","-999.99","66d15f60f9835f001a7fe50e"
"2024-08-30T05:58:07.204Z","45.9166878","-130.0250147","ASNAP","","admin","","","","","","","","","-1.14","2.35","-1.2","-5.2","312.13","188.27","0.58","SciCam","/SciCam.20240830_055807204.jpg","PilotCam","/PilotCam.20240830_055807204.jpg","BrowCam","/BrowCam.20240830_055807204.jpg","UserSelect","/UserSelect.20240830_055807204.jpg","","","-999.99","7.30","-999.99","-999.99","66d15f6ff9835f001a7fe512"
"2024-08-30T05:58:22.223Z","45.9166878","-130.0250147","ASNAP","","admin","","","","","","","","","-1.14","2.35","-1.4","-5.2","312.21","196.09","0.58","SciCam","/SciCam.20240830_055822223.jpg","PilotCam","/PilotCam.20240830_055822223.jpg","BrowCam","/BrowCam.20240830_055822223.jpg","UserSelect","/UserSelect.20240830_055822223.jpg","","","-999.99","7.16","-999.99","-999.99","66d15f7ef9835f001a7fe516"
"2024-08-30T05:58:37.249Z","45.9166878","-130.0250147","ASNAP","","admin","","","","","","","","","-1.14","2.35","-1.3","-4.9","311.98","203.90","0.58","SciCam","/SciCam.20240830_055837249.jpg","PilotCam","/PilotCam.20240830_055837249.jpg","BrowCam","/BrowCam.20240830_055837249.jpg","UserSelect","/UserSelect.20240830_055837249.jpg","","","-999.99","7.11","-999.99","-999.99","66d15f8df9835f001a7fe51a"
"2024-08-30T05:58:52.281Z","45.9166877","-130.0250147","ASNAP","","admin","","","","","","","","","-1.14","2.34","-1.3","-5.2","312.01","211.87","0.58","SciCam","/SciCam.20240830_055852281.jpg","PilotCam","/PilotCam.20240830_055852281.jpg","BrowCam","/BrowCam.20240830_055852281.jpg","UserSelect","/UserSelect.20240830_055852281.jpg","","","-999.99","6.90","-999.99","-999.99","66d15f9cf9835f001a7fe51e"
"2024-08-30T05:59:07.312Z","45.9166878","-130.0250147","ASNAP","","admin","","","","","","","","","-1.14","2.35","-1.3","-4.8","312.14","219.96","0.58","SciCam","/SciCam.20240830_055907312.jpg","PilotCam","/PilotCam.20240830_055907312.jpg","BrowCam","/BrowCam.20240830_055907312.jpg","UserSelect","/UserSelect.20240830_055907312.jpg","","","-999.99","6.84","-999.99","-999.99","66d15fabf9835f001a7fe522"
"2024-08-30T05:59:22.344Z","45.9166877","-130.0250147","ASNAP","","admin","","","","","","","","","-1.14","2.34","-1.6","-5.7","312.09","227.90","0.58","SciCam","/SciCam.20240830_055922344.jpg","PilotCam","/PilotCam.20240830_055922344.jpg","BrowCam","/BrowCam.20240830_055922344.jpg","UserSelect","/UserSelect.20240830_055922344.jpg","","","-999.99","7.03","-999.99","-999.99","66d15fbaf9835f001a7fe526"
"2024-08-30T05:59:37.369Z","45.9166878","-130.0250146","ASNAP","","admin","","","","","","","","","-1.13","2.35","-1.3","-5.5","312.50","235.68","0.58","SciCam","/SciCam.20240830_055937369.jpg","PilotCam","/PilotCam.20240830_055937369.jpg","BrowCam","/BrowCam.20240830_055937369.jpg","UserSelect","/UserSelect.20240830_055937369.jpg","","","-999.99","6.78","-999.99","-999.99","66d15fc9f9835f001a7fe52a"
"2024-08-30T05:59:52.400Z","45.9166877","-130.0250146","ASNAP","","admin","","","","","","","","","-1.13","2.34","-1.4","-5.7","312.09","243.36","0.58","SciCam","/SciCam.20240830_055952400.jpg","PilotCam","/PilotCam.20240830_055952400.jpg","BrowCam","/BrowCam.20240830_055952400.jpg","UserSelect","/UserSelect.20240830_055952400.jpg","","","-999.99","6.67","-999.99","-999.99","66d15fd8f9835f001a7fe52e"
"2024-08-30T06:00:07.434Z","45.9166877","-130.0250147","ASNAP","","admin","","","","","","","","","-1.14","2.34","-1.2","-5.9","312.02","250.81","0.58","SciCam","/SciCam.20240830_060007434.jpg","PilotCam","/PilotCam.20240830_060007434.jpg","BrowCam","/BrowCam.20240830_060007434.jpg","UserSelect","/UserSelect.20240830_060007434.jpg","","","-999.99","6.65","-999.99","-999.99","66d15fe7f9835f001a7fe532"
"2024-08-30T06:00:22.468Z","45.9166877","-130.0250146","ASNAP","","admin","","","","","","","","","-1.13","2.34","-1.2","-6.0","312.21","257.96","0.58","SciCam","/SciCam.20240830_060022468.jpg","PilotCam","/PilotCam.20240830_060022468.jpg","BrowCam","/BrowCam.20240830_060022468.jpg","UserSelect","/UserSelect.20240830_060022468.jpg","","","-999.99","6.70","-999.99","-999.99","66d15ff6f9835f001a7fe536"
"2024-08-30T06:00:37.502Z","45.9166877","-130.0250146","ASNAP","","admin","","","","","","","","","-1.13","2.34","-1.2","-6.0","312.20","264.70","0.58","SciCam","/SciCam.20240830_060037502.jpg","PilotCam","/PilotCam.20240830_060037502.jpg","BrowCam","/BrowCam.20240830_060037502.jpg","UserSelect","/UserSelect.20240830_060037502.jpg","","","-999.99","6.47","-999.99","-999.99","66d16005f9835f001a7fe53a"
"2024-08-30T06:00:52.535Z","45.9166877","-130.0250147","ASNAP","","admin","","","","","","","","","-1.14","2.34","-0.7","-5.8","312.13","272.03","0.58","SciCam","/SciCam.20240830_060052535.jpg","PilotCam","/PilotCam.20240830_060052535.jpg","BrowCam","/BrowCam.20240830_060052535.jpg","UserSelect","/UserSelect.20240830_060052535.jpg","","","-999.99","6.40","-999.99","-999.99","66d16014f9835f001a7fe53e"
"2024-08-30T06:01:07.565Z","45.9166877","-130.0250147","ASNAP","","admin","","","","","","","","","-1.14","2.34","-1.0","-5.6","312.15","279.63","0.58","SciCam","/SciCam.20240830_060107565.jpg","PilotCam","/PilotCam.20240830_060107565.jpg","BrowCam","/BrowCam.20240830_060107565.jpg","UserSelect","/UserSelect.20240830_060107565.jpg","","","-999.99","6.30","-999.99","-999.99","66d16023f9835f001a7fe542"
"2024-08-30T06:01:22.590Z","45.9166878","-130.0250146","ASNAP","","admin","","","","","","","","","-1.13","2.35","-1.5","-5.4","312.24","287.56","0.58","SciCam","/SciCam.20240830_060122590.jpg","PilotCam","/PilotCam.20240830_060122590.jpg","BrowCam","/BrowCam.20240830_060122590.jpg","UserSelect","/UserSelect.20240830_060122590.jpg","","","-999.99","5.97","-999.99","-999.99","66d16032f9835f001a7fe546"
"2024-08-30T06:01:37.608Z","45.9166878","-130.0250147","ASNAP","","admin","","","","","","","","","-1.14","2.35","-1.2","-5.1","312.19","295.44","0.58","SciCam","/SciCam.20240830_060137608.jpg","PilotCam","/PilotCam.20240830_060137608.jpg","BrowCam","/BrowCam.20240830_060137608.jpg","UserSelect","/UserSelect.20240830_060137608.jpg","","","-999.99","5.81","-999.99","-999.99","66d16041f9835f001a7fe54a"
"2024-08-30T06:01:52.643Z","45.9166877","-130.0250147","ASNAP","","admin","","","","","","","","","-1.14","2.34","-1.0","-5.2","312.06","303.40","0.58","SciCam","/SciCam.20240830_060152643.jpg","PilotCam","/PilotCam.20240830_060152643.jpg","BrowCam","/BrowCam.20240830_060152643.jpg","UserSelect","/UserSelect.20240830_060152643.jpg","","","-999.99","6.00","-999.99","-999.99","66d16050f9835f001a7fe54e"
"2024-08-30T06:02:07.665Z","45.9166877","-130.0250148","ASNAP","","admin","","","","","","","","","-1.15","2.34","-0.6","-5.1","311.92","311.31","0.58","SciCam","/SciCam.20240830_060207665.jpg","PilotCam","/PilotCam.20240830_060207665.jpg","BrowCam","/BrowCam.20240830_060207665.jpg","UserSelect","/UserSelect.20240830_060207665.jpg","","","-999.99","5.78","-999.99","-999.99","66d1605ff9835f001a7fe552"
"2024-08-30T06:02:22.698Z","45.9166877","-130.0250148","ASNAP","","admin","","","","","","","","","-1.15","2.34","-1.0","-5.2","311.87","319.19","0.58","SciCam","/SciCam.20240830_060222698.jpg","PilotCam","/PilotCam.20240830_060222698.jpg","BrowCam","/BrowCam.20240830_060222698.jpg","UserSelect","/UserSelect.20240830_060222698.jpg","","","-999.99","5.79","-999.99","-999.99","66d1606ef9835f001a7fe556"
"2024-08-30T06:02:37.717Z","45.9166877","-130.0250147","ASNAP","","admin","","","","","","","","","-1.14","2.34","-1.2","-5.2","311.96","327.23","0.58","SciCam","/SciCam.20240830_060237717.jpg","PilotCam","/PilotCam.20240830_060237717.jpg","BrowCam","/BrowCam.20240830_060237717.jpg","UserSelect","/UserSelect.20240830_060237717.jpg","","","-999.99","5.79","-999.99","-999.99","66d1607df9835f001a7fe55a"
"2024-08-30T06:02:49.763Z","45.9166879","-130.0250146","WATCH_CHANGE","Pilot","guest","","","","Chris","","","","","-1.13","2.36","-1.2","-5.2","312.48","333.45","0.58","SciCam","/SciCam.20240830_060249763.jpg","PilotCam","/PilotCam.20240830_060249763.jpg","BrowCam","/BrowCam.20240830_060249763.jpg","UserSelect","/UserSelect.20240830_060249763.jpg","","","-999.99","5.58","-999.99","-999.99","66d16089f9835f001a7fe55e"
"2024-08-30T06:02:52.751Z","45.9166878","-130.0250146","ASNAP","","admin","","","","","","","","","-1.13","2.35","-1.2","-5.2","312.36","335.03","0.58","SciCam","/SciCam.20240830_060252751.jpg","PilotCam","/PilotCam.20240830_060252751.jpg","BrowCam","/BrowCam.20240830_060252751.jpg","UserSelect","/UserSelect.20240830_060252751.jpg","","","-999.99","5.61","-999.99","-999.99","66d1608cf9835f001a7fe562"
"2024-08-30T06:03:07.783Z","45.9166877","-130.0250147","ASNAP","","admin","","","","","","","","","-1.14","2.34","-1.2","-5.1","312.06","342.84","0.58","SciCam","/SciCam.20240830_060307783.jpg","PilotCam","/PilotCam.20240830_060307783.jpg","BrowCam","/BrowCam.20240830_060307783.jpg","UserSelect","/UserSelect.20240830_060307783.jpg","","","-999.99","5.57","-999.99","-999.99","66d1609bf9835f001a7fe566"
"2024-08-30T06:03:22.814Z","45.9166879","-130.0250146","ASNAP","","admin","","","","","","","","","-1.13","2.36","-1.4","-5.0","312.50","350.96","0.58","SciCam","/SciCam.20240830_060322814.jpg","PilotCam","/PilotCam.20240830_060322814.jpg","BrowCam","/BrowCam.20240830_060322814.jpg","UserSelect","/UserSelect.20240830_060322814.jpg","","","-999.99","5.37","-999.99","-999.99","66d160aaf9835f001a7fe56a"
"2024-08-30T06:03:37.845Z","45.9166877","-130.0250147","ASNAP","","admin","","","","","","","","","-1.14","2.34","-1.1","-5.3","311.97","358.68","0.58","SciCam","/SciCam.20240830_060337845.jpg","PilotCam","/PilotCam.20240830_060337845.jpg","BrowCam","/BrowCam.20240830_060337845.jpg","UserSelect","/UserSelect.20240830_060337845.jpg","","","-999.99","5.28","-999.99","-999.99","66d160b9f9835f001a7fe56e"
"2024-08-30T06:03:52.873Z","45.9166876","-130.0250148","ASNAP","","admin","","","","","","","","","-1.15","2.33","-1.0","-5.1","311.76","366.38","0.58","SciCam","/SciCam.20240830_060352873.jpg","PilotCam","/PilotCam.20240830_060352873.jpg","BrowCam","/BrowCam.20240830_060352873.jpg","UserSelect","/UserSelect.20240830_060352873.jpg","","","-999.99","5.13","-999.99","-999.99","66d160c8f9835f001a7fe572"
"2024-08-30T06:04:07.900Z","45.9166877","-130.0250148","ASNAP","","admin","","","","","","","","","-1.15","2.34","-1.0","-5.1","311.82","374.12","0.58","SciCam","/SciCam.20240830_060407900.jpg","PilotCam","/PilotCam.20240830_060407900.jpg","BrowCam","/BrowCam.20240830_060407900.jpg","UserSelect","/UserSelect.20240830_060407900.jpg","","","-999.99","5.20","-999.99","-999.99","66d160d7f9835f001a7fe576"
"2024-08-30T06:04:22.926Z","45.9166878","-130.0250146","ASNAP","","admin","","","","","","","","","-1.13","2.35","-1.2","-5.2","312.33","381.87","0.58","SciCam","/SciCam.20240830_060422926.jpg","PilotCam","/PilotCam.20240830_060422926.jpg","BrowCam","/BrowCam.20240830_060422926.jpg","UserSelect","/UserSelect.20240830_060422926.jpg","","","-999.99","5.12","-999.99","-999.99","66d160e6f9835f001a7fe57a"
"2024-08-30T06:04:27.441Z","45.9166878","-130.0250146","WATCH_CHANGE","Engineer","guest","","","","Sarah","","","","","-1.13","2.35","-1.0","-5.2","312.29","383.97","0.58","SciCam","/SciCam.20240830_060427441.jpg","PilotCam","/PilotCam.20240830_060427441.jpg","BrowCam","/BrowCam.20240830_060427441.jpg","UserSelect","/UserSelect.20240830_060427441.jpg","","","-999.99","5.04","-999.99","-999.99","66d160ebf9835f001a7fe57e"
"2024-08-30T06:04:37.960Z","45.9166878","-130.0250147","ASNAP","","admin","","","","","","","","","-1.14","2.35","-1.3","-4.7","312.06","389.71","0.58","SciCam","/SciCam.20240830_060437960.jpg","PilotCam","/PilotCam.20240830_060437960.jpg","BrowCam","/BrowCam.20240830_060437960.jpg","UserSelect","/UserSelect.20240830_060437960.jpg","","","-999.99","5.13","-999.99","-999.99","66d160f5f9835f001a7fe582"
"2024-08-30T06:04:52.992Z","45.9166876","-130.0250148","ASNAP","","admin","","","","","","","","","-1.15","2.33","-0.9","-4.8","311.72","398.77","0.58","SciCam","/SciCam.20240830_060452992.jpg","PilotCam","/PilotCam.20240830_060452992.jpg","BrowCam","/BrowCam.20240830_060452992.jpg","UserSelect","/UserSelect.20240830_060452992.jpg","","","-999.99","5.11","-999.99","-999.99","66d16104f9835f001a7fe586"
"2024-08-30T06:05:08.016Z","45.9166877","-130.0250147","ASNAP","","admin","","","","","","","","","-1.14","2.34","-1.5","-6.0","311.99","407.07","0.58","SciCam","/SciCam.20240830_060508016.jpg","PilotCam","/PilotCam.20240830_060508016.jpg","BrowCam","/BrowCam.20240830_060508016.jpg","UserSelect","/UserSelect.20240830_060508016.jpg","","","-999.99","5.15","-999.99","-999.99","66d16114f9835f001a7fe58a"
"2024-08-30T06:05:23.043Z","45.9166877","-130.0250147","ASNAP","","admin","","","","","","","","","-1.14","2.34","-1.0","-5.4","312.16","414.75","0.58","SciCam","/SciCam.20240830_060523043.jpg","PilotCam","/PilotCam.20240830_060523043.jpg","BrowCam","/BrowCam.20240830_060523043.jpg","UserSelect","/UserSelect.20240830_060523043.jpg","","","-999.99","5.03","-999.99","-999.99","66d16123f9835f001a7fe58e"
"2024-08-30T06:05:38.077Z","45.9166878","-130.0250144","ASNAP","","admin","","","","","","","","","-1.12","2.35","-1.5","-5.9","312.46","422.29","0.58","SciCam","/SciCam.20240830_060538077.jpg","PilotCam","/PilotCam.20240830_060538077.jpg","BrowCam","/BrowCam.20240830_060538077.jpg","UserSelect","/UserSelect.20240830_060538077.jpg","","","-999.99","4.93","-999.99","-999.99","66d16132f9835f001a7fe592"
"2024-08-30T06:05:53.109Z","45.9166876","-130.0250148","ASNAP","","admin","","","","","","","","","-1.15","2.33","-0.5","-5.4","311.79","430.00","0.58","SciCam","/SciCam.20240830_060553109.jpg","PilotCam","/PilotCam.20240830_060553109.jpg","BrowCam","/BrowCam.20240830_060553109.jpg","UserSelect","/UserSelect.20240830_060553109.jpg","","","-999.99","4.71","-999.99","-999.99","66d16141f9835f001a7fe596"
"2024-08-30T06:06:08.142Z","45.9166878","-130.0250146","ASNAP","","admin","","","","","","","","","-1.13","2.35","-1.6","-5.5","312.42","437.60","0.58","SciCam","/SciCam.20240830_060608142.jpg","PilotCam","/PilotCam.20240830_060608142.jpg","BrowCam","/BrowCam.20240830_060608142.jpg","UserSelect","/UserSelect.20240830_060608142.jpg","","","-999.99","4.68","-999.99","-999.99","66d16150f9835f001a7fe59a"
"2024-08-30T06:06:23.175Z","45.9166879","-130.0250146","ASNAP","","admin","","","","","","","","","-1.13","2.36","-1.4","-5.3","312.46","445.15","0.58","SciCam","/SciCam.20240830_060623175.jpg","PilotCam","/PilotCam.20240830_060623175.jpg","BrowCam","/BrowCam.20240830_060623175.jpg","UserSelect","/UserSelect.20240830_060623175.jpg","","","-999.99","4.72","-999.99","-999.99","66d1615ff9835f001a7fe59e"
"2024-08-30T06:06:38.208Z","45.9166877","-130.0250147","ASNAP","","admin","","","","","","","","","-1.14","2.34","-1.1","-5.4","312.03","452.94","0.58","SciCam","/SciCam.20240830_060638208.jpg","PilotCam","/PilotCam.20240830_060638208.jpg","BrowCam","/BrowCam.20240830_060638208.jpg","UserSelect","/UserSelect.20240830_060638208.jpg","","","-999.99","4.77","-999.99","-999.99","66d1616ef9835f001a7fe5a2"
"2024-08-30T06:06:53.236Z","45.9166878","-130.0250147","ASNAP","","admin","","","","","","","","","-1.14","2.35","-1.1","-5.1","312.23","460.54","0.58","SciCam","/SciCam.20240830_060653236.jpg","PilotCam","/PilotCam.20240830_060653236.jpg","BrowCam","/BrowCam.20240830_060653236.jpg","UserSelect","/UserSelect.20240830_060653236.jpg","","","-999.99","4.64","-999.99","-999.99","66d1617df9835f001a7fe5a6"
"2024-08-30T06:07:08.262Z","45.9166878","-130.0250146","ASNAP","","admin","","","","","","","","","-1.13","2.35","-1.4","-5.3","312.30","468.27","0.58","SciCam","/SciCam.20240830_060708262.jpg","PilotCam","/PilotCam.20240830_060708262.jpg","BrowCam","/BrowCam.20240830_060708262.jpg","UserSelect","/UserSelect.20240830_060708262.jpg","","","-999.99","4.64","-999.99","-999.99","66d1618cf9835f001a7fe5aa"
"2024-08-30T06:07:23.292Z","45.9166876","-130.0250148","ASNAP","","admin","","","","","","","","","-1.15","2.33","-1.3","-5.4","311.56","476.09","0.58","SciCam","/SciCam.20240830_060723292.jpg","PilotCam","/PilotCam.20240830_060723292.jpg","BrowCam","/BrowCam.20240830_060723292.jpg","UserSelect","/UserSelect.20240830_060723292.jpg","","","-999.99","4.75","-999.99","-999.99","66d1619bf9835f001a7fe5ae"
"2024-08-30T06:07:38.324Z","45.9166877","-130.0250148","ASNAP","","admin","","","","","","","","","-1.15","2.34","-1.2","-5.0","311.73","483.80","0.58","SciCam","/SciCam.20240830_060738324.jpg","PilotCam","/PilotCam.20240830_060738324.jpg","BrowCam","/BrowCam.20240830_060738324.jpg","UserSelect","/UserSelect.20240830_060738324.jpg","","","-999.99","4.64","-999.99","-999.99","66d161aaf9835f001a7fe5b2"
"2024-08-30T06:07:53.354Z","45.9166876","-130.0250148","ASNAP","","admin","","","","","","","","","-1.15","2.33","-1.2","-5.1","311.59","491.52","0.58","SciCam","/SciCam.20240830_060753354.jpg","PilotCam","/PilotCam.20240830_060753354.jpg","BrowCam","/BrowCam.20240830_060753354.jpg","UserSelect","/UserSelect.20240830_060753354.jpg","","","-999.99","4.56","-999.99","-999.99","66d161b9f9835f001a7fe5b6"
"2024-08-30T06:08:08.380Z","45.9166876","-130.0250150","ASNAP","","admin","","","","","","","","","-1.16","2.33","-0.9","-4.6","311.43","499.14","0.58","SciCam","/SciCam.20240830_060808380.jpg","PilotCam","/PilotCam.20240830_060808380.jpg","BrowCam","/BrowCam.20240830_060808380.jpg","UserSelect","/UserSelect.20240830_060808380.jpg","","","-999.99","4.53","-999.99","-999.99","66d161c8f9835f001a7fe5ba"
"2024-08-30T06:08:23.406Z","45.9166875","-130.0250150","ASNAP","","admin","","","","","","","","","-1.16","2.32","-1.0","-5.1","311.31","506.43","0.58","SciCam","/SciCam.20240830_060823406.jpg","PilotCam","/PilotCam.20240830_060823406.jpg","BrowCam","/BrowCam.20240830_060823406.jpg","UserSelect","/UserSelect.20240830_060823406.jpg","","","-999.99","4.46","-999.99","-999.99","66d161d7f9835f001a7fe5be"
"2024-08-30T06:08:38.441Z","45.9166850","-130.0249821","ASNAP","","admin","","","","","","","","","1.39","2.04","-1.6","-6.0","32.30","513.89","0.58","SciCam","/SciCam.20240830_060838441.jpg","PilotCam","/PilotCam.20240830_060838441.jpg","BrowCam","/BrowCam.20240830_060838441.jpg","UserSelect","/UserSelect.20240830_060838441.jpg","","","-999.99","4.48","-999.99","-999.99","66d161e6f9835f001a7fe5c2"
"2024-08-30T06:08:53.474Z","45.9166416","-130.0250052","ASNAP","","admin","","","","","","","","","-0.40","-2.79","-1.8","-6.3","182.40","520.86","0.58","SciCam","/SciCam.20240830_060853474.jpg","PilotCam","/PilotCam.20240830_060853474.jpg","BrowCam","/BrowCam.20240830_060853474.jpg","UserSelect","/UserSelect.20240830_060853474.jpg","","","-999.99","4.27","-999.99","-999.99","66d161f5f9835f001a7fe5c6"
"2024-08-30T06:09:08.498Z","45.9166912","-130.0250072","ASNAP","","admin","","","","","","","","","-0.56","2.73","-1.5","-6.3","333.42","527.68","0.58","SciCam","/SciCam.20240830_060908498.jpg","PilotCam","/PilotCam.20240830_060908498.jpg","BrowCam","/BrowCam.20240830_060908498.jpg","UserSelect","/UserSelect.20240830_060908498.jpg","","","-999.99","4.46","-999.99","-999.99","66d16204f9835f001a7fe5ca"
"2024-08-30T06:09:23.529Z","45.9166488","-130.0249817","ASNAP","","admin","","","","","","","","","1.42","-1.99","-2.0","-6.0","122.20","534.62","0.58","SciCam","/SciCam.20240830_060923529.jpg","PilotCam","/PilotCam.20240830_060923529.jpg","BrowCam","/BrowCam.20240830_060923529.jpg","UserSelect","/UserSelect.20240830_060923529.jpg","","","-999.99","4.41","-999.99","-999.99","66d16213f9835f001a7fe5ce"
"2024-08-30T06:09:38.562Z","45.9166735","-130.0250246","ASNAP","","admin","","","","","","","","","-1.91","0.76","-1.4","-5.9","272.45","541.74","0.58","SciCam","/SciCam.20240830_060938562.jpg","PilotCam","/PilotCam.20240830_060938562.jpg","BrowCam","/BrowCam.20240830_060938562.jpg","UserSelect","/UserSelect.20240830_060938562.jpg","","","-999.99","4.32","-999.99","-999.99","66d16222f9835f001a7fe5d2"
"2024-08-30T06:09:53.589Z","45.9166803","-130.0250218","ASNAP","","admin","","","","","","","","","-1.69","1.51","-1.2","-5.3","289.38","549.86","0.58","SciCam","/SciCam.20240830_060953589.jpg","PilotCam","/PilotCam.20240830_060953589.jpg","BrowCam","/BrowCam.20240830_060953589.jpg","UserSelect","/UserSelect.20240830_060953589.jpg","","","-999.99","4.36","-999.99","-999.99","66d16231f9835f001a7fe5d6"
"2024-08-30T06:10:08.620Z","45.9166696","-130.0249746","ASNAP","","admin","","","","","","","","","1.97","0.33","-2.2","-5.9","72.22","557.90","0.58","SciCam","/SciCam.20240830_061008620.jpg","PilotCam","/PilotCam.20240830_061008620.jpg","BrowCam","/BrowCam.20240830_061008620.jpg","UserSelect","/UserSelect.20240830_061008620.jpg","","","-999.99","4.46","-999.99","-999.99","66d16240f9835f001a7fe5da"
"2024-08-30T06:10:23.651Z","45.9166515","-130.0250206","ASNAP","","admin","","","","","","","","","-1.60","-1.69","-2.3","-5.7","221.55","566.19","0.58","SciCam","/SciCam.20240830_061023651.jpg","PilotCam","/PilotCam.20240830_061023651.jpg","BrowCam","/BrowCam.20240830_061023651.jpg","UserSelect","/UserSelect.20240830_061023651.jpg","","","-999.99","4.32","-999.99","-999.99","66d1624ff9835f001a7fe5de"
"2024-08-30T06:10:38.685Z","45.9166894","-130.0250116","ASNAP","","admin","","","","","","","","","-0.90","2.53","-1.7","-6.6","319.51","574.16","0.58","SciCam","/SciCam.20240830_061038685.jpg","PilotCam","/PilotCam.20240830_061038685.jpg","BrowCam","/BrowCam.20240830_061038685.jpg","UserSelect","/UserSelect.20240830_061038685.jpg","","","-999.99","4.35","-999.99","-999.99","66d1625ef9835f001a7fe5e2"
"2024-08-30T06:10:53.718Z","45.9166890","-130.0250122","ASNAP","","admin","","","","","","","","","-0.95","2.48","-0.7","-6.8","318.15","582.39","0.58","SciCam","/SciCam.20240830_061053718.jpg","PilotCam","/PilotCam.20240830_061053718.jpg","BrowCam","/BrowCam.20240830_061053718.jpg","UserSelect","/UserSelect.20240830_061053718.jpg","","","-999.99","4.34","-999.99","-999.99","66d1626df9835f001a7fe5e6"
"2024-08-30T06:11:08.754Z","45.9166892","-130.0250125","ASNAP","","admin","","","","","","","","","-0.97","2.50","-1.3","-4.9","317.80","590.18","0.58","SciCam","/SciCam.20240830_061108754.jpg","PilotCam","/PilotCam.20240830_061108754.jpg","BrowCam","/BrowCam.20240830_061108754.jpg","UserSelect","/UserSelect.20240830_061108754.jpg","","","-999.99","4.31","-999.99","-999.99","66d1627cf9835f001a7fe5ea"
"2024-08-30T06:11:23.787Z","45.9166892","-130.0250125","ASNAP","","admin","","","","","","","","","-0.97","2.50","-0.5","-5.2","318.11","598.26","0.58","SciCam","/SciCam.20240830_061123787.jpg","PilotCam","/PilotCam.20240830_061123787.jpg","BrowCam","/BrowCam.20240830_061123787.jpg","UserSelect","/UserSelect.20240830_061123787.jpg","","","-999.99","4.26","-999.99","-999.99","66d1628bf9835f001a7fe5ee"
"2024-08-30T06:11:38.821Z","45.9166891","-130.0250126","ASNAP","","admin","","","","","","","","","-0.98","2.49","-0.9","-5.2","317.70","606.12","0.58","SciCam","/SciCam.20240830_061138821.jpg","PilotCam","/PilotCam.20240830_061138821.jpg","BrowCam","/BrowCam.20240830_061138821.jpg","UserSelect","/UserSelect.20240830_061138821.jpg","","","-999.99","4.39","-999.99","-999.99","66d1629af9835f001a7fe5f2"
"2024-08-30T06:11:53.844Z","45.9166892","-130.0250122","ASNAP","","admin","","","","","","","","","-0.95","2.50","-1.2","-5.8","318.55","613.76","0.58","SciCam","/SciCam.20240830_061153844.jpg","PilotCam","/PilotCam.20240830_061153844.jpg","BrowCam","/BrowCam.20240830_061153844.jpg","UserSelect","/UserSelect.20240830_061153844.jpg","","","-999.99","4.28","-999.99","-999.99","66d162a9f9835f001a7fe5f6"
"2024-08-30T06:12:08.871Z","45.9166891","-130.0250122","ASNAP","","admin","","","","","","","","","-0.95","2.49","-0.7","-6.6","318.43","620.88","0.58","SciCam","/SciCam.20240830_061208871.jpg","PilotCam","/PilotCam.20240830_061208871.jpg","BrowCam","/BrowCam.20240830_061208871.jpg","UserSelect","/UserSelect.20240830_061208871.jpg","","","-999.99","4.29","-999.99","-999.99","66d162b8f9835f001a7fe5fa"
"2024-08-30T06:12:23.903Z","45.9166892","-130.0250124","ASNAP","","admin","","","","","","","","","-0.96","2.50","-1.3","-5.7","318.07","628.30","0.58","SciCam","/SciCam.20240830_061223903.jpg","PilotCam","/PilotCam.20240830_061223903.jpg","BrowCam","/BrowCam.20240830_061223903.jpg","UserSelect","/UserSelect.20240830_061223903.jpg","","","-999.99","4.33","-999.99","-999.99","66d162c7f9835f001a7fe5fe"
"2024-08-30T06:12:38.936Z","45.9166891","-130.0250125","ASNAP","","admin","","","","","","","","","-0.97","2.49","-0.4","-5.5","318.04","635.71","0.58","SciCam","/SciCam.20240830_061238936.jpg","PilotCam","/PilotCam.20240830_061238936.jpg","BrowCam","/BrowCam.20240830_061238936.jpg","UserSelect","/UserSelect.20240830_061238936.jpg","","","-999.99","4.24","-999.99","-999.99","66d162d6f9835f001a7fe602"
"2024-08-30T06:12:53.967Z","45.9166892","-130.0250124","ASNAP","","admin","","","","","","","","","-0.96","2.50","-1.8","-5.7","318.00","642.68","0.58","SciCam","/SciCam.20240830_061253967.jpg","PilotCam","/PilotCam.20240830_061253967.jpg","BrowCam","/BrowCam.20240830_061253967.jpg","UserSelect","/UserSelect.20240830_061253967.jpg","","","-999.99","4.20","-999.99","-999.99","66d162e5f9835f001a7fe606"
"2024-08-30T06:13:09.001Z","45.9166892","-130.0250124","ASNAP","","admin","","","","","","","","","-0.96","2.50","-1.0","-5.3","318.24","649.30","0.58","SciCam","/SciCam.20240830_061309001.jpg","PilotCam","/PilotCam.20240830_061309001.jpg","BrowCam","/BrowCam.20240830_061309001.jpg","UserSelect","/UserSelect.20240830_061309001.jpg","","","-999.99","4.21","-999.99","-999.99","66d162f5f9835f001a7fe60a"
"2024-08-30T06:13:24.032Z","45.9166892","-130.0250124","ASNAP","","admin","","","","","","","","","-0.96","2.50","-1.2","-5.6","318.04","656.69","0.58","SciCam","/SciCam.20240830_061324032.jpg","PilotCam","/PilotCam.20240830_061324032.jpg","BrowCam","/BrowCam.20240830_061324032.jpg","UserSelect","/UserSelect.20240830_061324032.jpg","","","-999.99","4.20","-999.99","-999.99","66d16304f9835f001a7fe60e"
"2024-08-30T06:13:39.064Z","45.9166892","-130.0250122","ASNAP","","admin","","","","","","","","","-0.95","2.50","-1.5","-5.9","318.18","664.05","0.58","SciCam","/SciCam.20240830_061339064.jpg","PilotCam","/PilotCam.20240830_061339064.jpg","BrowCam","/BrowCam.20240830_061339064.jpg","UserSelect","/UserSelect.20240830_061339064.jpg","","","-999.99","4.19","-999.99","-999.99","66d16313f9835f001a7fe612"
"2024-08-30T06:13:54.095Z","45.9166892","-130.0250122","ASNAP","","admin","","","","","","","","","-0.95","2.50","-1.3","-5.7","318.31","671.39","0.58","SciCam","/SciCam.20240830_061354095.jpg","PilotCam","/PilotCam.20240830_061354095.jpg","BrowCam","/BrowCam.20240830_061354095.jpg","UserSelect","/UserSelect.20240830_061354095.jpg","","","-999.99","4.12","-999.99","-999.99","66d16322f9835f001a7fe616"
"2024-08-30T06:14:09.127Z","45.9166892","-130.0250124","ASNAP","","admin","","","","","","","","","-0.96","2.50","-1.4","-5.6","318.15","678.80","0.58","SciCam","/SciCam.20240830_061409127.jpg","PilotCam","/PilotCam.20240830_061409127.jpg","BrowCam","/BrowCam.20240830_061409127.jpg","UserSelect","/UserSelect.20240830_061409127.jpg","","","-999.99","4.14","-999.99","-999.99","66d16331f9835f001a7fe61a"
"2024-08-30T06:14:24.146Z","45.9166892","-130.0250124","ASNAP","","admin","","","","","","","","","-0.96","2.51","-1.3","-5.4","318.26","686.14","0.58","SciCam","/SciCam.20240830_061424146.jpg","PilotCam","/PilotCam.20240830_061424146.jpg","BrowCam","/BrowCam.20240830_061424146.jpg","UserSelect","/UserSelect.20240830_061424146.jpg","","","-999.99","4.15","-999.99","-999.99","66d16340f9835f001a7fe61e"
