Date/Time (UTC),vehicleRealtimeNavData.latitude (ddeg),vehicleRealtimeNavData.longitude (ddeg),event_value,event_free_text,event_author,event_option.actions,event_option.milestone,event_option.type,event_option.filename,event_option.event_comment,event_option.dummy_plug,event_option.nav,event_option.cabled_plug,vehicleRealtimeNavData.local_x (meters),vehicleRealtimeNavData.local_y (meters),vehicleRealtimeNavData.roll (deg),vehicleRealtimeNavData.pitch (deg),vehicleRealtimeNavData.heading (deg),vehicleRealtimeNavData.depth (meters),vehicleRealtimeNavData.altitude (meters),vehicleRealtimeFramegrabberData.camera_name_1,vehicleRealtimeFramegrabberData.filename_1,vehicleRealtimeFramegrabberData.camera_name_2,vehicleRealtimeFramegrabberData.filename_2,vehicleRealtimeFramegrabberData.camera_name_3,vehicleRealtimeFramegrabberData.filename_3,vehicleRealtimeFramegrabberData.camera_name_4,vehicleRealtimeFramegrabberData.filename_4,vehicleReNavData.pitch (deg),vehicleReNavData.roll (deg),vehicleTemperatureProbe.probe1_temperature (degC),vehicleTemperatureProbe.probe2_temperature (degC),vehicleTemperatureProbe.probe3_temperature (degC),vehicleTemperatureProbe.probe4_temperature (degC),id
"2024-08-11T22:20:05.528Z","45.9166755","-130.0249754","ASNAP","","admin","","","","","","","","","1.91","0.98","1.2","-4.1","128.67","0.94","0.58","SciCam","/SciCam.20240811_222005528.jpg","PilotCam","/PilotCam.20240811_222005528.jpg","BrowCam","/BrowCam.20240811_222005528.jpg","UserSelect","/UserSelect.20240811_222005528.jpg","","","-999.99","16.88","-999.99","-999.99","66b93915111b2e001a286c08"
"2024-08-11T22:20:20.558Z","45.9166752","-130.0249753","ASNAP","","admin","","","","","","","","","1.92","0.95","1.2","-4.1","128.67","0.95","0.58","SciCam","/SciCam.20240811_222020558.jpg","PilotCam","/PilotCam.20240811_222020558.jpg","BrowCam","/BrowCam.20240811_222020558.jpg","UserSelect","/UserSelect.20240811_222020558.jpg","","","-999.99","16.88","-999.99","-999.99","66b93924111b2e001a286c0c"
"2024-08-11T22:20:35.590Z","45.9166754","-130.0249755","ASNAP","","admin","","","","","","","","","1.90","0.97","1.2","-4.1","128.67","0.93","0.58","SciCam","/SciCam.20240811_222035590.jpg","PilotCam","/PilotCam.20240811_222035590.jpg","BrowCam","/BrowCam.20240811_222035590.jpg","UserSelect","/UserSelect.20240811_222035590.jpg","","","-999.99","16.87","-999.99","-999.99","66b93933111b2e001a286c10"
"2024-08-11T22:20:50.623Z","45.9166753","-130.0249754","ASNAP","","admin","","","","","","","","","1.91","0.96","1.2","-4.1","128.67","0.94","0.58","SciCam","/SciCam.20240811_222050623.jpg","PilotCam","/PilotCam.20240811_222050623.jpg","BrowCam","/BrowCam.20240811_222050623.jpg","UserSelect","/UserSelect.20240811_222050623.jpg","","","-999.99","16.87","-999.99","-999.99","66b93942111b2e001a286c14"
"2024-08-11T22:21:05.640Z","45.9166749","-130.0249751","ASNAP","","admin","","","","","","","","","1.93","0.91","1.2","-4.1","128.67","0.94","0.58","SciCam","/SciCam.20240811_222105640.jpg","PilotCam","/PilotCam.20240811_222105640.jpg","BrowCam","/BrowCam.20240811_222105640.jpg","UserSelect","/UserSelect.20240811_222105640.jpg","","","-999.99","16.86","-999.99","-999.99","66b93951111b2e001a286c18"
"2024-08-11T22:21:20.672Z","45.9166756","-130.0249754","ASNAP","","admin","","","","","","","","","1.91","0.99","1.2","-4.1","128.67","0.94","0.58","SciCam","/SciCam.20240811_222120672.jpg","PilotCam","/PilotCam.20240811_222120672.jpg","BrowCam","/BrowCam.20240811_222120672.jpg","UserSelect","/UserSelect.20240811_222120672.jpg","","","-999.99","16.85","-999.99","-999.99","66b93960111b2e001a286c1c"
"2024-08-11T22:21:35.705Z","45.9166834","-130.0249799","ASNAP","","admin","","","","","","","","","1.56","1.86","1.2","-4.1","128.67","0.93","0.58","SciCam","/SciCam.20240811_222135705.jpg","PilotCam","/PilotCam.20240811_222135705.jpg","BrowCam","/BrowCam.20240811_222135705.jpg","UserSelect","/UserSelect.20240811_222135705.jpg","","","-999.99","16.83","-999.99","-999.99","66b9396f111b2e001a286c20"
"2024-08-11T22:21:50.740Z","45.9166831","-130.0249796","ASNAP","","admin","","","","","","","","","1.58","1.83","1.2","-4.1","128.67","0.93","0.58","SciCam","/SciCam.20240811_222150740.jpg","PilotCam","/PilotCam.20240811_222150740.jpg","BrowCam","/BrowCam.20240811_222150740.jpg","UserSelect","/UserSelect.20240811_222150740.jpg","","","-999.99","16.81","-999.99","-999.99","66b9397e111b2e001a286c24"
"2024-08-11T22:22:05.771Z","45.9166904","-130.0249887","ASNAP","","admin","","","","","","","","","0.88","2.64","1.2","-4.1","128.67","0.93","0.58","SciCam","/SciCam.20240811_222205771.jpg","PilotCam","/PilotCam.20240811_222205771.jpg","BrowCam","/BrowCam.20240811_222205771.jpg","UserSelect","/UserSelect.20240811_222205771.jpg","","","-999.99","16.82","-999.99","-999.99","66b9398d111b2e001a286c28"
"2024-08-11T22:22:20.803Z","45.9166925","-130.0249947","ASNAP","","admin","","","","","","","","","0.41","2.87","1.2","-4.1","128.67","0.93","0.58","SciCam","/SciCam.20240811_222220803.jpg","PilotCam","/PilotCam.20240811_222220803.jpg","BrowCam","/BrowCam.20240811_222220803.jpg","UserSelect","/UserSelect.20240811_222220803.jpg","","","-999.99","16.87","-999.99","-999.99","66b9399c111b2e001a286c2c"
"2024-08-11T22:22:35.835Z","45.9166924","-130.0249947","ASNAP","","admin","","","","","","","","","0.41","2.86","1.2","-4.1","128.67","0.93","0.58","SciCam","/SciCam.20240811_222235835.jpg","PilotCam","/PilotCam.20240811_222235835.jpg","BrowCam","/BrowCam.20240811_222235835.jpg","UserSelect","/UserSelect.20240811_222235835.jpg","","","-999.99","16.91","-999.99","-999.99","66b939ab111b2e001a286c30"
"2024-08-11T22:22:50.865Z","45.9166925","-130.0249952","ASNAP","","admin","","","","","","","","","0.37","2.87","1.2","-4.1","128.67","0.93","0.58","SciCam","/SciCam.20240811_222250865.jpg","PilotCam","/PilotCam.20240811_222250865.jpg","BrowCam","/BrowCam.20240811_222250865.jpg","UserSelect","/UserSelect.20240811_222250865.jpg","","","-999.99","16.95","-999.99","-999.99","66b939ba111b2e001a286c34"
"2024-08-11T22:23:05.894Z","45.9166926","-130.0249957","ASNAP","","admin","","","","","","","","","0.33","2.88","1.2","-4.1","128.67","0.94","0.58","SciCam","/SciCam.20240811_222305894.jpg","PilotCam","/PilotCam.20240811_222305894.jpg","BrowCam","/BrowCam.20240811_222305894.jpg","UserSelect","/UserSelect.20240811_222305894.jpg","","","-999.99","17.00","-999.99","-999.99","66b939c9111b2e001a286c38"
"2024-08-11T22:23:06.047Z","45.9166926","-130.0249957","ROV Actions","Jason latching to the SPA to be deployed on the AB-200m platform","guest","Latching to","","","","","","","","0.33","2.88","1.2","-4.1","128.67","0.94","0.58","SciCam","/SciCam.20240811_222306047.jpg","PilotCam","/PilotCam.20240811_222306047.jpg","BrowCam","/BrowCam.20240811_222306047.jpg","UserSelect","/UserSelect.20240811_222306047.jpg","","","-999.99","17.00","-999.99","-999.99","66b939ca111b2e001a286c3b"
"2024-08-11T22:23:20.925Z","45.9166927","-130.0249969","ASNAP","","admin","","","","","","","","","0.24","2.89","1.2","-4.1","128.67","0.90","0.58","SciCam","/SciCam.20240811_222320925.jpg","PilotCam","/PilotCam.20240811_222320925.jpg","BrowCam","/BrowCam.20240811_222320925.jpg","UserSelect","/UserSelect.20240811_222320925.jpg","","","-999.99","17.02","-999.99","-999.99","66b939d8111b2e001a286c40"
"2024-08-11T22:23:35.955Z","45.9166928","-130.0249964","ASNAP","","admin","","","","","","","","","0.28","2.90","1.2","-4.1","128.67","0.93","0.58","SciCam","/SciCam.20240811_222335955.jpg","PilotCam","/PilotCam.20240811_222335955.jpg","BrowCam","/BrowCam.20240811_222335955.jpg","UserSelect","/UserSelect.20240811_222335955.jpg","","","-999.99","17.06","-999.99","-999.99","66b939e7111b2e001a286c44"
"2024-08-11T22:23:50.988Z","45.9166928","-130.0249964","ASNAP","","admin","","","","","","","","","0.28","2.90","1.2","-4.1","128.67","0.90","0.58","SciCam","/SciCam.20240811_222350988.jpg","PilotCam","/PilotCam.20240811_222350988.jpg","BrowCam","/BrowCam.20240811_222350988.jpg","UserSelect","/UserSelect.20240811_222350988.jpg","","","-999.99","17.08","-999.99","-999.99","66b939f6111b2e001a286c48"
"2024-08-11T22:24:06.014Z","45.9166927","-130.0249957","ASNAP","","admin","","","","","","","","","0.33","2.89","1.2","-4.1","128.67","0.94","0.58","SciCam","/SciCam.20240811_222406014.jpg","PilotCam","/PilotCam.20240811_222406014.jpg","BrowCam","/BrowCam.20240811_222406014.jpg","UserSelect","/UserSelect.20240811_222406014.jpg","","","-999.99","17.12","-999.99","-999.99","66b93a06111b2e001a286c4c"
"2024-08-11T22:24:21.049Z","45.9166928","-130.0249961","ASNAP","","admin","","","","","","","","","0.30","2.90","1.2","-4.1","128.67","0.95","0.58","SciCam","/SciCam.20240811_222421049.jpg","PilotCam","/PilotCam.20240811_222421049.jpg","BrowCam","/BrowCam.20240811_222421049.jpg","UserSelect","/UserSelect.20240811_222421049.jpg","","","-999.99","17.14","-999.99","-999.99","66b93a15111b2e001a286c50"
"2024-08-11T22:24:36.068Z","45.9166928","-130.0249960","ASNAP","","admin","","","","","","","","","0.31","2.90","1.2","-4.1","128.67","0.94","0.58","SciCam","/SciCam.20240811_222436068.jpg","PilotCam","/PilotCam.20240811_222436068.jpg","BrowCam","/BrowCam.20240811_222436068.jpg","UserSelect","/UserSelect.20240811_222436068.jpg","","","-999.99","17.17","-999.99","-999.99","66b93a24111b2e001a286c54"
"2024-08-11T22:24:51.098Z","45.9166926","-130.0249964","ASNAP","","admin","","","","","","","","","0.28","2.88","1.2","-4.1","128.67","0.89","0.58","SciCam","/SciCam.20240811_222451098.jpg","PilotCam","/PilotCam.20240811_222451098.jpg","BrowCam","/BrowCam.20240811_222451098.jpg","UserSelect","/UserSelect.20240811_222451098.jpg","","","-999.99","17.19","-999.99","-999.99","66b93a33111b2e001a286c58"
"2024-08-11T22:25:06.130Z","45.9166927","-130.0249965","ASNAP","","admin","","","","","","","","","0.27","2.89","1.2","-4.1","128.67","0.91","0.58","SciCam","/SciCam.20240811_222506130.jpg","PilotCam","/PilotCam.20240811_222506130.jpg","BrowCam","/BrowCam.20240811_222506130.jpg","UserSelect","/UserSelect.20240811_222506130.jpg","","","-999.99","17.18","-999.99","-999.99","66b93a42111b2e001a286c5c"
"2024-08-11T22:25:21.155Z","45.9166910","-130.0249899","ASNAP","","admin","","","","","","","","","0.78","2.71","1.2","-4.1","128.67","0.87","0.58","SciCam","/SciCam.20240811_222521155.jpg","PilotCam","/PilotCam.20240811_222521155.jpg","BrowCam","/BrowCam.20240811_222521155.jpg","UserSelect","/UserSelect.20240811_222521155.jpg","","","-999.99","17.24","-999.99","-999.99","66b93a51111b2e001a286c64"
"2024-08-11T22:25:36.185Z","45.9166896","-130.0249871","ASNAP","","admin","","","","","","","","","1.00","2.55","1.2","-4.1","128.67","0.89","0.58","SciCam","/SciCam.20240811_222536185.jpg","PilotCam","/PilotCam.20240811_222536185.jpg","BrowCam","/BrowCam.20240811_222536185.jpg","UserSelect","/UserSelect.20240811_222536185.jpg","","","-999.99","17.25","-999.99","-999.99","66b93a60111b2e001a286c68"
"2024-08-11T22:25:51.211Z","45.9166896","-130.0249874","ASNAP","","admin","","","","","","","","","0.98","2.55","1.2","-4.0","128.67","0.93","0.58","SciCam","/SciCam.20240811_222551211.jpg","PilotCam","/PilotCam.20240811_222551211.jpg","BrowCam","/BrowCam.20240811_222551211.jpg","UserSelect","/UserSelect.20240811_222551211.jpg","","","-999.99","17.28","-999.99","-999.99","66b93a6f111b2e001a286c6c"
"2024-08-11T22:26:06.242Z","45.9166785","-130.0249767","ASNAP","","admin","","","","","","","","","1.81","1.31","1.2","-4.0","128.67","0.93","0.58","SciCam","/SciCam.20240811_222606242.jpg","PilotCam","/PilotCam.20240811_222606242.jpg","BrowCam","/BrowCam.20240811_222606242.jpg","UserSelect","/UserSelect.20240811_222606242.jpg","","","-999.99","17.27","-999.99","-999.99","66b93a7e111b2e001a286c70"
"2024-08-11T22:26:21.263Z","45.9166517","-130.0249785","ASNAP","","admin","","","","","","","","","1.67","-1.66","-1.2","-0.5","128.67","0.92","0.58","SciCam","/SciCam.20240811_222621263.jpg","PilotCam","/PilotCam.20240811_222621263.jpg","BrowCam","/BrowCam.20240811_222621263.jpg","UserSelect","/UserSelect.20240811_222621263.jpg","","","-999.99","17.26","-999.99","-999.99","66b93a8d111b2e001a286c74"
"2024-08-11T22:26:36.293Z","45.9166471","-130.0249826","ASNAP","","admin","","","","","","","","","1.35","-2.17","-1.9","0.8","128.67","0.92","0.58","SciCam","/SciCam.20240811_222636293.jpg","PilotCam","/PilotCam.20240811_222636293.jpg","BrowCam","/BrowCam.20240811_222636293.jpg","UserSelect","/UserSelect.20240811_222636293.jpg","","","-999.99","17.31","-999.99","-999.99","66b93a9c111b2e001a286c78"
"2024-08-11T22:26:51.324Z","45.9166462","-130.0249835","ASNAP","","admin","","","","","","","","","1.28","-2.27","-1.1","-0.7","128.67","0.92","0.58","SciCam","/SciCam.20240811_222651324.jpg","PilotCam","/PilotCam.20240811_222651324.jpg","BrowCam","/BrowCam.20240811_222651324.jpg","UserSelect","/UserSelect.20240811_222651324.jpg","","","-999.99","17.41","-999.99","-999.99","66b93aab111b2e001a286c7c"
"2024-08-11T22:27:06.355Z","45.9166468","-130.0249830","ASNAP","","admin","","","","","","","","","1.32","-2.21","-1.3","-1.0","128.67","0.93","0.58","SciCam","/SciCam.20240811_222706355.jpg","PilotCam","/PilotCam.20240811_222706355.jpg","BrowCam","/BrowCam.20240811_222706355.jpg","UserSelect","/UserSelect.20240811_222706355.jpg","","","-999.99","17.52","-999.99","-999.99","66b93aba111b2e001a286c80"
"2024-08-11T22:27:21.386Z","45.9166466","-130.0249831","ASNAP","","admin","","","","","","","","","1.31","-2.23","-0.6","-0.3","128.67","0.92","0.58","SciCam","/SciCam.20240811_222721386.jpg","PilotCam","/PilotCam.20240811_222721386.jpg","BrowCam","/BrowCam.20240811_222721386.jpg","UserSelect","/UserSelect.20240811_222721386.jpg","","","-999.99","17.61","-999.99","-999.99","66b93ac9111b2e001a286c84"
"2024-08-11T22:27:36.418Z","45.9166470","-130.0249827","ASNAP","","admin","","","","","","","","","1.34","-2.19","-1.0","-1.1","128.67","0.93","0.58","SciCam","/SciCam.20240811_222736418.jpg","PilotCam","/PilotCam.20240811_222736418.jpg","BrowCam","/BrowCam.20240811_222736418.jpg","UserSelect","/UserSelect.20240811_222736418.jpg","","","-999.99","17.72","-999.99","-999.99","66b93ad8111b2e001a286c88"
"2024-08-11T22:27:51.450Z","45.9166473","-130.0249825","ASNAP","","admin","","","","","","","","","1.36","-2.15","-0.8","-0.5","128.67","0.91","0.58","SciCam","/SciCam.20240811_222751450.jpg","PilotCam","/PilotCam.20240811_222751450.jpg","BrowCam","/BrowCam.20240811_222751450.jpg","UserSelect","/UserSelect.20240811_222751450.jpg","","","-999.99","17.84","-999.99","-999.99","66b93ae7111b2e001a286c8c"
"2024-08-11T22:28:06.480Z","45.9166467","-130.0249831","ASNAP","","admin","","","","","","","","","1.31","-2.22","0.0","-0.9","128.67","0.92","0.58","SciCam","/SciCam.20240811_222806480.jpg","PilotCam","/PilotCam.20240811_222806480.jpg","BrowCam","/BrowCam.20240811_222806480.jpg","UserSelect","/UserSelect.20240811_222806480.jpg","","","-999.99","17.96","-999.99","-999.99","66b93af6111b2e001a286c90"
"2024-08-11T22:28:21.509Z","45.9166471","-130.0249826","ASNAP","","admin","","","","","","","","","1.35","-2.17","-1.4","-0.4","128.67","0.94","0.58","SciCam","/SciCam.20240811_222821509.jpg","PilotCam","/PilotCam.20240811_222821509.jpg","BrowCam","/BrowCam.20240811_222821509.jpg","UserSelect","/UserSelect.20240811_222821509.jpg","","","-999.99","18.09","-999.99","-999.99","66b93b05111b2e001a286c94"
"2024-08-11T22:28:36.544Z","45.9166463","-130.0249835","ASNAP","","admin","","","","","","","","","1.28","-2.26","-1.1","-1.1","128.67","0.92","0.58","SciCam","/SciCam.20240811_222836544.jpg","PilotCam","/PilotCam.20240811_222836544.jpg","BrowCam","/BrowCam.20240811_222836544.jpg","UserSelect","/UserSelect.20240811_222836544.jpg","","","-999.99","18.23","-999.99","-999.99","66b93b14111b2e001a286c98"
"2024-08-11T22:28:51.574Z","45.9166462","-130.0249836","ASNAP","","admin","","","","","","","","","1.27","-2.28","-0.6","-0.1","128.67","0.91","0.58","SciCam","/SciCam.20240811_222851574.jpg","PilotCam","/PilotCam.20240811_222851574.jpg","BrowCam","/BrowCam.20240811_222851574.jpg","UserSelect","/UserSelect.20240811_222851574.jpg","","","-999.99","18.25","-999.99","-999.99","66b93b23111b2e001a286c9c"
"2024-08-11T22:29:06.606Z","45.9166462","-130.0249835","ASNAP","","admin","","","","","","","","","1.28","-2.27","-1.3","-0.9","128.67","0.93","0.58","SciCam","/SciCam.20240811_222906606.jpg","PilotCam","/PilotCam.20240811_222906606.jpg","BrowCam","/BrowCam.20240811_222906606.jpg","UserSelect","/UserSelect.20240811_222906606.jpg","","","-999.99","18.30","-999.99","-999.99","66b93b32111b2e001a286ca0"
"2024-08-11T22:29:21.638Z","45.9166465","-130.0249832","ASNAP","","admin","","","","","","","","","1.30","-2.24","-1.3","-1.5","128.67","0.95","0.58","SciCam","/SciCam.20240811_222921638.jpg","PilotCam","/PilotCam.20240811_222921638.jpg","BrowCam","/BrowCam.20240811_222921638.jpg","UserSelect","/UserSelect.20240811_222921638.jpg","","","-999.99","18.37","-999.99","-999.99","66b93b41111b2e001a286ca4"
"2024-08-11T22:29:36.661Z","45.9166465","-130.0249832","ASNAP","","admin","","","","","","","","","1.30","-2.24","-1.6","-1.2","128.67","0.93","0.58","SciCam","/SciCam.20240811_222936661.jpg","PilotCam","/PilotCam.20240811_222936661.jpg","BrowCam","/BrowCam.20240811_222936661.jpg","UserSelect","/UserSelect.20240811_222936661.jpg","","","-999.99","18.51","-999.99","-999.99","66b93b50111b2e001a286ca8"
"2024-08-11T22:29:51.695Z","45.9166455","-130.0249845","ASNAP","","admin","","","","","","","","","1.20","-2.35","0.2","0.1","128.67","0.92","0.58","SciCam","/SciCam.20240811_222951695.jpg","PilotCam","/PilotCam.20240811_222951695.jpg","BrowCam","/BrowCam.20240811_222951695.jpg","UserSelect","/UserSelect.20240811_222951695.jpg","","","-999.99","18.58","-999.99","-999.99","66b93b5f111b2e001a286cac"
"2024-08-11T22:30:06.726Z","45.9166459","-130.0249840","ASNAP","","admin","","","","","","","","","1.24","-2.31","-0.2","-0.3","128.67","0.93","0.58","SciCam","/SciCam.20240811_223006726.jpg","PilotCam","/PilotCam.20240811_223006726.jpg","BrowCam","/BrowCam.20240811_223006726.jpg","UserSelect","/UserSelect.20240811_223006726.jpg","","","-999.99","18.49","-999.99","-999.99","66b93b6e111b2e001a286cb0"
"2024-08-11T22:30:21.754Z","45.9166459","-130.0249840","ASNAP","","admin","","","","","","","","","1.24","-2.31","-1.2","-0.0","128.67","0.94","0.58","SciCam","/SciCam.20240811_223021754.jpg","PilotCam","/PilotCam.20240811_223021754.jpg","BrowCam","/BrowCam.20240811_223021754.jpg","UserSelect","/UserSelect.20240811_223021754.jpg","","","-999.99","18.49","-999.99","-999.99","66b93b7d111b2e001a286cb4"
"2024-08-11T22:30:36.785Z","45.9166462","-130.0249836","ASNAP","","admin","","","","","","","","","1.27","-2.28","-1.7","-0.3","128.67","0.92","0.58","SciCam","/SciCam.20240811_223036785.jpg","PilotCam","/PilotCam.20240811_223036785.jpg","BrowCam","/BrowCam.20240811_223036785.jpg","UserSelect","/UserSelect.20240811_223036785.jpg","","","-999.99","18.48","-999.99","-999.99","66b93b8c111b2e001a286cb8"
"2024-08-11T22:30:51.771Z","45.9166456","-130.0249844","FREE_FORM","Jason sitting in the launch position while a camera issue is figured out in the control van ","guest","","","","","","","","","1.21","-2.34","-0.7","-0.2","128.67","0.92","0.58","SciCam","/SciCam.20240811_223051771.jpg","PilotCam","/PilotCam.20240811_223051771.jpg","BrowCam","/BrowCam.20240811_223051771.jpg","UserSelect","/UserSelect.20240811_223051771.jpg","","","-999.99","18.52","-999.99","-999.99","66b93b9b111b2e001a286cbc"
"2024-08-11T22:30:51.811Z","45.9166456","-130.0249844","ASNAP","","admin","","","","","","","","","1.21","-2.34","-0.7","-0.2","128.67","0.92","0.58","SciCam","/SciCam.20240811_223051811.jpg","PilotCam","/PilotCam.20240811_223051811.jpg","BrowCam","/BrowCam.20240811_223051811.jpg","UserSelect","/UserSelect.20240811_223051811.jpg","","","-999.99","18.52","-999.99","-999.99","66b93b9b111b2e001a286cbf"
"2024-08-11T22:31:06.845Z","45.9166450","-130.0249850","ASNAP","","admin","","","","","","","","","1.16","-2.41","0.3","0.0","128.67","0.93","0.58","SciCam","/SciCam.20240811_223106845.jpg","PilotCam","/PilotCam.20240811_223106845.jpg","BrowCam","/BrowCam.20240811_223106845.jpg","UserSelect","/UserSelect.20240811_223106845.jpg","","","-999.99","18.56","-999.99","-999.99","66b93baa111b2e001a286cc4"
"2024-08-11T22:31:21.868Z","45.9166449","-130.0250146","ASNAP","","admin","","","","","","","","","-1.13","-2.42","-0.4","-0.8","201.21","0.92","0.58","SciCam","/SciCam.20240811_223121868.jpg","PilotCam","/PilotCam.20240811_223121868.jpg","BrowCam","/BrowCam.20240811_223121868.jpg","UserSelect","/UserSelect.20240811_223121868.jpg","","","-999.99","18.57","-999.99","-999.99","66b93bb9111b2e001a286cc8"
"2024-08-11T22:31:36.902Z","45.9166448","-130.0250146","ASNAP","","admin","","","","","","","","","-1.13","-2.43","-2.0","-0.1","200.78","0.93","0.58","SciCam","/SciCam.20240811_223136902.jpg","PilotCam","/PilotCam.20240811_223136902.jpg","BrowCam","/BrowCam.20240811_223136902.jpg","UserSelect","/UserSelect.20240811_223136902.jpg","","","-999.99","18.59","-999.99","-999.99","66b93bc8111b2e001a286ccc"
"2024-08-11T22:31:51.934Z","45.9166452","-130.0250150","ASNAP","","admin","","","","","","","","","-1.16","-2.39","-1.1","-1.1","202.45","0.90","0.58","SciCam","/SciCam.20240811_223151934.jpg","PilotCam","/PilotCam.20240811_223151934.jpg","BrowCam","/BrowCam.20240811_223151934.jpg","UserSelect","/UserSelect.20240811_223151934.jpg","","","-999.99","18.61","-999.99","-999.99","66b93bd7111b2e001a286cd0"
"2024-08-11T22:32:06.965Z","45.9166449","-130.0250147","ASNAP","","admin","","","","","","","","","-1.14","-2.42","-0.5","0.3","201.40","0.90","0.58","SciCam","/SciCam.20240811_223206965.jpg","PilotCam","/PilotCam.20240811_223206965.jpg","BrowCam","/BrowCam.20240811_223206965.jpg","UserSelect","/UserSelect.20240811_223206965.jpg","","","-999.99","18.61","-999.99","-999.99","66b93be6111b2e001a286cd4"
"2024-08-11T22:32:21.997Z","45.9166452","-130.0250153","ASNAP","","admin","","","","","","","","","-1.19","-2.39","-2.9","2.0","202.79","0.90","0.58","SciCam","/SciCam.20240811_223221997.jpg","PilotCam","/PilotCam.20240811_223221997.jpg","BrowCam","/BrowCam.20240811_223221997.jpg","UserSelect","/UserSelect.20240811_223221997.jpg","","","-999.99","18.63","-999.99","-999.99","66b93bf5111b2e001a286cd8"
"2024-08-11T22:32:37.025Z","45.9166453","-130.0250151","ASNAP","","admin","","","","","","","","","-1.17","-2.37","-0.8","-1.4","202.65","0.94","0.58","SciCam","/SciCam.20240811_223237025.jpg","PilotCam","/PilotCam.20240811_223237025.jpg","BrowCam","/BrowCam.20240811_223237025.jpg","UserSelect","/UserSelect.20240811_223237025.jpg","","","-999.99","18.65","-999.99","-999.99","66b93c05111b2e001a286cdc"
"2024-08-11T22:32:52.055Z","45.9166456","-130.0250155","ASNAP","","admin","","","","","","","","","-1.20","-2.34","-1.2","-0.9","203.72","0.94","0.58","SciCam","/SciCam.20240811_223252055.jpg","PilotCam","/PilotCam.20240811_223252055.jpg","BrowCam","/BrowCam.20240811_223252055.jpg","UserSelect","/UserSelect.20240811_223252055.jpg","","","-999.99","18.66","-999.99","-999.99","66b93c14111b2e001a286ce0"
"2024-08-11T22:33:07.086Z","45.9166457","-130.0250155","ASNAP","","admin","","","","","","","","","-1.20","-2.33","0.4","-1.3","204.11","0.94","0.58","SciCam","/SciCam.20240811_223307086.jpg","PilotCam","/PilotCam.20240811_223307086.jpg","BrowCam","/BrowCam.20240811_223307086.jpg","UserSelect","/UserSelect.20240811_223307086.jpg","","","-999.99","18.67","-999.99","-999.99","66b93c23111b2e001a286ce4"
"2024-08-11T22:33:22.118Z","45.9166459","-130.0250159","ASNAP","","admin","","","","","","","","","-1.23","-2.31","-1.3","-1.3","204.71","0.95","0.58","SciCam","/SciCam.20240811_223322118.jpg","PilotCam","/PilotCam.20240811_223322118.jpg","BrowCam","/BrowCam.20240811_223322118.jpg","UserSelect","/UserSelect.20240811_223322118.jpg","","","-999.99","18.69","-999.99","-999.99","66b93c32111b2e001a286ce8"
"2024-08-11T22:33:37.147Z","45.9166455","-130.0250155","ASNAP","","admin","","","","","","","","","-1.20","-2.35","-0.6","-0.7","203.52","0.97","0.58","SciCam","/SciCam.20240811_223337147.jpg","PilotCam","/PilotCam.20240811_223337147.jpg","BrowCam","/BrowCam.20240811_223337147.jpg","UserSelect","/UserSelect.20240811_223337147.jpg","","","-999.99","18.65","-999.99","-999.99","66b93c41111b2e001a286cec"
"2024-08-11T22:33:52.176Z","45.9166457","-130.0250157","ASNAP","","admin","","","","","","","","","-1.22","-2.33","-0.7","-0.6","204.27","0.95","0.58","SciCam","/SciCam.20240811_223352176.jpg","PilotCam","/PilotCam.20240811_223352176.jpg","BrowCam","/BrowCam.20240811_223352176.jpg","UserSelect","/UserSelect.20240811_223352176.jpg","","","-999.99","18.66","-999.99","-999.99","66b93c50111b2e001a286cf0"
"2024-08-11T22:34:07.209Z","45.9166456","-130.0250155","ASNAP","","admin","","","","","","","","","-1.20","-2.34","-0.1","-1.1","203.87","0.94","0.58","SciCam","/SciCam.20240811_223407209.jpg","PilotCam","/PilotCam.20240811_223407209.jpg","BrowCam","/BrowCam.20240811_223407209.jpg","UserSelect","/UserSelect.20240811_223407209.jpg","","","-999.99","18.68","-999.99","-999.99","66b93c5f111b2e001a286cf4"
"2024-08-11T22:34:22.238Z","45.9166457","-130.0250156","ASNAP","","admin","","","","","","","","","-1.21","-2.33","0.0","-1.3","204.11","0.94","0.58","SciCam","/SciCam.20240811_223422238.jpg","PilotCam","/PilotCam.20240811_223422238.jpg","BrowCam","/BrowCam.20240811_223422238.jpg","UserSelect","/UserSelect.20240811_223422238.jpg","","","-999.99","18.68","-999.99","-999.99","66b93c6e111b2e001a286cf8"
"2024-08-11T22:34:37.268Z","45.9166529","-130.0250227","ASNAP","","admin","","","","","","","","","-1.76","-1.53","1.3","5.0","226.69","0.84","0.58","SciCam","/SciCam.20240811_223437268.jpg","PilotCam","/PilotCam.20240811_223437268.jpg","BrowCam","/BrowCam.20240811_223437268.jpg","UserSelect","/UserSelect.20240811_223437268.jpg","","","-999.99","18.68","-999.99","-999.99","66b93c7d111b2e001a286cfc"
"2024-08-11T22:34:40.804Z","45.9166561","-130.0250236","VEHICLE","Jason in water with SPA to be deployed at AB-200m platform","guest","","Jason in water","","","","","","","-1.83","-1.18","-2.2","-2.6","233.71","1.30","0.58","SciCam","/SciCam.20240811_223440804.jpg","PilotCam","/PilotCam.20240811_223440804.jpg","BrowCam","/BrowCam.20240811_223440804.jpg","UserSelect","/UserSelect.20240811_223440804.jpg","","","-999.99","18.70","-999.99","-999.99","66b93c80111b2e001a286d00"
"2024-08-11T22:34:52.299Z","45.9166663","-130.0250246","ASNAP","","admin","","","","","","","","","-1.91","-0.04","-2.2","-12.0","255.53","2.53","0.58","SciCam","/SciCam.20240811_223452299.jpg","PilotCam","/PilotCam.20240811_223452299.jpg","BrowCam","/BrowCam.20240811_223452299.jpg","UserSelect","/UserSelect.20240811_223452299.jpg","","","-999.99","18.53","-999.99","-999.99","66b93c8c111b2e001a286d04"
"2024-08-11T22:35:07.325Z","45.9166687","-130.0250316","ASNAP","","admin","","","","","","","","","-2.45","0.23","-7.9","-6.2","256.70","2.79","0.58","SciCam","/SciCam.20240811_223507325.jpg","PilotCam","/PilotCam.20240811_223507325.jpg","BrowCam","/BrowCam.20240811_223507325.jpg","UserSelect","/UserSelect.20240811_223507325.jpg","","","-999.99","18.23","-999.99","-999.99","66b93c9b111b2e001a286d08"
"2024-08-11T22:35:22.355Z","45.9166684","-130.0250334","ASNAP","","admin","","","","","","","","","-2.59","0.19","-5.4","-4.8","257.51","2.74","0.58","SciCam","/SciCam.20240811_223522355.jpg","PilotCam","/PilotCam.20240811_223522355.jpg","BrowCam","/BrowCam.20240811_223522355.jpg","UserSelect","/UserSelect.20240811_223522355.jpg","","","-999.99","18.03","-999.99","-999.99","66b93caa111b2e001a286d0c"
"2024-08-11T22:35:37.387Z","45.9166639","-130.0250313","ASNAP","","admin","","","","","","","","","-2.43","-0.31","0.5","-1.4","257.36","2.91","0.58","SciCam","/SciCam.20240811_223537387.jpg","PilotCam","/PilotCam.20240811_223537387.jpg","BrowCam","/BrowCam.20240811_223537387.jpg","UserSelect","/UserSelect.20240811_223537387.jpg","","","-999.99","17.91","-999.99","-999.99","66b93cb9111b2e001a286d10"
"2024-08-11T22:35:52.419Z","45.9166632","-130.0250290","ASNAP","","admin","","","","","","","","","-2.25","-0.39","-0.8","-4.5","255.96","5.40","0.58","SciCam","/SciCam.20240811_223552419.jpg","PilotCam","/PilotCam.20240811_223552419.jpg","BrowCam","/BrowCam.20240811_223552419.jpg","UserSelect","/UserSelect.20240811_223552419.jpg","","","-999.99","17.99","-999.99","-999.99","66b93cc8111b2e001a286d14"
"2024-08-11T22:36:07.449Z","45.9166623","-130.0250277","ASNAP","","admin","","","","","","","","","-2.15","-0.48","-2.0","-2.6","257.86","8.44","0.58","SciCam","/SciCam.20240811_223607449.jpg","PilotCam","/PilotCam.20240811_223607449.jpg","BrowCam","/BrowCam.20240811_223607449.jpg","UserSelect","/UserSelect.20240811_223607449.jpg","","","-999.99","18.05","-999.99","-999.99","66b93cd7111b2e001a286d18"
"2024-08-11T22:36:22.479Z","45.9166604","-130.0250267","ASNAP","","admin","","","","","","","","","-2.07","-0.70","-2.1","-2.4","256.72","8.76","0.58","SciCam","/SciCam.20240811_223622479.jpg","PilotCam","/PilotCam.20240811_223622479.jpg","BrowCam","/BrowCam.20240811_223622479.jpg","UserSelect","/UserSelect.20240811_223622479.jpg","","","-999.99","17.94","-999.99","-999.99","66b93ce6111b2e001a286d1c"
"2024-08-11T22:36:37.511Z","45.9166606","-130.0250273","ASNAP","","admin","","","","","","","","","-2.12","-0.67","-2.1","0.7","258.91","8.00","1.25","SciCam","/SciCam.20240811_223637511.jpg","PilotCam","/PilotCam.20240811_223637511.jpg","BrowCam","/BrowCam.20240811_223637511.jpg","UserSelect","/UserSelect.20240811_223637511.jpg","","","-999.99","18.01","-999.99","-999.99","66b93cf5111b2e001a286d20"
"2024-08-11T22:36:52.542Z","45.9166596","-130.0250247","ASNAP","","admin","","","","","","","","","-1.92","-0.78","-0.6","-1.0","258.27","7.95","0.58","SciCam","/SciCam.20240811_223652542.jpg","PilotCam","/PilotCam.20240811_223652542.jpg","BrowCam","/BrowCam.20240811_223652542.jpg","UserSelect","/UserSelect.20240811_223652542.jpg","","","-999.99","17.95","-999.99","-999.99","66b93d04111b2e001a286d24"
"2024-08-11T22:37:05.107Z","45.9166593","-130.0250227","ROV Actions","football closest to Jason installed","guest","First Football on","","","","","","","","-1.76","-0.82","-3.4","-1.4","257.44","8.51","0.58","SciCam","/SciCam.20240811_223705107.jpg","PilotCam","/PilotCam.20240811_223705107.jpg","BrowCam","/BrowCam.20240811_223705107.jpg","UserSelect","/UserSelect.20240811_223705107.jpg","","","-999.99","17.97","-999.99","-999.99","66b93d11111b2e001a286d2c"
"2024-08-11T22:37:07.573Z","45.9166582","-130.0250226","ASNAP","","admin","","","","","","","","","-1.75","-0.94","1.9","-1.7","256.54","8.96","0.58","SciCam","/SciCam.20240811_223707573.jpg","PilotCam","/PilotCam.20240811_223707573.jpg","BrowCam","/BrowCam.20240811_223707573.jpg","UserSelect","/UserSelect.20240811_223707573.jpg","","","-999.99","17.82","-999.99","-999.99","66b93d13111b2e001a286d30"
"2024-08-11T22:37:22.605Z","45.9166585","-130.0250206","ASNAP","","admin","","","","","","","","","-1.60","-0.91","1.8","-2.3","260.21","12.14","0.58","SciCam","/SciCam.20240811_223722605.jpg","PilotCam","/PilotCam.20240811_223722605.jpg","BrowCam","/BrowCam.20240811_223722605.jpg","UserSelect","/UserSelect.20240811_223722605.jpg","","","-999.99","18.02","-999.99","-999.99","66b93d22111b2e001a286d34"
"2024-08-11T22:37:37.636Z","45.9166561","-130.0250208","ASNAP","","admin","","","","","","","","","-1.61","-1.17","-0.7","-3.5","257.16","11.35","0.58","SciCam","/SciCam.20240811_223737636.jpg","PilotCam","/PilotCam.20240811_223737636.jpg","BrowCam","/BrowCam.20240811_223737636.jpg","UserSelect","/UserSelect.20240811_223737636.jpg","","","-999.99","18.00","-999.99","-999.99","66b93d31111b2e001a286d38"
"2024-08-11T22:37:52.658Z","45.9166535","-130.0250193","ASNAP","","admin","","","","","","","","","-1.50","-1.46","-1.2","-2.2","256.29","13.23","0.58","SciCam","/SciCam.20240811_223752658.jpg","PilotCam","/PilotCam.20240811_223752658.jpg","BrowCam","/BrowCam.20240811_223752658.jpg","UserSelect","/UserSelect.20240811_223752658.jpg","","","-999.99","18.03","-999.99","-999.99","66b93d40111b2e001a286d3c"
"2024-08-11T22:38:07.689Z","45.9166540","-130.0250192","ASNAP","","admin","","","","","","","","","-1.49","-1.41","0.6","-2.9","258.49","16.22","0.58","SciCam","/SciCam.20240811_223807689.jpg","PilotCam","/PilotCam.20240811_223807689.jpg","BrowCam","/BrowCam.20240811_223807689.jpg","UserSelect","/UserSelect.20240811_223807689.jpg","","","-999.99","17.83","-999.99","-999.99","66b93d4f111b2e001a286d40"
"2024-08-11T22:38:22.721Z","45.9166548","-130.0250179","ASNAP","","admin","","","","","","","","","-1.39","-1.32","-3.2","-2.4","261.25","14.61","0.58","SciCam","/SciCam.20240811_223822721.jpg","PilotCam","/PilotCam.20240811_223822721.jpg","BrowCam","/BrowCam.20240811_223822721.jpg","UserSelect","/UserSelect.20240811_223822721.jpg","","","-999.99","17.91","-999.99","-999.99","66b93d5e111b2e001a286d44"
"2024-08-11T22:38:37.744Z","45.9166508","-130.0250175","ASNAP","","admin","","","","","","","","","-1.36","-1.76","-2.0","-1.5","256.91","15.21","0.58","SciCam","/SciCam.20240811_223837744.jpg","PilotCam","/PilotCam.20240811_223837744.jpg","BrowCam","/BrowCam.20240811_223837744.jpg","UserSelect","/UserSelect.20240811_223837744.jpg","","","-999.99","18.01","-999.99","-999.99","66b93d6d111b2e001a286d48"
"2024-08-11T22:38:52.760Z","45.9166471","-130.0250157","ASNAP","","admin","","","","","","","","","-1.22","-2.18","0.1","-4.0","251.68","19.10","0.58","SciCam","/SciCam.20240811_223852760.jpg","PilotCam","/PilotCam.20240811_223852760.jpg","BrowCam","/BrowCam.20240811_223852760.jpg","UserSelect","/UserSelect.20240811_223852760.jpg","","","-999.99","17.96","-999.99","-999.99","66b93d7c111b2e001a286d4c"
"2024-08-11T22:39:07.776Z","45.9166484","-130.0250122","ASNAP","","admin","","","","","","","","","-0.95","-2.03","-0.8","-2.3","256.79","19.11","0.58","SciCam","/SciCam.20240811_223907776.jpg","PilotCam","/PilotCam.20240811_223907776.jpg","BrowCam","/BrowCam.20240811_223907776.jpg","UserSelect","/UserSelect.20240811_223907776.jpg","","","-999.99","17.86","-999.99","-999.99","66b93d8b111b2e001a286d50"
"2024-08-11T22:39:22.794Z","45.9166474","-130.0250107","ASNAP","","admin","","","","","","","","","-0.83","-2.14","1.4","-2.7","257.57","23.37","0.58","SciCam","/SciCam.20240811_223922794.jpg","PilotCam","/PilotCam.20240811_223922794.jpg","BrowCam","/BrowCam.20240811_223922794.jpg","UserSelect","/UserSelect.20240811_223922794.jpg","","","-999.99","17.80","-999.99","-999.99","66b93d9a111b2e001a286d54"
"2024-08-11T22:39:37.825Z","45.9166471","-130.0250102","ASNAP","","admin","","","","","","","","","-0.79","-2.18","-1.9","-2.9","259.94","22.60","0.58","SciCam","/SciCam.20240811_223937825.jpg","PilotCam","/PilotCam.20240811_223937825.jpg","BrowCam","/BrowCam.20240811_223937825.jpg","UserSelect","/UserSelect.20240811_223937825.jpg","","","-999.99","17.66","-999.99","-999.99","66b93da9111b2e001a286d58"
"2024-08-11T22:39:52.858Z","45.9166453","-130.0250094","ASNAP","","admin","","","","","","","","","-0.73","-2.37","-0.7","-4.1","258.57","25.16","0.58","SciCam","/SciCam.20240811_223952858.jpg","PilotCam","/PilotCam.20240811_223952858.jpg","BrowCam","/BrowCam.20240811_223952858.jpg","UserSelect","/UserSelect.20240811_223952858.jpg","","","-999.99","17.75","-999.99","-999.99","66b93db8111b2e001a286d5c"
"2024-08-11T22:40:07.891Z","45.9166427","-130.0250104","ASNAP","","admin","","","","","","","","","-0.81","-2.66","-2.2","-3.0","256.97","28.94","0.58","SciCam","/SciCam.20240811_224007891.jpg","PilotCam","/PilotCam.20240811_224007891.jpg","BrowCam","/BrowCam.20240811_224007891.jpg","UserSelect","/UserSelect.20240811_224007891.jpg","","","-999.99","17.41","-999.99","-999.99","66b93dc7111b2e001a286d60"
"2024-08-11T22:40:20.422Z","45.9166419","-130.0250095","Biology Type","","guest","","","Shark","","","","","","-0.74","-2.75","-2.3","-4.3","256.92","28.24","0.58","SciCam","/SciCam.20240811_224020422.jpg","PilotCam","/PilotCam.20240811_224020422.jpg","BrowCam","/BrowCam.20240811_224020422.jpg","UserSelect","/UserSelect.20240811_224020422.jpg","","","-999.99","16.76","-999.99","-999.99","66b93dd4111b2e001a286d64"
"2024-08-11T22:40:22.923Z","45.9166411","-130.0250098","ASNAP","","admin","","","","","","","","","-0.76","-2.84","-0.9","-2.7","255.42","28.17","0.58","SciCam","/SciCam.20240811_224022923.jpg","PilotCam","/PilotCam.20240811_224022923.jpg","BrowCam","/BrowCam.20240811_224022923.jpg","UserSelect","/UserSelect.20240811_224022923.jpg","","","-999.99","16.54","-999.99","-999.99","66b93dd6111b2e001a286d68"
"2024-08-11T22:40:37.953Z","45.9166415","-130.0250093","ASNAP","","admin","","","","","","","","","-0.72","-2.80","-1.3","-3.4","256.53","31.94","0.58","SciCam","/SciCam.20240811_224037953.jpg","PilotCam","/PilotCam.20240811_224037953.jpg","BrowCam","/BrowCam.20240811_224037953.jpg","UserSelect","/UserSelect.20240811_224037953.jpg","","","-999.99","15.96","-999.99","-999.99","66b93de5111b2e001a286d6c"
"2024-08-11T22:40:52.979Z","45.9166420","-130.0250090","ASNAP","","admin","","","","","","","","","-0.70","-2.74","0.5","-4.0","258.45","33.01","0.58","SciCam","/SciCam.20240811_224052979.jpg","PilotCam","/PilotCam.20240811_224052979.jpg","BrowCam","/BrowCam.20240811_224052979.jpg","UserSelect","/UserSelect.20240811_224052979.jpg","","","-999.99","15.54","-999.99","-999.99","66b93df4111b2e001a286d70"
"2024-08-11T22:41:08.011Z","45.9166408","-130.0250092","ASNAP","","admin","","","","","","","","","-0.71","-2.87","-1.3","-3.4","258.42","32.28","0.58","SciCam","/SciCam.20240811_224108011.jpg","PilotCam","/PilotCam.20240811_224108011.jpg","BrowCam","/BrowCam.20240811_224108011.jpg","UserSelect","/UserSelect.20240811_224108011.jpg","","","-999.99","15.02","-999.99","-999.99","66b93e04111b2e001a286d74"
"2024-08-11T22:41:23.044Z","45.9166392","-130.0250088","ASNAP","","admin","","","","","","","","","-0.68","-3.05","0.2","-3.3","257.12","32.46","0.58","SciCam","/SciCam.20240811_224123044.jpg","PilotCam","/PilotCam.20240811_224123044.jpg","BrowCam","/BrowCam.20240811_224123044.jpg","UserSelect","/UserSelect.20240811_224123044.jpg","","","-999.99","14.81","-999.99","-999.99","66b93e13111b2e001a286d78"
"2024-08-11T22:41:38.080Z","45.9166381","-130.0250090","ASNAP","","admin","","","","","","","","","-0.70","-3.18","-0.1","-6.2","256.86","32.61","0.58","SciCam","/SciCam.20240811_224138080.jpg","PilotCam","/PilotCam.20240811_224138080.jpg","BrowCam","/BrowCam.20240811_224138080.jpg","UserSelect","/UserSelect.20240811_224138080.jpg","","","-999.99","14.73","-999.99","-999.99","66b93e22111b2e001a286d7c"
"2024-08-11T22:41:53.111Z","45.9166361","-130.0250112","ASNAP","","admin","","","","","","","","","-0.87","-3.40","0.7","-2.9","256.68","33.02","0.58","SciCam","/SciCam.20240811_224153111.jpg","PilotCam","/PilotCam.20240811_224153111.jpg","BrowCam","/BrowCam.20240811_224153111.jpg","UserSelect","/UserSelect.20240811_224153111.jpg","","","-999.99","14.48","-999.99","-999.99","66b93e31111b2e001a286d80"
"2024-08-11T22:42:05.953Z","45.9166351","-130.0250130","ROV Actions","Football furthest from Jason installed","guest","Last Football on","","","","","","","","-1.01","-3.51","0.1","-3.2","256.64","33.19","0.58","SciCam","/SciCam.20240811_224205953.jpg","PilotCam","/PilotCam.20240811_224205953.jpg","BrowCam","/BrowCam.20240811_224205953.jpg","UserSelect","/UserSelect.20240811_224205953.jpg","","","-999.99","14.49","-999.99","-999.99","66b93e3d111b2e001a286d88"
"2024-08-11T22:42:08.142Z","45.9166355","-130.0250130","ASNAP","","admin","","","","","","","","","-1.01","-3.46","-2.0","-2.5","259.00","33.21","0.58","SciCam","/SciCam.20240811_224208142.jpg","PilotCam","/PilotCam.20240811_224208142.jpg","BrowCam","/BrowCam.20240811_224208142.jpg","UserSelect","/UserSelect.20240811_224208142.jpg","","","-999.99","14.61","-999.99","-999.99","66b93e40111b2e001a286d8c"
"2024-08-11T22:42:23.168Z","45.9166345","-130.0250128","ASNAP","","admin","","","","","","","","","-0.99","-3.58","0.3","-4.6","255.77","36.51","0.58","SciCam","/SciCam.20240811_224223168.jpg","PilotCam","/PilotCam.20240811_224223168.jpg","BrowCam","/BrowCam.20240811_224223168.jpg","UserSelect","/UserSelect.20240811_224223168.jpg","","","-999.99","14.33","-999.99","-999.99","66b93e4f111b2e001a286d90"
"2024-08-11T22:42:38.203Z","45.9166345","-130.0250150","ASNAP","","admin","","","","","","","","","-1.16","-3.57","-0.6","-3.7","255.34","47.21","0.58","SciCam","/SciCam.20240811_224238203.jpg","PilotCam","/PilotCam.20240811_224238203.jpg","BrowCam","/BrowCam.20240811_224238203.jpg","UserSelect","/UserSelect.20240811_224238203.jpg","","","-999.99","13.95","-999.99","-999.99","66b93e5e111b2e001a286d94"
"2024-08-11T22:42:53.234Z","45.9166537","-130.0250092","ASNAP","","admin","","","","","","","","","-0.71","-1.44","-0.8","-4.6","304.96","54.08","0.58","SciCam","/SciCam.20240811_224253234.jpg","PilotCam","/PilotCam.20240811_224253234.jpg","BrowCam","/BrowCam.20240811_224253234.jpg","UserSelect","/UserSelect.20240811_224253234.jpg","","","-999.99","13.42","-999.99","-999.99","66b93e6d111b2e001a286d98"
"2024-08-11T22:43:08.260Z","45.9166547","-130.0250120","ASNAP","","admin","","","","","","","","","-0.93","-1.33","-0.2","-4.4","303.99","56.38","0.58","SciCam","/SciCam.20240811_224308260.jpg","PilotCam","/PilotCam.20240811_224308260.jpg","BrowCam","/BrowCam.20240811_224308260.jpg","UserSelect","/UserSelect.20240811_224308260.jpg","","","-999.99","12.93","-999.99","-999.99","66b93e7c111b2e001a286d9c"
"2024-08-11T22:43:23.289Z","45.9166558","-130.0250137","ASNAP","","admin","","","","","","","","","-1.06","-1.21","-0.4","-4.5","303.45","58.90","0.58","SciCam","/SciCam.20240811_224323289.jpg","PilotCam","/PilotCam.20240811_224323289.jpg","BrowCam","/BrowCam.20240811_224323289.jpg","UserSelect","/UserSelect.20240811_224323289.jpg","","","-999.99","12.37","-999.99","-999.99","66b93e8b111b2e001a286da0"
"2024-08-11T22:43:38.319Z","45.9166569","-130.0250162","ASNAP","","admin","","","","","","","","","-1.26","-1.09","-0.4","-4.1","303.88","62.58","0.58","SciCam","/SciCam.20240811_224338319.jpg","PilotCam","/PilotCam.20240811_224338319.jpg","BrowCam","/BrowCam.20240811_224338319.jpg","UserSelect","/UserSelect.20240811_224338319.jpg","","","-999.99","11.97","-999.99","-999.99","66b93e9a111b2e001a286da4"
"2024-08-11T22:43:53.348Z","45.9166583","-130.0250189","ASNAP","","admin","","","","","","","","","-1.47","-0.93","-0.4","-4.2","303.69","66.49","0.58","SciCam","/SciCam.20240811_224353348.jpg","PilotCam","/PilotCam.20240811_224353348.jpg","BrowCam","/BrowCam.20240811_224353348.jpg","UserSelect","/UserSelect.20240811_224353348.jpg","","","-999.99","11.61","-999.99","-999.99","66b93ea9111b2e001a286da8"
"2024-08-11T22:44:08.379Z","45.9166596","-130.0250202","ASNAP","","admin","","","","","","","","","-1.57","-0.78","-0.4","-4.2","303.93","70.50","0.58","SciCam","/SciCam.20240811_224408379.jpg","PilotCam","/PilotCam.20240811_224408379.jpg","BrowCam","/BrowCam.20240811_224408379.jpg","UserSelect","/UserSelect.20240811_224408379.jpg","","","-999.99","11.25","-999.99","-999.99","66b93eb8111b2e001a286dac"
"2024-08-11T22:44:14.374Z","45.9166601","-130.0250209","Biology Type","","guest","","","Shark","","","","","","-1.62","-0.73","-0.5","-4.1","303.80","72.15","0.58","SciCam","/SciCam.20240811_224414374.jpg","PilotCam","/PilotCam.20240811_224414374.jpg","BrowCam","/BrowCam.20240811_224414374.jpg","UserSelect","/UserSelect.20240811_224414374.jpg","","","-999.99","11.14","-999.99","-999.99","66b93ebe111b2e001a286db0"
"2024-08-11T22:44:23.408Z","45.9166606","-130.0250226","ASNAP","","admin","","","","","","","","","-1.75","-0.67","-0.3","-4.0","303.91","74.64","0.58","SciCam","/SciCam.20240811_224423408.jpg","PilotCam","/PilotCam.20240811_224423408.jpg","BrowCam","/BrowCam.20240811_224423408.jpg","UserSelect","/UserSelect.20240811_224423408.jpg","","","-999.99","10.71","-999.99","-999.99","66b93ec7111b2e001a286db4"
"2024-08-11T22:44:38.441Z","45.9166614","-130.0250246","ASNAP","","admin","","","","","","","","","-1.91","-0.58","-0.7","-4.1","303.69","78.81","0.58","SciCam","/SciCam.20240811_224438441.jpg","PilotCam","/PilotCam.20240811_224438441.jpg","BrowCam","/BrowCam.20240811_224438441.jpg","UserSelect","/UserSelect.20240811_224438441.jpg","","","-999.99","10.61","-999.99","-999.99","66b93ed6111b2e001a286db8"
"2024-08-11T22:44:53.472Z","45.9166614","-130.0250276","ASNAP","","admin","","","","","","","","","-2.14","-0.59","-0.6","-3.8","303.29","84.19","0.58","SciCam","/SciCam.20240811_224453472.jpg","PilotCam","/PilotCam.20240811_224453472.jpg","BrowCam","/BrowCam.20240811_224453472.jpg","UserSelect","/UserSelect.20240811_224453472.jpg","","","-999.99","10.12","-999.99","-999.99","66b93ee5111b2e001a286dbc"
"2024-08-11T22:45:08.492Z","45.9166541","-130.0250363","ASNAP","","admin","","","","","","","","","-2.82","-1.40","-1.4","-4.7","279.62","91.42","0.58","SciCam","/SciCam.20240811_224508492.jpg","PilotCam","/PilotCam.20240811_224508492.jpg","BrowCam","/BrowCam.20240811_224508492.jpg","UserSelect","/UserSelect.20240811_224508492.jpg","","","-999.99","9.90","-999.99","-999.99","66b93ef4111b2e001a286dc0"
"2024-08-11T22:45:23.524Z","45.9166545","-130.0250357","ASNAP","","admin","","","","","","","","","-2.77","-1.35","-0.5","-3.7","280.62","98.28","0.58","SciCam","/SciCam.20240811_224523524.jpg","PilotCam","/PilotCam.20240811_224523524.jpg","BrowCam","/BrowCam.20240811_224523524.jpg","UserSelect","/UserSelect.20240811_224523524.jpg","","","-999.99","9.79","-999.99","-999.99","66b93f03111b2e001a286dc4"
"2024-08-11T22:45:38.544Z","45.9166548","-130.0250348","ASNAP","","admin","","","","","","","","","-2.70","-1.32","-0.5","-3.7","280.93","105.54","0.58","SciCam","/SciCam.20240811_224538544.jpg","PilotCam","/PilotCam.20240811_224538544.jpg","BrowCam","/BrowCam.20240811_224538544.jpg","UserSelect","/UserSelect.20240811_224538544.jpg","","","-999.99","9.57","-999.99","-999.99","66b93f12111b2e001a286dc8"
"2024-08-11T22:45:53.574Z","45.9166551","-130.0250365","ASNAP","","admin","","","","","","","","","-2.83","-1.29","-0.6","-4.6","281.00","111.45","0.58","SciCam","/SciCam.20240811_224553574.jpg","PilotCam","/PilotCam.20240811_224553574.jpg","BrowCam","/BrowCam.20240811_224553574.jpg","UserSelect","/UserSelect.20240811_224553574.jpg","","","-999.99","9.57","-999.99","-999.99","66b93f21111b2e001a286dcc"
"2024-08-11T22:46:08.600Z","45.9166552","-130.0250397","ASNAP","","admin","","","","","","","","","-3.08","-1.27","-0.5","-3.9","280.99","116.32","0.58","SciCam","/SciCam.20240811_224608600.jpg","PilotCam","/PilotCam.20240811_224608600.jpg","BrowCam","/BrowCam.20240811_224608600.jpg","UserSelect","/UserSelect.20240811_224608600.jpg","","","-999.99","9.11","-999.99","-999.99","66b93f30111b2e001a286dd0"
"2024-08-11T22:46:23.628Z","45.9166568","-130.0250452","ASNAP","","admin","","","","","","","","","-3.51","-1.10","-0.4","-4.2","281.15","120.42","0.58","SciCam","/SciCam.20240811_224623628.jpg","PilotCam","/PilotCam.20240811_224623628.jpg","BrowCam","/BrowCam.20240811_224623628.jpg","UserSelect","/UserSelect.20240811_224623628.jpg","","","-999.99","9.00","-999.99","-999.99","66b93f3f111b2e001a286dd4"
"2024-08-11T22:46:38.659Z","45.9166575","-130.0250474","ASNAP","","admin","","","","","","","","","-3.68","-1.02","-0.5","-4.2","280.93","124.09","0.58","SciCam","/SciCam.20240811_224638659.jpg","PilotCam","/PilotCam.20240811_224638659.jpg","BrowCam","/BrowCam.20240811_224638659.jpg","UserSelect","/UserSelect.20240811_224638659.jpg","","","-999.99","8.51","-999.99","-999.99","66b93f4e111b2e001a286dd8"
"2024-08-11T22:46:53.689Z","45.9166584","-130.0250498","ASNAP","","admin","","","","","","","","","-3.86","-0.92","-0.5","-4.3","281.77","125.83","0.58","SciCam","/SciCam.20240811_224653689.jpg","PilotCam","/PilotCam.20240811_224653689.jpg","BrowCam","/BrowCam.20240811_224653689.jpg","UserSelect","/UserSelect.20240811_224653689.jpg","","","-999.99","8.45","-999.99","-999.99","66b93f5d111b2e001a286ddc"
"2024-08-11T22:47:08.723Z","45.9166586","-130.0250536","ASNAP","","admin","","","","","","","","","-4.16","-0.90","-0.6","-4.2","281.29","124.98","0.58","SciCam","/SciCam.20240811_224708723.jpg","PilotCam","/PilotCam.20240811_224708723.jpg","BrowCam","/BrowCam.20240811_224708723.jpg","UserSelect","/UserSelect.20240811_224708723.jpg","","","-999.99","8.14","-999.99","-999.99","66b93f6c111b2e001a286de0"
"2024-08-11T22:47:23.742Z","45.9166588","-130.0250566","ASNAP","","admin","","","","","","","","","-4.39","-0.87","-0.5","-4.2","281.29","125.17","0.58","SciCam","/SciCam.20240811_224723742.jpg","PilotCam","/PilotCam.20240811_224723742.jpg","BrowCam","/BrowCam.20240811_224723742.jpg","UserSelect","/UserSelect.20240811_224723742.jpg","","","-999.99","8.10","-999.99","-999.99","66b93f7b111b2e001a286de4"
"2024-08-11T22:47:38.768Z","45.9166596","-130.0250602","ASNAP","","admin","","","","","","","","","-4.67","-0.79","-0.7","-3.9","281.35","125.13","0.58","SciCam","/SciCam.20240811_224738768.jpg","PilotCam","/PilotCam.20240811_224738768.jpg","BrowCam","/BrowCam.20240811_224738768.jpg","UserSelect","/UserSelect.20240811_224738768.jpg","","","-999.99","8.20","-999.99","-999.99","66b93f8a111b2e001a286de8"
"2024-08-11T22:47:53.797Z","45.9166608","-130.0250638","ASNAP","","admin","","","","","","","","","-4.95","-0.65","-0.6","-4.0","281.34","125.09","0.58","SciCam","/SciCam.20240811_224753797.jpg","PilotCam","/PilotCam.20240811_224753797.jpg","BrowCam","/BrowCam.20240811_224753797.jpg","UserSelect","/UserSelect.20240811_224753797.jpg","","","-999.99","8.25","-999.99","-999.99","66b93f99111b2e001a286dec"
"2024-08-11T22:48:08.828Z","45.9166609","-130.0250678","ASNAP","","admin","","","","","","","","","-5.26","-0.64","-0.6","-3.9","280.99","126.71","0.58","SciCam","/SciCam.20240811_224808828.jpg","PilotCam","/PilotCam.20240811_224808828.jpg","BrowCam","/BrowCam.20240811_224808828.jpg","UserSelect","/UserSelect.20240811_224808828.jpg","","","-999.99","8.19","-999.99","-999.99","66b93fa8111b2e001a286df0"
"2024-08-11T22:48:23.861Z","45.9166614","-130.0250710","ASNAP","","admin","","","","","","","","","-5.51","-0.58","-0.6","-3.7","280.50","132.48","0.58","SciCam","/SciCam.20240811_224823861.jpg","PilotCam","/PilotCam.20240811_224823861.jpg","BrowCam","/BrowCam.20240811_224823861.jpg","UserSelect","/UserSelect.20240811_224823861.jpg","","","-999.99","8.11","-999.99","-999.99","66b93fb7111b2e001a286df4"
"2024-08-11T22:48:38.893Z","45.9166605","-130.0250710","ASNAP","","admin","","","","","","","","","-5.51","-0.69","-0.5","-4.0","281.04","137.92","0.58","SciCam","/SciCam.20240811_224838893.jpg","PilotCam","/PilotCam.20240811_224838893.jpg","BrowCam","/BrowCam.20240811_224838893.jpg","UserSelect","/UserSelect.20240811_224838893.jpg","","","-999.99","8.14","-999.99","-999.99","66b93fc6111b2e001a286df8"
"2024-08-11T22:48:53.925Z","45.9166599","-130.0250724","ASNAP","","admin","","","","","","","","","-5.62","-0.75","-0.7","-4.1","281.07","142.37","0.58","SciCam","/SciCam.20240811_224853925.jpg","PilotCam","/PilotCam.20240811_224853925.jpg","BrowCam","/BrowCam.20240811_224853925.jpg","UserSelect","/UserSelect.20240811_224853925.jpg","","","-999.99","7.94","-999.99","-999.99","66b93fd5111b2e001a286dfc"
"2024-08-11T22:49:08.955Z","45.9166600","-130.0250742","ASNAP","","admin","","","","","","","","","-5.76","-0.74","-0.5","-4.0","281.17","146.31","0.58","SciCam","/SciCam.20240811_224908955.jpg","PilotCam","/PilotCam.20240811_224908955.jpg","BrowCam","/BrowCam.20240811_224908955.jpg","UserSelect","/UserSelect.20240811_224908955.jpg","","","-999.99","7.63","-999.99","-999.99","66b93fe4111b2e001a286e00"
"2024-08-11T22:49:23.986Z","45.9166597","-130.0250754","ASNAP","","admin","","","","","","","","","-5.85","-0.77","-1.1","-3.8","281.16","150.01","0.58","SciCam","/SciCam.20240811_224923986.jpg","PilotCam","/PilotCam.20240811_224923986.jpg","BrowCam","/BrowCam.20240811_224923986.jpg","UserSelect","/UserSelect.20240811_224923986.jpg","","","-999.99","7.66","-999.99","-999.99","66b93ff3111b2e001a286e04"
"2024-08-11T22:49:34.680Z","45.9166598","-130.0250775","FREE_FORM","Stopped at 165 to test winch","guest","","","","","","","","","-6.01","-0.76","-0.5","-4.1","282.03","150.07","0.58","SciCam","/SciCam.20240811_224934680.jpg","PilotCam","/PilotCam.20240811_224934680.jpg","BrowCam","/BrowCam.20240811_224934680.jpg","UserSelect","/UserSelect.20240811_224934680.jpg","","","-999.99","7.52","-999.99","-999.99","66b93ffe111b2e001a286e08"
"2024-08-11T22:49:39.016Z","45.9166595","-130.0250788","ASNAP","","admin","","","","","","","","","-6.11","-0.80","-0.5","-3.7","281.85","149.68","0.58","SciCam","/SciCam.20240811_224939016.jpg","PilotCam","/PilotCam.20240811_224939016.jpg","BrowCam","/BrowCam.20240811_224939016.jpg","UserSelect","/UserSelect.20240811_224939016.jpg","","","-999.99","7.64","-999.99","-999.99","66b94003111b2e001a286e0c"
"2024-08-11T22:49:54.033Z","45.9166594","-130.0250813","ASNAP","","admin","","","","","","","","","-6.31","-0.81","-1.0","-3.6","281.04","149.58","0.58","SciCam","/SciCam.20240811_224954033.jpg","PilotCam","/PilotCam.20240811_224954033.jpg","BrowCam","/BrowCam.20240811_224954033.jpg","UserSelect","/UserSelect.20240811_224954033.jpg","","","-999.99","7.35","-999.99","-999.99","66b94012111b2e001a286e10"
"2024-08-11T22:50:09.062Z","45.9166588","-130.0250831","ASNAP","","admin","","","","","","","","","-6.45","-0.87","-0.9","-2.8","280.49","153.68","0.58","SciCam","/SciCam.20240811_225009062.jpg","PilotCam","/PilotCam.20240811_225009062.jpg","BrowCam","/BrowCam.20240811_225009062.jpg","UserSelect","/UserSelect.20240811_225009062.jpg","","","-999.99","7.48","-999.99","-999.99","66b94021111b2e001a286e14"
"2024-08-11T22:50:24.092Z","45.9166591","-130.0250826","ASNAP","","admin","","","","","","","","","-6.41","-0.84","-0.5","-4.1","281.03","160.19","0.58","SciCam","/SciCam.20240811_225024092.jpg","PilotCam","/PilotCam.20240811_225024092.jpg","BrowCam","/BrowCam.20240811_225024092.jpg","UserSelect","/UserSelect.20240811_225024092.jpg","","","-999.99","7.18","-999.99","-999.99","66b94030111b2e001a286e18"
"2024-08-11T22:50:39.125Z","45.9166590","-130.0250821","ASNAP","","admin","","","","","","","","","-6.37","-0.85","-0.7","-3.5","280.63","166.16","0.58","SciCam","/SciCam.20240811_225039125.jpg","PilotCam","/PilotCam.20240811_225039125.jpg","BrowCam","/BrowCam.20240811_225039125.jpg","UserSelect","/UserSelect.20240811_225039125.jpg","","","-999.99","7.33","-999.99","-999.99","66b9403f111b2e001a286e1c"
"2024-08-11T22:50:54.158Z","45.9166594","-130.0250800","ASNAP","","admin","","","","","","","","","-6.21","-0.81","-0.8","-2.6","281.37","172.17","0.58","SciCam","/SciCam.20240811_225054158.jpg","PilotCam","/PilotCam.20240811_225054158.jpg","BrowCam","/BrowCam.20240811_225054158.jpg","UserSelect","/UserSelect.20240811_225054158.jpg","","","-999.99","7.26","-999.99","-999.99","66b9404e111b2e001a286e20"
"2024-08-11T22:51:09.189Z","45.9166594","-130.0250797","ASNAP","","admin","","","","","","","","","-6.18","-0.81","-0.2","-4.5","280.52","177.98","0.58","SciCam","/SciCam.20240811_225109189.jpg","PilotCam","/PilotCam.20240811_225109189.jpg","BrowCam","/BrowCam.20240811_225109189.jpg","UserSelect","/UserSelect.20240811_225109189.jpg","","","-999.99","7.15","-999.99","-999.99","66b9405d111b2e001a286e24"
"2024-08-11T22:51:24.220Z","45.9166594","-130.0250790","ASNAP","","admin","","","","","","","","","-6.13","-0.81","-0.5","-3.6","280.94","183.85","0.58","SciCam","/SciCam.20240811_225124220.jpg","PilotCam","/PilotCam.20240811_225124220.jpg","BrowCam","/BrowCam.20240811_225124220.jpg","UserSelect","/UserSelect.20240811_225124220.jpg","","","-999.99","7.25","-999.99","-999.99","66b9406c111b2e001a286e28"
"2024-08-11T22:51:39.251Z","45.9166594","-130.0250784","ASNAP","","admin","","","","","","","","","-6.08","-0.81","-0.7","-1.9","280.87","189.69","0.58","SciCam","/SciCam.20240811_225139251.jpg","PilotCam","/PilotCam.20240811_225139251.jpg","BrowCam","/BrowCam.20240811_225139251.jpg","UserSelect","/UserSelect.20240811_225139251.jpg","","","-999.99","7.06","-999.99","-999.99","66b9407b111b2e001a286e2c"
"2024-08-11T22:51:54.280Z","45.9166595","-130.0250780","ASNAP","","admin","","","","","","","","","-6.05","-0.80","0.3","-4.4","281.86","191.13","0.58","SciCam","/SciCam.20240811_225154280.jpg","PilotCam","/PilotCam.20240811_225154280.jpg","BrowCam","/BrowCam.20240811_225154280.jpg","UserSelect","/UserSelect.20240811_225154280.jpg","","","-999.99","6.96","-999.99","-999.99","66b9408a111b2e001a286e30"
"2024-08-11T22:52:09.308Z","45.9166722","-130.0250683","ASNAP","","admin","","","","","","","","","-5.30","0.61","-0.2","-4.8","323.50","190.12","0.58","SciCam","/SciCam.20240811_225209308.jpg","PilotCam","/PilotCam.20240811_225209308.jpg","BrowCam","/BrowCam.20240811_225209308.jpg","UserSelect","/UserSelect.20240811_225209308.jpg","","","-999.99","6.93","-999.99","-999.99","66b94099111b2e001a286e34"
"2024-08-11T22:52:24.328Z","45.9166731","-130.0250723","ASNAP","","admin","","","","","","","","","-5.61","0.72","0.0","-4.9","319.74","190.34","0.58","SciCam","/SciCam.20240811_225224328.jpg","PilotCam","/PilotCam.20240811_225224328.jpg","BrowCam","/BrowCam.20240811_225224328.jpg","UserSelect","/UserSelect.20240811_225224328.jpg","","","-999.99","6.93","-999.99","-999.99","66b940a8111b2e001a286e38"
"2024-08-11T22:52:39.358Z","45.9166776","-130.0250771","ASNAP","","admin","","","","","","","","","-5.98","1.21","-0.1","-4.6","320.82","190.27","0.58","SciCam","/SciCam.20240811_225239358.jpg","PilotCam","/PilotCam.20240811_225239358.jpg","BrowCam","/BrowCam.20240811_225239358.jpg","UserSelect","/UserSelect.20240811_225239358.jpg","","","-999.99","6.94","-999.99","-999.99","66b940b7111b2e001a286e3c"
"2024-08-11T22:52:54.393Z","45.9166802","-130.0250798","ASNAP","","admin","","","","","","","","","-6.19","1.50","-0.3","-4.3","319.80","190.26","0.58","SciCam","/SciCam.20240811_225254393.jpg","PilotCam","/PilotCam.20240811_225254393.jpg","BrowCam","/BrowCam.20240811_225254393.jpg","UserSelect","/UserSelect.20240811_225254393.jpg","","","-999.99","6.95","-999.99","-999.99","66b940c6111b2e001a286e40"
"2024-08-11T22:53:09.421Z","45.9166821","-130.0250847","ASNAP","","admin","","","","","","","","","-6.57","1.71","-0.6","-5.2","320.61","190.23","0.58","SciCam","/SciCam.20240811_225309421.jpg","PilotCam","/PilotCam.20240811_225309421.jpg","BrowCam","/BrowCam.20240811_225309421.jpg","UserSelect","/UserSelect.20240811_225309421.jpg","","","-999.99","6.78","-999.99","-999.99","66b940d5111b2e001a286e44"
"2024-08-11T22:53:24.445Z","45.9166854","-130.0250907","ASNAP","","admin","","","","","","","","","-7.04","2.08","-0.3","-5.6","320.70","190.20","0.58","SciCam","/SciCam.20240811_225324445.jpg","PilotCam","/PilotCam.20240811_225324445.jpg","BrowCam","/BrowCam.20240811_225324445.jpg","UserSelect","/UserSelect.20240811_225324445.jpg","","","-999.99","6.89","-999.99","-999.99","66b940e4111b2e001a286e48"
"2024-08-11T22:53:39.473Z","45.9166881","-130.0250925","ASNAP","","admin","","","","","","","","","-7.18","2.38","-0.2","-3.1","320.94","189.56","0.58","SciCam","/SciCam.20240811_225339473.jpg","PilotCam","/PilotCam.20240811_225339473.jpg","BrowCam","/BrowCam.20240811_225339473.jpg","UserSelect","/UserSelect.20240811_225339473.jpg","","","-999.99","6.89","-999.99","-999.99","66b940f3111b2e001a286e4c"
"2024-08-11T22:53:48.529Z","45.9166888","-130.0250938","FREE_FORM","AB-200m platform coming into view","guest","","","","","","","","","-7.28","2.46","-0.6","-3.9","320.43","188.51","0.58","SciCam","/SciCam.20240811_225348529.jpg","PilotCam","/PilotCam.20240811_225348529.jpg","BrowCam","/BrowCam.20240811_225348529.jpg","UserSelect","/UserSelect.20240811_225348529.jpg","","","-999.99","6.89","-999.99","-999.99","66b940fc111b2e001a286e50"
