Date/Time (UTC),vehicleRealtimeNavData.latitude (ddeg),vehicleRealtimeNavData.longitude (ddeg),event_value,event_free_text,event_author,event_option.milestone,event_option.actions,event_option.type,event_option.new_watchstander,event_option.filename,event_option.nav,event_option.cabled_plug,event_option.event_comment,event_option.highlights,vehicleRealtimeNavData.local_x (meters),vehicleRealtimeNavData.local_y (meters),vehicleRealtimeNavData.roll (deg),vehicleRealtimeNavData.pitch (deg),vehicleRealtimeNavData.heading (deg),vehicleRealtimeNavData.depth (meters),vehicleRealtimeNavData.altitude (meters),vehicleRealtimeFramegrabberData.camera_name_1,vehicleRealtimeFramegrabberData.filename_1,vehicleRealtimeFramegrabberData.camera_name_2,vehicleRealtimeFramegrabberData.filename_2,vehicleRealtimeFramegrabberData.camera_name_3,vehicleRealtimeFramegrabberData.filename_3,vehicleRealtimeFramegrabberData.camera_name_4,vehicleRealtimeFramegrabberData.filename_4,vehicleReNavData.pitch (deg),vehicleReNavData.roll (deg),vehicleTemperatureProbe.probe1_temperature (degC),vehicleTemperatureProbe.probe2_temperature (degC),vehicleTemperatureProbe.probe3_temperature (degC),vehicleTemperatureProbe.probe4_temperature (degC),id
"2024-08-14T16:20:02.723Z","44.5018046","-125.4086002","ASNAP","","admin","","","","","","","","","","-1.62","1.82","-1.6","-1.0","295.89","0.88","0.58","SciCam","/SciCam.20240814_162002723.jpg","PilotCam","/PilotCam.20240814_162002723.jpg","BrowCam","/BrowCam.20240814_162002723.jpg","UserSelect","/UserSelect.20240814_162002723.jpg","","","","","","","66bcd932111b2e001a29453d"
"2024-08-14T16:20:17.753Z","44.5017773","-125.4085561","ASNAP","","admin","","","","","","","","","","1.88","-1.21","-1.6","-1.0","295.89","0.67","0.58","SciCam","/SciCam.20240814_162017753.jpg","PilotCam","/PilotCam.20240814_162017753.jpg","BrowCam","/BrowCam.20240814_162017753.jpg","UserSelect","/UserSelect.20240814_162017753.jpg","","","-999.99","17.44","-999.99","-999.99","66bcd941111b2e001a294540"
"2024-08-14T16:20:32.778Z","44.5017774","-125.4085560","ASNAP","","admin","","","","","","","","","","1.89","-1.20","-1.6","-1.0","295.89","0.69","0.58","SciCam","/SciCam.20240814_162032778.jpg","PilotCam","/PilotCam.20240814_162032778.jpg","BrowCam","/BrowCam.20240814_162032778.jpg","UserSelect","/UserSelect.20240814_162032778.jpg","","","-999.99","17.45","-999.99","-999.99","66bcd950111b2e001a294544"
"2024-08-14T16:20:47.810Z","44.5017761","-125.4085565","ASNAP","","admin","","","","","","","","","","1.85","-1.34","-0.9","-0.3","295.89","0.67","0.58","SciCam","/SciCam.20240814_162047810.jpg","PilotCam","/PilotCam.20240814_162047810.jpg","BrowCam","/BrowCam.20240814_162047810.jpg","UserSelect","/UserSelect.20240814_162047810.jpg","","","-999.99","17.44","-999.99","-999.99","66bcd95f111b2e001a294548"
"2024-08-14T16:21:02.840Z","44.5017770","-125.4085561","ASNAP","","admin","","","","","","","","","","1.88","-1.24","-0.6","-1.1","295.89","0.61","0.58","SciCam","/SciCam.20240814_162102840.jpg","PilotCam","/PilotCam.20240814_162102840.jpg","BrowCam","/BrowCam.20240814_162102840.jpg","UserSelect","/UserSelect.20240814_162102840.jpg","","","-999.99","17.44","-999.99","-999.99","66bcd96e111b2e001a29454c"
"2024-08-14T16:21:17.871Z","44.5017765","-125.4085563","ASNAP","","admin","","","","","","","","","","1.87","-1.30","-1.3","-0.4","295.89","0.62","0.58","SciCam","/SciCam.20240814_162117871.jpg","PilotCam","/PilotCam.20240814_162117871.jpg","BrowCam","/BrowCam.20240814_162117871.jpg","UserSelect","/UserSelect.20240814_162117871.jpg","","","-999.99","17.43","-999.99","-999.99","66bcd97d111b2e001a294550"
"2024-08-14T16:21:32.902Z","44.5017768","-125.4085563","ASNAP","","admin","","","","","","","","","","1.87","-1.26","-0.2","-1.4","295.89","0.58","0.58","SciCam","/SciCam.20240814_162132902.jpg","PilotCam","/PilotCam.20240814_162132902.jpg","BrowCam","/BrowCam.20240814_162132902.jpg","UserSelect","/UserSelect.20240814_162132902.jpg","","","-999.99","17.45","-999.99","-999.99","66bcd98c111b2e001a294554"
"2024-08-14T16:21:47.933Z","44.5017761","-125.4085567","ASNAP","","admin","","","","","","","","","","1.84","-1.34","0.0","-1.0","295.89","0.57","0.58","SciCam","/SciCam.20240814_162147933.jpg","PilotCam","/PilotCam.20240814_162147933.jpg","BrowCam","/BrowCam.20240814_162147933.jpg","UserSelect","/UserSelect.20240814_162147933.jpg","","","-999.99","17.46","-999.99","-999.99","66bcd99b111b2e001a294558"
"2024-08-14T16:22:02.962Z","44.5017768","-125.4085563","ASNAP","","admin","","","","","","","","","","1.87","-1.26","-0.3","-1.0","295.89","0.57","0.58","SciCam","/SciCam.20240814_162202962.jpg","PilotCam","/PilotCam.20240814_162202962.jpg","BrowCam","/BrowCam.20240814_162202962.jpg","UserSelect","/UserSelect.20240814_162202962.jpg","","","-999.99","17.42","-999.99","-999.99","66bcd9aa111b2e001a29455c"
"2024-08-14T16:22:17.991Z","44.5017770","-125.4085563","ASNAP","","admin","","","","","","","","","","1.87","-1.24","-0.5","-1.3","295.89","0.58","0.58","SciCam","/SciCam.20240814_162217991.jpg","PilotCam","/PilotCam.20240814_162217991.jpg","BrowCam","/BrowCam.20240814_162217991.jpg","UserSelect","/UserSelect.20240814_162217991.jpg","","","-999.99","17.43","-999.99","-999.99","66bcd9b9111b2e001a294560"
"2024-08-14T16:22:33.010Z","44.5017768","-125.4085563","ASNAP","","admin","","","","","","","","","","1.87","-1.27","-0.6","-0.9","295.89","0.59","0.58","SciCam","/SciCam.20240814_162233010.jpg","PilotCam","/PilotCam.20240814_162233010.jpg","BrowCam","/BrowCam.20240814_162233010.jpg","UserSelect","/UserSelect.20240814_162233010.jpg","","","-999.99","17.43","-999.99","-999.99","66bcd9c9111b2e001a294564"
"2024-08-14T16:22:48.041Z","44.5017766","-125.4085564","ASNAP","","admin","","","","","","","","","","1.86","-1.29","-1.0","-1.3","295.89","0.61","0.58","SciCam","/SciCam.20240814_162248041.jpg","PilotCam","/PilotCam.20240814_162248041.jpg","BrowCam","/BrowCam.20240814_162248041.jpg","UserSelect","/UserSelect.20240814_162248041.jpg","","","-999.99","17.45","-999.99","-999.99","66bcd9d8111b2e001a294568"
"2024-08-14T16:23:03.066Z","44.5017731","-125.4085584","ASNAP","","admin","","","","","","","","","","1.70","-1.68","0.0","-0.5","295.89","0.62","0.58","SciCam","/SciCam.20240814_162303066.jpg","PilotCam","/PilotCam.20240814_162303066.jpg","BrowCam","/BrowCam.20240814_162303066.jpg","UserSelect","/UserSelect.20240814_162303066.jpg","","","-999.99","17.42","-999.99","-999.99","66bcd9e7111b2e001a29456c"
"2024-08-14T16:23:18.102Z","44.5017741","-125.4085579","ASNAP","","admin","","","","","","","","","","1.74","-1.56","0.1","-0.7","295.89","0.61","0.58","SciCam","/SciCam.20240814_162318102.jpg","PilotCam","/PilotCam.20240814_162318102.jpg","BrowCam","/BrowCam.20240814_162318102.jpg","UserSelect","/UserSelect.20240814_162318102.jpg","","","-999.99","17.46","-999.99","-999.99","66bcd9f6111b2e001a294570"
"2024-08-14T16:23:33.125Z","44.5017770","-125.4085561","ASNAP","","admin","","","","","","","","","","1.88","-1.24","-1.3","-1.0","295.89","0.65","0.58","SciCam","/SciCam.20240814_162333125.jpg","PilotCam","/PilotCam.20240814_162333125.jpg","BrowCam","/BrowCam.20240814_162333125.jpg","UserSelect","/UserSelect.20240814_162333125.jpg","","","-999.99","17.47","-999.99","-999.99","66bcda05111b2e001a294574"
"2024-08-14T16:23:48.155Z","44.5017768","-125.4085563","ASNAP","","admin","","","","","","","","","","1.87","-1.27","-0.5","-0.7","295.89","0.66","0.58","SciCam","/SciCam.20240814_162348155.jpg","PilotCam","/PilotCam.20240814_162348155.jpg","BrowCam","/BrowCam.20240814_162348155.jpg","UserSelect","/UserSelect.20240814_162348155.jpg","","","-999.99","17.43","-999.99","-999.99","66bcda14111b2e001a294578"
"2024-08-14T16:24:03.186Z","44.5017770","-125.4085563","ASNAP","","admin","","","","","","","","","","1.87","-1.24","-0.1","-0.8","295.89","0.66","0.58","SciCam","/SciCam.20240814_162403186.jpg","PilotCam","/PilotCam.20240814_162403186.jpg","BrowCam","/BrowCam.20240814_162403186.jpg","UserSelect","/UserSelect.20240814_162403186.jpg","","","-999.99","17.45","-999.99","-999.99","66bcda23111b2e001a29457c"
"2024-08-14T16:24:18.221Z","44.5017765","-125.4085563","ASNAP","","admin","","","","","","","","","","1.87","-1.30","-0.7","-0.5","295.89","0.70","0.58","SciCam","/SciCam.20240814_162418221.jpg","PilotCam","/PilotCam.20240814_162418221.jpg","BrowCam","/BrowCam.20240814_162418221.jpg","UserSelect","/UserSelect.20240814_162418221.jpg","","","-999.99","17.43","-999.99","-999.99","66bcda32111b2e001a294580"
"2024-08-14T16:24:33.244Z","44.5017768","-125.4085564","ASNAP","","admin","","","","","","","","","","1.86","-1.27","-0.2","-1.0","295.89","0.68","0.58","SciCam","/SciCam.20240814_162433244.jpg","PilotCam","/PilotCam.20240814_162433244.jpg","BrowCam","/BrowCam.20240814_162433244.jpg","UserSelect","/UserSelect.20240814_162433244.jpg","","","-999.99","17.43","-999.99","-999.99","66bcda41111b2e001a294584"
"2024-08-14T16:24:48.270Z","44.5017765","-125.4085564","ASNAP","","admin","","","","","","","","","","1.86","-1.30","-0.3","-0.6","295.89","0.72","0.58","SciCam","/SciCam.20240814_162448270.jpg","PilotCam","/PilotCam.20240814_162448270.jpg","BrowCam","/BrowCam.20240814_162448270.jpg","UserSelect","/UserSelect.20240814_162448270.jpg","","","-999.99","17.44","-999.99","-999.99","66bcda50111b2e001a294588"
"2024-08-14T16:25:03.298Z","44.5017768","-125.4085564","ASNAP","","admin","","","","","","","","","","1.86","-1.26","0.1","-1.2","295.89","0.71","0.58","SciCam","/SciCam.20240814_162503298.jpg","PilotCam","/PilotCam.20240814_162503298.jpg","BrowCam","/BrowCam.20240814_162503298.jpg","UserSelect","/UserSelect.20240814_162503298.jpg","","","-999.99","17.46","-999.99","-999.99","66bcda5f111b2e001a29458c"
"2024-08-14T16:25:18.331Z","44.5017765","-125.4085564","ASNAP","","admin","","","","","","","","","","1.86","-1.30","-0.9","0.1","295.89","0.74","0.58","SciCam","/SciCam.20240814_162518331.jpg","PilotCam","/PilotCam.20240814_162518331.jpg","BrowCam","/BrowCam.20240814_162518331.jpg","UserSelect","/UserSelect.20240814_162518331.jpg","","","-999.99","17.44","-999.99","-999.99","66bcda6e111b2e001a294590"
"2024-08-14T16:25:33.362Z","44.5017771","-125.4085561","ASNAP","","admin","","","","","","","","","","1.88","-1.23","-0.6","-1.4","295.89","0.75","0.58","SciCam","/SciCam.20240814_162533362.jpg","PilotCam","/PilotCam.20240814_162533362.jpg","BrowCam","/BrowCam.20240814_162533362.jpg","UserSelect","/UserSelect.20240814_162533362.jpg","","","-999.99","17.44","-999.99","-999.99","66bcda7d111b2e001a294594"
"2024-08-14T16:25:48.394Z","44.5017624","-125.4085851","ASNAP","","admin","","","","","","","","","","-0.42","-2.86","-0.8","-0.3","178.94","0.76","0.58","SciCam","/SciCam.20240814_162548394.jpg","PilotCam","/PilotCam.20240814_162548394.jpg","BrowCam","/BrowCam.20240814_162548394.jpg","UserSelect","/UserSelect.20240814_162548394.jpg","","","-999.99","17.45","-999.99","-999.99","66bcda8c111b2e001a294598"
"2024-08-14T16:26:03.425Z","44.5017626","-125.4085854","ASNAP","","admin","","","","","","","","","","-0.45","-2.84","-0.3","-0.8","179.93","0.77","0.58","SciCam","/SciCam.20240814_162603425.jpg","PilotCam","/PilotCam.20240814_162603425.jpg","BrowCam","/BrowCam.20240814_162603425.jpg","UserSelect","/UserSelect.20240814_162603425.jpg","","","-999.99","17.45","-999.99","-999.99","66bcda9b111b2e001a29459c"
"2024-08-14T16:26:18.451Z","44.5017629","-125.4085866","ASNAP","","admin","","","","","","","","","","-0.54","-2.81","0.2","-0.5","182.58","0.77","0.58","SciCam","/SciCam.20240814_162618451.jpg","PilotCam","/PilotCam.20240814_162618451.jpg","BrowCam","/BrowCam.20240814_162618451.jpg","UserSelect","/UserSelect.20240814_162618451.jpg","","","-999.99","17.44","-999.99","-999.99","66bcdaaa111b2e001a2945a0"
"2024-08-14T16:26:26.507Z","44.5017631","-125.4085872","FREE_FORM","test","admin","","","","","","","","","","-0.59","-2.79","-1.1","-0.9","183.77","0.80","0.58","SciCam","/SciCam.20240814_162626507.jpg","PilotCam","/PilotCam.20240814_162626507.jpg","BrowCam","/BrowCam.20240814_162626507.jpg","UserSelect","/UserSelect.20240814_162626507.jpg","","","-999.99","17.42","-999.99","-999.99","66bcdab2111b2e001a2945a4"
"2024-08-14T16:26:33.480Z","44.5017631","-125.4085873","ASNAP","","admin","","","","","","","","","","-0.60","-2.79","-0.0","-0.7","184.32","0.79","0.58","SciCam","/SciCam.20240814_162633480.jpg","PilotCam","/PilotCam.20240814_162633480.jpg","BrowCam","/BrowCam.20240814_162633480.jpg","UserSelect","/UserSelect.20240814_162633480.jpg","","","-999.99","17.47","-999.99","-999.99","66bcdab9111b2e001a2945a8"
"2024-08-14T16:26:48.498Z","44.5017635","-125.4085885","ASNAP","","admin","","","","","","","","","","-0.69","-2.74","-0.0","-1.0","187.06","0.80","0.58","SciCam","/SciCam.20240814_162648498.jpg","PilotCam","/PilotCam.20240814_162648498.jpg","BrowCam","/BrowCam.20240814_162648498.jpg","UserSelect","/UserSelect.20240814_162648498.jpg","","","-999.99","17.44","-999.99","-999.99","66bcdac8111b2e001a2945ac"
"2024-08-14T16:27:03.529Z","44.5017638","-125.4085893","ASNAP","","admin","","","","","","","","","","-0.76","-2.71","-0.6","-1.1","188.83","0.80","0.58","SciCam","/SciCam.20240814_162703529.jpg","PilotCam","/PilotCam.20240814_162703529.jpg","BrowCam","/BrowCam.20240814_162703529.jpg","UserSelect","/UserSelect.20240814_162703529.jpg","","","-999.99","17.45","-999.99","-999.99","66bcdad7111b2e001a2945b0"
"2024-08-14T16:27:18.563Z","44.5017637","-125.4085892","ASNAP","","admin","","","","","","","","","","-0.75","-2.72","-1.1","-0.8","188.43","0.84","0.58","SciCam","/SciCam.20240814_162718563.jpg","PilotCam","/PilotCam.20240814_162718563.jpg","BrowCam","/BrowCam.20240814_162718563.jpg","UserSelect","/UserSelect.20240814_162718563.jpg","","","-999.99","17.46","-999.99","-999.99","66bcdae6111b2e001a2945b4"
"2024-08-14T16:27:33.594Z","44.5017642","-125.4085902","ASNAP","","admin","","","","","","","","","","-0.83","-2.67","-0.3","-1.0","191.00","0.81","0.58","SciCam","/SciCam.20240814_162733594.jpg","PilotCam","/PilotCam.20240814_162733594.jpg","BrowCam","/BrowCam.20240814_162733594.jpg","UserSelect","/UserSelect.20240814_162733594.jpg","","","-999.99","17.46","-999.99","-999.99","66bcdaf5111b2e001a2945b8"
"2024-08-14T16:27:38.494Z","44.5017641","-125.4085900","FREE_FORM","Clear to launch","guest","","","","","","","","","","-0.81","-2.68","-0.4","-1.0","190.52","0.82","0.58","SciCam","/SciCam.20240814_162738494.jpg","PilotCam","/PilotCam.20240814_162738494.jpg","BrowCam","/BrowCam.20240814_162738494.jpg","UserSelect","/UserSelect.20240814_162738494.jpg","","","-999.99","17.45","-999.99","-999.99","66bcdafa111b2e001a2945bc"
"2024-08-14T16:27:48.623Z","44.5017639","-125.4085895","ASNAP","","admin","","","","","","","","","","-0.77","-2.70","-0.5","-0.8","189.16","0.83","0.58","SciCam","/SciCam.20240814_162748623.jpg","PilotCam","/PilotCam.20240814_162748623.jpg","BrowCam","/BrowCam.20240814_162748623.jpg","UserSelect","/UserSelect.20240814_162748623.jpg","","","-999.99","17.43","-999.99","-999.99","66bcdb04111b2e001a2945c0"
"2024-08-14T16:28:03.642Z","44.5017641","-125.4085900","ASNAP","","admin","","","","","","","","","","-0.81","-2.68","-0.6","-0.9","190.25","0.83","0.58","SciCam","/SciCam.20240814_162803642.jpg","PilotCam","/PilotCam.20240814_162803642.jpg","BrowCam","/BrowCam.20240814_162803642.jpg","UserSelect","/UserSelect.20240814_162803642.jpg","","","-999.99","17.46","-999.99","-999.99","66bcdb13111b2e001a2945c4"
"2024-08-14T16:28:18.675Z","44.5017640","-125.4085897","ASNAP","","admin","","","","","","","","","","-0.79","-2.69","-0.3","-0.9","189.75","0.84","0.58","SciCam","/SciCam.20240814_162818675.jpg","PilotCam","/PilotCam.20240814_162818675.jpg","BrowCam","/BrowCam.20240814_162818675.jpg","UserSelect","/UserSelect.20240814_162818675.jpg","","","-999.99","17.47","-999.99","-999.99","66bcdb22111b2e001a2945c8"
"2024-08-14T16:28:33.226Z","44.5017640","-125.4085898","VEHICLE","","guest","Jason off deck","","","","","","","","","-0.80","-2.69","0.0","-1.0","190.09","0.84","0.58","SciCam","/SciCam.20240814_162833226.jpg","PilotCam","/PilotCam.20240814_162833226.jpg","BrowCam","/BrowCam.20240814_162833226.jpg","UserSelect","/UserSelect.20240814_162833226.jpg","","","-999.99","17.46","-999.99","-999.99","66bcdb31111b2e001a2945cc"
"2024-08-14T16:28:33.706Z","44.5017640","-125.4085898","ASNAP","","admin","","","","","","","","","","-0.80","-2.69","-1.4","-1.0","190.00","0.82","0.58","SciCam","/SciCam.20240814_162833706.jpg","PilotCam","/PilotCam.20240814_162833706.jpg","BrowCam","/BrowCam.20240814_162833706.jpg","UserSelect","/UserSelect.20240814_162833706.jpg","","","-999.99","17.46","-999.99","-999.99","66bcdb31111b2e001a2945cf"
"2024-08-14T16:28:48.737Z","44.5017637","-125.4085893","ASNAP","","admin","","","","","","","","","","-0.76","-2.72","0.3","0.4","189.19","0.82","0.58","SciCam","/SciCam.20240814_162848737.jpg","PilotCam","/PilotCam.20240814_162848737.jpg","BrowCam","/BrowCam.20240814_162848737.jpg","UserSelect","/UserSelect.20240814_162848737.jpg","","","-999.99","17.45","-999.99","-999.99","66bcdb40111b2e001a2945d4"
"2024-08-14T16:29:03.766Z","44.5017638","-125.4085888","ASNAP","","admin","","","","","","","","","","-0.72","-2.71","-0.6","-2.4","187.69","0.89","0.58","SciCam","/SciCam.20240814_162903766.jpg","PilotCam","/PilotCam.20240814_162903766.jpg","BrowCam","/BrowCam.20240814_162903766.jpg","UserSelect","/UserSelect.20240814_162903766.jpg","","","-999.99","17.46","-999.99","-999.99","66bcdb4f111b2e001a2945d8"
"2024-08-14T16:29:18.798Z","44.5017636","-125.4085888","ASNAP","","admin","","","","","","","","","","-0.72","-2.73","-0.4","-0.8","187.67","0.87","0.58","SciCam","/SciCam.20240814_162918798.jpg","PilotCam","/PilotCam.20240814_162918798.jpg","BrowCam","/BrowCam.20240814_162918798.jpg","UserSelect","/UserSelect.20240814_162918798.jpg","","","-999.99","17.45","-999.99","-999.99","66bcdb5e111b2e001a2945dc"
"2024-08-14T16:29:33.829Z","44.5017733","-125.4086014","ASNAP","","admin","","","","","","","","","","-1.72","-1.65","-0.3","-0.3","223.33","0.85","0.58","SciCam","/SciCam.20240814_162933829.jpg","PilotCam","/PilotCam.20240814_162933829.jpg","BrowCam","/BrowCam.20240814_162933829.jpg","UserSelect","/UserSelect.20240814_162933829.jpg","","","-999.99","17.49","-999.99","-999.99","66bcdb6d111b2e001a2945e0"
"2024-08-14T16:29:48.858Z","44.5017881","-125.4086059","ASNAP","","admin","","","","","","","","","","-2.08","-0.01","-0.9","-1.0","257.07","0.87","0.58","SciCam","/SciCam.20240814_162948858.jpg","PilotCam","/PilotCam.20240814_162948858.jpg","BrowCam","/BrowCam.20240814_162948858.jpg","UserSelect","/UserSelect.20240814_162948858.jpg","","","-999.99","17.48","-999.99","-999.99","66bcdb7c111b2e001a2945e4"
"2024-08-14T16:30:03.893Z","44.5017890","-125.4086059","ASNAP","","admin","","","","","","","","","","-2.08","0.09","-0.9","-0.8","259.14","0.87","0.58","SciCam","/SciCam.20240814_163003893.jpg","BrowCam","/BrowCam.20240814_163003893.jpg","UserSelect","/UserSelect.20240814_163003893.jpg","","","","","-999.99","17.46","-999.99","-999.99","66bcdb8b111b2e001a2945e8"
"2024-08-14T16:30:18.927Z","44.5017887","-125.4086058","ASNAP","","admin","","","","","","","","","","-2.07","0.06","-0.7","-1.5","258.55","0.86","0.58","SciCam","/SciCam.20240814_163018927.jpg","PilotCam","/PilotCam.20240814_163018927.jpg","BrowCam","/BrowCam.20240814_163018927.jpg","UserSelect","/UserSelect.20240814_163018927.jpg","","","-999.99","17.46","-999.99","-999.99","66bcdb9a111b2e001a2945ec"
"2024-08-14T16:30:33.958Z","44.5017889","-125.4086059","ASNAP","","admin","","","","","","","","","","-2.08","0.08","-1.0","-0.2","258.95","0.88","0.58","SciCam","/SciCam.20240814_163033958.jpg","PilotCam","/PilotCam.20240814_163033958.jpg","BrowCam","/BrowCam.20240814_163033958.jpg","UserSelect","/UserSelect.20240814_163033958.jpg","","","-999.99","17.48","-999.99","-999.99","66bcdba9111b2e001a2945f0"
"2024-08-14T16:30:48.990Z","44.5017887","-125.4086059","ASNAP","","admin","","","","","","","","","","-2.08","0.06","-0.5","-0.9","258.62","0.89","0.58","SciCam","/SciCam.20240814_163048990.jpg","PilotCam","/PilotCam.20240814_163048990.jpg","BrowCam","/BrowCam.20240814_163048990.jpg","UserSelect","/UserSelect.20240814_163048990.jpg","","","-999.99","17.49","-999.99","-999.99","66bcdbb8111b2e001a2945f4"
"2024-08-14T16:31:04.021Z","44.5017886","-125.4086059","ASNAP","","admin","","","","","","","","","","-2.08","0.05","-0.5","-0.5","258.39","0.89","0.58","SciCam","/SciCam.20240814_163104021.jpg","PilotCam","/PilotCam.20240814_163104021.jpg","BrowCam","/BrowCam.20240814_163104021.jpg","UserSelect","/UserSelect.20240814_163104021.jpg","","","-999.99","17.48","-999.99","-999.99","66bcdbc8111b2e001a2945f8"
"2024-08-14T16:31:19.059Z","44.5017885","-125.4086059","ASNAP","","admin","","","","","","","","","","-2.08","0.04","-0.4","-0.0","258.25","0.90","0.58","SciCam","/SciCam.20240814_163119059.jpg","PilotCam","/PilotCam.20240814_163119059.jpg","BrowCam","/BrowCam.20240814_163119059.jpg","UserSelect","/UserSelect.20240814_163119059.jpg","","","-999.99","17.46","-999.99","-999.99","66bcdbd7111b2e001a2945fc"
"2024-08-14T16:31:34.089Z","44.5017888","-125.4086059","ASNAP","","admin","","","","","","","","","","-2.08","0.07","-1.1","-0.1","258.75","0.89","0.58","SciCam","/SciCam.20240814_163134089.jpg","PilotCam","/PilotCam.20240814_163134089.jpg","BrowCam","/BrowCam.20240814_163134089.jpg","UserSelect","/UserSelect.20240814_163134089.jpg","","","-999.99","17.47","-999.99","-999.99","66bcdbe6111b2e001a294600"
"2024-08-14T16:31:49.112Z","44.5017771","-125.4086033","ASNAP","","admin","","","","","","","","","","-1.87","-1.23","0.1","-1.8","232.14","0.91","0.58","SciCam","/SciCam.20240814_163149112.jpg","PilotCam","/PilotCam.20240814_163149112.jpg","BrowCam","/BrowCam.20240814_163149112.jpg","UserSelect","/UserSelect.20240814_163149112.jpg","","","-999.99","17.47","-999.99","-999.99","66bcdbf5111b2e001a294604"
"2024-08-14T16:32:04.142Z","44.5017649","-125.4085919","ASNAP","","admin","","","","","","","","","","-0.96","-2.59","0.8","0.2","195.01","0.84","0.58","SciCam","/SciCam.20240814_163204142.jpg","PilotCam","/PilotCam.20240814_163204142.jpg","BrowCam","/BrowCam.20240814_163204142.jpg","UserSelect","/UserSelect.20240814_163204142.jpg","","","-999.99","17.46","-999.99","-999.99","66bcdc04111b2e001a294608"
"2024-08-14T16:32:19.174Z","44.5017633","-125.4085881","ASNAP","","admin","","","","","","","","","","-0.66","-2.77","-0.5","-0.3","185.95","0.91","0.58","SciCam","/SciCam.20240814_163219174.jpg","PilotCam","/PilotCam.20240814_163219174.jpg","BrowCam","/BrowCam.20240814_163219174.jpg","UserSelect","/UserSelect.20240814_163219174.jpg","","","-999.99","17.45","-999.99","-999.99","66bcdc13111b2e001a29460c"
"2024-08-14T16:32:34.206Z","44.5017632","-125.4085877","ASNAP","","admin","","","","","","","","","","-0.63","-2.78","-0.9","-0.4","184.93","0.92","0.58","SciCam","/SciCam.20240814_163234206.jpg","PilotCam","/PilotCam.20240814_163234206.jpg","BrowCam","/BrowCam.20240814_163234206.jpg","UserSelect","/UserSelect.20240814_163234206.jpg","","","-999.99","17.48","-999.99","-999.99","66bcdc22111b2e001a294610"
"2024-08-14T16:32:47.723Z","44.5017637","-125.4085890","ROV Actions","Latching to undervater\n","guest","","Latching to","","","","","","","","-0.73","-2.72","-0.4","-1.7","187.97","0.93","0.58","SciCam","/SciCam.20240814_163247723.jpg","PilotCam","/PilotCam.20240814_163247723.jpg","BrowCam","/BrowCam.20240814_163247723.jpg","UserSelect","/UserSelect.20240814_163247723.jpg","","","-999.99","17.43","-999.99","-999.99","66bcdc2f111b2e001a294618"
"2024-08-14T16:32:49.238Z","44.5017638","-125.4085890","ASNAP","","admin","","","","","","","","","","-0.73","-2.71","0.1","-2.0","188.08","0.91","0.58","SciCam","/SciCam.20240814_163249238.jpg","PilotCam","/PilotCam.20240814_163249238.jpg","BrowCam","/BrowCam.20240814_163249238.jpg","UserSelect","/UserSelect.20240814_163249238.jpg","","","-999.99","17.48","-999.99","-999.99","66bcdc31111b2e001a29461c"
"2024-08-14T16:33:04.272Z","44.5017638","-125.4085890","ASNAP","","admin","","","","","","","","","","-0.73","-2.71","-0.5","-1.8","188.18","0.92","0.58","SciCam","/SciCam.20240814_163304272.jpg","PilotCam","/PilotCam.20240814_163304272.jpg","BrowCam","/BrowCam.20240814_163304272.jpg","UserSelect","/UserSelect.20240814_163304272.jpg","","","-999.99","17.47","-999.99","-999.99","66bcdc40111b2e001a294620"
"2024-08-14T16:33:19.294Z","44.5017637","-125.4085891","ASNAP","","admin","","","","","","","","","","-0.74","-2.72","-1.1","-1.2","188.25","0.94","0.58","SciCam","/SciCam.20240814_163319294.jpg","PilotCam","/PilotCam.20240814_163319294.jpg","BrowCam","/BrowCam.20240814_163319294.jpg","UserSelect","/UserSelect.20240814_163319294.jpg","","","-999.99","17.53","-999.99","-999.99","66bcdc4f111b2e001a294624"
"2024-08-14T16:33:34.326Z","44.5017635","-125.4085890","ASNAP","","admin","","","","","","","","","","-0.73","-2.74","-0.3","0.1","187.93","0.90","0.58","SciCam","/SciCam.20240814_163334326.jpg","PilotCam","/PilotCam.20240814_163334326.jpg","BrowCam","/BrowCam.20240814_163334326.jpg","UserSelect","/UserSelect.20240814_163334326.jpg","","","-999.99","17.56","-999.99","-999.99","66bcdc5e111b2e001a294628"
"2024-08-14T16:33:49.348Z","44.5017668","-125.4085951","ASNAP","","admin","","","","","","","","","","-1.22","-2.38","0.0","0.9","203.56","0.89","0.58","SciCam","/SciCam.20240814_163349348.jpg","PilotCam","/PilotCam.20240814_163349348.jpg","BrowCam","/BrowCam.20240814_163349348.jpg","UserSelect","/UserSelect.20240814_163349348.jpg","","","-999.99","17.55","-999.99","-999.99","66bcdc6d111b2e001a29462c"
"2024-08-14T16:34:04.368Z","44.5017903","-125.4086059","ASNAP","","admin","","","","","","","","","","-2.08","0.24","-0.8","0.6","262.88","0.90","0.58","SciCam","/SciCam.20240814_163404368.jpg","PilotCam","/PilotCam.20240814_163404368.jpg","BrowCam","/BrowCam.20240814_163404368.jpg","UserSelect","/UserSelect.20240814_163404368.jpg","","","-999.99","17.62","-999.99","-999.99","66bcdc7c111b2e001a294630"
"2024-08-14T16:34:19.400Z","44.5018014","-125.4086025","ASNAP","","admin","","","","","","","","","","-1.81","1.47","-1.0","0.8","287.47","0.91","0.58","SciCam","/SciCam.20240814_163419400.jpg","PilotCam","/PilotCam.20240814_163419400.jpg","BrowCam","/BrowCam.20240814_163419400.jpg","UserSelect","/UserSelect.20240814_163419400.jpg","","","-999.99","17.54","-999.99","-999.99","66bcdc8b111b2e001a294634"
"2024-08-14T16:34:34.426Z","44.5018013","-125.4086024","ASNAP","","admin","","","","","","","","","","-1.80","1.46","-1.2","-0.0","287.28","0.94","0.58","SciCam","/SciCam.20240814_163434426.jpg","PilotCam","/PilotCam.20240814_163434426.jpg","BrowCam","/BrowCam.20240814_163434426.jpg","UserSelect","/UserSelect.20240814_163434426.jpg","","","-999.99","17.61","-999.99","-999.99","66bcdc9a111b2e001a294638"
"2024-08-14T16:34:49.448Z","44.5018012","-125.4086022","ASNAP","","admin","","","","","","","","","","-1.78","1.45","-1.7","-3.3","287.28","0.97","0.58","SciCam","/SciCam.20240814_163449448.jpg","PilotCam","/PilotCam.20240814_163449448.jpg","BrowCam","/BrowCam.20240814_163449448.jpg","UserSelect","/UserSelect.20240814_163449448.jpg","","","-999.99","17.64","-999.99","-999.99","66bcdca9111b2e001a29463c"
"2024-08-14T16:35:04.477Z","44.5018011","-125.4086024","ASNAP","","admin","","","","","","","","","","-1.80","1.44","-0.8","-1.1","286.96","0.95","0.58","SciCam","/SciCam.20240814_163504477.jpg","PilotCam","/PilotCam.20240814_163504477.jpg","BrowCam","/BrowCam.20240814_163504477.jpg","UserSelect","/UserSelect.20240814_163504477.jpg","","","-999.99","17.59","-999.99","-999.99","66bcdcb8111b2e001a294640"
"2024-08-14T16:35:19.507Z","44.5018011","-125.4086025","ASNAP","","admin","","","","","","","","","","-1.81","1.44","-0.8","-0.3","286.96","0.94","0.58","SciCam","/SciCam.20240814_163519507.jpg","PilotCam","/PilotCam.20240814_163519507.jpg","BrowCam","/BrowCam.20240814_163519507.jpg","UserSelect","/UserSelect.20240814_163519507.jpg","","","-999.99","17.58","-999.99","-999.99","66bcdcc7111b2e001a294644"
"2024-08-14T16:35:20.592Z","44.5018011","-125.4086027","FREE_FORM","undervator into the water","guest","","","","","","","","","","-1.82","1.44","-1.2","0.7","286.80","0.93","0.58","SciCam","/SciCam.20240814_163520592.jpg","PilotCam","/PilotCam.20240814_163520592.jpg","BrowCam","/BrowCam.20240814_163520592.jpg","UserSelect","/UserSelect.20240814_163520592.jpg","","","-999.99","17.59","-999.99","-999.99","66bcdcc8111b2e001a294647"
"2024-08-14T16:35:28.680Z","44.5018028","-125.4086015","VEHICLE","","guest","Jason in water","","","","","","","","","-1.73","1.63","-0.5","-0.1","291.41","0.95","0.58","SciCam","/SciCam.20240814_163528680.jpg","PilotCam","/PilotCam.20240814_163528680.jpg","BrowCam","/BrowCam.20240814_163528680.jpg","UserSelect","/UserSelect.20240814_163528680.jpg","","","-999.99","17.59","-999.99","-999.99","66bcdcd0111b2e001a29464c"
"2024-08-14T16:35:34.541Z","44.5018064","-125.4085986","ASNAP","","admin","","","","","","","","","","-1.50","2.03","-0.8","0.1","301.63","0.95","0.58","SciCam","/SciCam.20240814_163534541.jpg","PilotCam","/PilotCam.20240814_163534541.jpg","BrowCam","/BrowCam.20240814_163534541.jpg","UserSelect","/UserSelect.20240814_163534541.jpg","","","-999.99","17.49","-999.99","-999.99","66bcdcd6111b2e001a294650"
"2024-08-14T16:35:49.570Z","44.5018095","-125.4085901","ASNAP","","admin","","","","","","","","","","-0.82","2.37","1.3","-5.8","320.82","2.78","2.15","SciCam","/SciCam.20240814_163549570.jpg","PilotCam","/PilotCam.20240814_163549570.jpg","BrowCam","/BrowCam.20240814_163549570.jpg","UserSelect","/UserSelect.20240814_163549570.jpg","","","-999.99","17.64","-999.99","-999.99","66bcdce5111b2e001a294654"
"2024-08-14T16:36:04.602Z","44.5017973","-125.4086048","ASNAP","","admin","","","","","","","","","","-1.99","1.01","1.4","-0.4","288.66","6.70","2.18","SciCam","/SciCam.20240814_163604602.jpg","PilotCam","/PilotCam.20240814_163604602.jpg","BrowCam","/BrowCam.20240814_163604602.jpg","UserSelect","/UserSelect.20240814_163604602.jpg","","","-999.99","17.48","-999.99","-999.99","66bcdcf4111b2e001a294658"
"2024-08-14T16:36:19.634Z","44.5017958","-125.4086051","ASNAP","","admin","","","","","","","","","","-2.01","0.85","1.0","-2.6","292.55","9.17","2.17","SciCam","/SciCam.20240814_163619634.jpg","PilotCam","/PilotCam.20240814_163619634.jpg","BrowCam","/BrowCam.20240814_163619634.jpg","UserSelect","/UserSelect.20240814_163619634.jpg","","","-999.99","17.33","-999.99","-999.99","66bcdd03111b2e001a29465c"
"2024-08-14T16:36:34.658Z","44.5017919","-125.4086069","ASNAP","","admin","","","","","","","","","","-2.16","0.41","-0.3","-2.5","282.64","13.08","2.19","SciCam","/SciCam.20240814_163634658.jpg","PilotCam","/PilotCam.20240814_163634658.jpg","BrowCam","/BrowCam.20240814_163634658.jpg","UserSelect","/UserSelect.20240814_163634658.jpg","","","-999.99","17.05","-999.99","-999.99","66bcdd12111b2e001a294660"
"2024-08-14T16:36:49.688Z","44.5017913","-125.4086081","ASNAP","","admin","","","","","","","","","","-2.25","0.35","0.2","-2.2","279.39","17.64","2.21","SciCam","/SciCam.20240814_163649688.jpg","PilotCam","/PilotCam.20240814_163649688.jpg","BrowCam","/BrowCam.20240814_163649688.jpg","UserSelect","/UserSelect.20240814_163649688.jpg","","","-999.99","16.25","-999.99","-999.99","66bcdd21111b2e001a294664"
"2024-08-14T16:37:04.711Z","44.5017925","-125.4086075","ASNAP","","admin","","","","","","","","","","-2.20","0.48","0.8","-1.1","282.14","21.49","0.58","SciCam","/SciCam.20240814_163704711.jpg","PilotCam","/PilotCam.20240814_163704711.jpg","BrowCam","/BrowCam.20240814_163704711.jpg","UserSelect","/UserSelect.20240814_163704711.jpg","","","-999.99","15.33","-999.99","-999.99","66bcdd30111b2e001a294668"
"2024-08-14T16:37:19.742Z","44.5017967","-125.4086043","ASNAP","","admin","","","","","","","","","","-1.95","0.95","1.2","-1.0","283.69","22.65","0.58","SciCam","/SciCam.20240814_163719742.jpg","PilotCam","/PilotCam.20240814_163719742.jpg","BrowCam","/BrowCam.20240814_163719742.jpg","UserSelect","/UserSelect.20240814_163719742.jpg","","","-999.99","14.72","-999.99","-999.99","66bcdd3f111b2e001a29466c"
"2024-08-14T16:37:29.911Z","44.5018006","-125.4086036","Biology Type","","guest","","","Jelly","","","","","","","-1.89","1.38","1.3","-0.0","283.79","23.15","1.79","SciCam","/SciCam.20240814_163729911.jpg","PilotCam","/PilotCam.20240814_163729911.jpg","BrowCam","/BrowCam.20240814_163729911.jpg","UserSelect","/UserSelect.20240814_163729911.jpg","","","-999.99","14.27","-999.99","-999.99","66bcdd49111b2e001a294670"
"2024-08-14T16:37:34.776Z","44.5018003","-125.4086039","ASNAP","","admin","","","","","","","","","","-1.92","1.35","1.3","-0.1","283.48","23.55","2.21","SciCam","/SciCam.20240814_163734776.jpg","PilotCam","/PilotCam.20240814_163734776.jpg","BrowCam","/BrowCam.20240814_163734776.jpg","UserSelect","/UserSelect.20240814_163734776.jpg","","","-999.99","14.12","-999.99","-999.99","66bcdd4e111b2e001a294674"
"2024-08-14T16:37:49.808Z","44.5018005","-125.4086036","ASNAP","","admin","","","","","","","","","","-1.89","1.37","-1.3","-1.6","283.44","23.25","2.21","SciCam","/SciCam.20240814_163749808.jpg","PilotCam","/PilotCam.20240814_163749808.jpg","BrowCam","/BrowCam.20240814_163749808.jpg","UserSelect","/UserSelect.20240814_163749808.jpg","","","-999.99","13.77","-999.99","-999.99","66bcdd5d111b2e001a294678"
"2024-08-14T16:38:04.841Z","44.5017994","-125.4086041","ASNAP","","admin","","","","","","","","","","-1.93","1.25","0.2","-2.7","281.43","23.16","2.21","SciCam","/SciCam.20240814_163804841.jpg","PilotCam","/PilotCam.20240814_163804841.jpg","BrowCam","/BrowCam.20240814_163804841.jpg","UserSelect","/UserSelect.20240814_163804841.jpg","","","-999.99","13.68","-999.99","-999.99","66bcdd6c111b2e001a29467c"
"2024-08-14T16:38:07.387Z","44.5017994","-125.4086034","Biology Type","","guest","","","Jelly","","","","","","","-1.88","1.25","-0.6","-4.8","281.49","23.79","2.20","SciCam","/SciCam.20240814_163807387.jpg","PilotCam","/PilotCam.20240814_163807387.jpg","BrowCam","/BrowCam.20240814_163807387.jpg","UserSelect","/UserSelect.20240814_163807387.jpg","","","-999.99","13.65","-999.99","-999.99","66bcdd6f111b2e001a294680"
"2024-08-14T16:38:19.877Z","44.5017991","-125.4086023","ASNAP","","admin","","","","","","","","","","-1.79","1.21","1.7","-0.5","281.73","24.92","0.58","SciCam","/SciCam.20240814_163819877.jpg","PilotCam","/PilotCam.20240814_163819877.jpg","BrowCam","/BrowCam.20240814_163819877.jpg","UserSelect","/UserSelect.20240814_163819877.jpg","","","-999.99","13.47","-999.99","-999.99","66bcdd7b111b2e001a294684"
"2024-08-14T16:38:34.912Z","44.5017996","-125.4086015","ASNAP","","admin","","","","","","","","","","-1.73","1.27","0.8","-2.0","281.84","25.42","0.58","SciCam","/SciCam.20240814_163834912.jpg","PilotCam","/PilotCam.20240814_163834912.jpg","BrowCam","/BrowCam.20240814_163834912.jpg","UserSelect","/UserSelect.20240814_163834912.jpg","","","-999.99","13.32","-999.99","-999.99","66bcdd8a111b2e001a294688"
"2024-08-14T16:38:49.943Z","44.5017999","-125.4086012","ASNAP","","admin","","","","","","","","","","-1.70","1.30","1.1","-1.7","281.43","25.88","2.21","SciCam","/SciCam.20240814_163849943.jpg","PilotCam","/PilotCam.20240814_163849943.jpg","BrowCam","/BrowCam.20240814_163849943.jpg","UserSelect","/UserSelect.20240814_163849943.jpg","","","-999.99","13.30","-999.99","-999.99","66bcdd99111b2e001a29468c"
"2024-08-14T16:39:04.975Z","44.5017991","-125.4086022","ASNAP","","admin","","","","","","","","","","-1.78","1.21","1.0","0.4","281.24","27.88","0.58","SciCam","/SciCam.20240814_163904975.jpg","PilotCam","/PilotCam.20240814_163904975.jpg","BrowCam","/BrowCam.20240814_163904975.jpg","UserSelect","/UserSelect.20240814_163904975.jpg","","","-999.99","13.34","-999.99","-999.99","66bcdda8111b2e001a294690"
"2024-08-14T16:39:09.331Z","44.5017994","-125.4086018","Biology Type","","guest","","","Jelly","","","","","","","-1.75","1.25","0.1","-3.1","282.01","27.63","0.58","SciCam","/SciCam.20240814_163909331.jpg","PilotCam","/PilotCam.20240814_163909331.jpg","BrowCam","/BrowCam.20240814_163909331.jpg","UserSelect","/UserSelect.20240814_163909331.jpg","","","-999.99","13.14","-999.99","-999.99","66bcddad111b2e001a294694"
"2024-08-14T16:39:20.008Z","44.5017992","-125.4086019","ASNAP","","admin","","","","","","","","","","-1.76","1.22","0.1","-2.9","281.70","28.66","0.58","SciCam","/SciCam.20240814_163920008.jpg","PilotCam","/PilotCam.20240814_163920008.jpg","BrowCam","/BrowCam.20240814_163920008.jpg","UserSelect","/UserSelect.20240814_163920008.jpg","","","-999.99","13.08","-999.99","-999.99","66bcddb8111b2e001a294698"
"2024-08-14T16:39:32.677Z","44.5017992","-125.4086014","Biology Type","","guest","","","Jelly","","","","","","","-1.72","1.23","0.4","-3.9","281.85","29.44","0.58","SciCam","/SciCam.20240814_163932677.jpg","PilotCam","/PilotCam.20240814_163932677.jpg","BrowCam","/BrowCam.20240814_163932677.jpg","UserSelect","/UserSelect.20240814_163932677.jpg","","","-999.99","12.78","-999.99","-999.99","66bcddc4111b2e001a29469c"
"2024-08-14T16:39:35.044Z","44.5017995","-125.4086018","ASNAP","","admin","","","","","","","","","","-1.75","1.26","0.0","-0.5","281.52","29.90","2.19","SciCam","/SciCam.20240814_163935044.jpg","PilotCam","/PilotCam.20240814_163935044.jpg","BrowCam","/BrowCam.20240814_163935044.jpg","UserSelect","/UserSelect.20240814_163935044.jpg","","","-999.99","12.85","-999.99","-999.99","66bcddc7111b2e001a2946a0"
"2024-08-14T16:39:45.057Z","44.5017997","-125.4086020","Biology Type","","guest","","","Jelly","","","","","","","-1.77","1.28","0.2","-1.8","281.59","31.03","0.58","SciCam","/SciCam.20240814_163945057.jpg","PilotCam","/PilotCam.20240814_163945057.jpg","BrowCam","/BrowCam.20240814_163945057.jpg","UserSelect","/UserSelect.20240814_163945057.jpg","","","-999.99","12.55","-999.99","-999.99","66bcddd1111b2e001a2946a4"
"2024-08-14T16:39:50.074Z","44.5017994","-125.4086022","ASNAP","","admin","","","","","","","","","","-1.78","1.25","0.1","-0.8","280.90","32.17","0.58","SciCam","/SciCam.20240814_163950074.jpg","PilotCam","/PilotCam.20240814_163950074.jpg","BrowCam","/BrowCam.20240814_163950074.jpg","UserSelect","/UserSelect.20240814_163950074.jpg","","","-999.99","12.67","-999.99","-999.99","66bcddd6111b2e001a2946a8"
"2024-08-14T16:40:05.099Z","44.5017992","-125.4086012","ASNAP","","admin","","","","","","","","","","-1.70","1.23","-0.5","-3.8","281.12","33.26","0.58","SciCam","/SciCam.20240814_164005099.jpg","PilotCam","/PilotCam.20240814_164005099.jpg","BrowCam","/BrowCam.20240814_164005099.jpg","UserSelect","/UserSelect.20240814_164005099.jpg","","","-999.99","12.45","-999.99","-999.99","66bcdde5111b2e001a2946ac"
"2024-08-14T16:40:20.130Z","44.5018001","-125.4086000","ASNAP","","admin","","","","","","","","","","-1.61","1.32","-0.4","-0.6","281.41","35.13","2.19","SciCam","/SciCam.20240814_164020130.jpg","PilotCam","/PilotCam.20240814_164020130.jpg","BrowCam","/BrowCam.20240814_164020130.jpg","UserSelect","/UserSelect.20240814_164020130.jpg","","","-999.99","12.24","-999.99","-999.99","66bcddf4111b2e001a2946b0"
"2024-08-14T16:40:23.986Z","44.5018001","-125.4085999","Biology Type","","guest","","","Jelly","","","","","","","-1.60","1.33","-0.6","-1.0","281.64","34.62","2.15","SciCam","/SciCam.20240814_164023986.jpg","PilotCam","/PilotCam.20240814_164023986.jpg","BrowCam","/BrowCam.20240814_164023986.jpg","UserSelect","/UserSelect.20240814_164023986.jpg","","","-999.99","12.24","-999.99","-999.99","66bcddf7111b2e001a2946b4"
"2024-08-14T16:40:35.159Z","44.5017999","-125.4085997","ASNAP","","admin","","","","","","","","","","-1.58","1.30","-1.0","-1.3","281.71","36.26","0.58","SciCam","/SciCam.20240814_164035159.jpg","PilotCam","/PilotCam.20240814_164035159.jpg","BrowCam","/BrowCam.20240814_164035159.jpg","UserSelect","/UserSelect.20240814_164035159.jpg","","","-999.99","12.06","-999.99","-999.99","66bcde03111b2e001a2946b8"
"2024-08-14T16:40:36.983Z","44.5018001","-125.4085998","Biology Type","","guest","","","Jelly","","","","","","","-1.59","1.32","-0.4","-0.4","281.84","36.27","2.24","SciCam","/SciCam.20240814_164036983.jpg","PilotCam","/PilotCam.20240814_164036983.jpg","BrowCam","/BrowCam.20240814_164036983.jpg","UserSelect","/UserSelect.20240814_164036983.jpg","","","-999.99","12.09","-999.99","-999.99","66bcde04111b2e001a2946bc"
"2024-08-14T16:40:50.192Z","44.5018001","-125.4085998","ASNAP","","admin","","","","","","","","","","-1.59","1.32","-0.9","0.0","281.94","37.32","2.19","SciCam","/SciCam.20240814_164050192.jpg","PilotCam","/PilotCam.20240814_164050192.jpg","BrowCam","/BrowCam.20240814_164050192.jpg","UserSelect","/UserSelect.20240814_164050192.jpg","","","-999.99","11.73","-999.99","-999.99","66bcde12111b2e001a2946c0"
"2024-08-14T16:41:01.301Z","44.5017995","-125.4085986","ROV Actions","*late\n","guest","","First Football on","","","","","","","","-1.50","1.26","-0.9","0.9","281.64","37.95","2.19","SciCam","/SciCam.20240814_164101301.jpg","PilotCam","/PilotCam.20240814_164101301.jpg","BrowCam","/BrowCam.20240814_164101301.jpg","UserSelect","/UserSelect.20240814_164101301.jpg","","","-999.99","11.67","-999.99","-999.99","66bcde1d111b2e001a2946c4"
"2024-08-14T16:41:05.217Z","44.5017994","-125.4085984","ASNAP","","admin","","","","","","","","","","-1.48","1.25","-1.0","1.3","281.81","38.81","2.23","SciCam","/SciCam.20240814_164105217.jpg","PilotCam","/PilotCam.20240814_164105217.jpg","BrowCam","/BrowCam.20240814_164105217.jpg","UserSelect","/UserSelect.20240814_164105217.jpg","","","-999.99","11.57","-999.99","-999.99","66bcde21111b2e001a2946c8"
"2024-08-14T16:41:20.246Z","44.5017994","-125.4085988","ASNAP","","admin","","","","","","","","","","-1.51","1.25","-1.3","5.3","281.56","39.03","0.58","SciCam","/SciCam.20240814_164120246.jpg","PilotCam","/PilotCam.20240814_164120246.jpg","BrowCam","/BrowCam.20240814_164120246.jpg","UserSelect","/UserSelect.20240814_164120246.jpg","","","-999.99","11.28","-999.99","-999.99","66bcde30111b2e001a2946cc"
"2024-08-14T16:41:35.277Z","44.5017992","-125.4085981","ASNAP","","admin","","","","","","","","","","-1.46","1.23","-0.4","-1.9","281.80","40.70","2.20","SciCam","/SciCam.20240814_164135277.jpg","PilotCam","/PilotCam.20240814_164135277.jpg","BrowCam","/BrowCam.20240814_164135277.jpg","UserSelect","/UserSelect.20240814_164135277.jpg","","","-999.99","10.99","-999.99","-999.99","66bcde3f111b2e001a2946d0"
"2024-08-14T16:41:50.308Z","44.5017993","-125.4085983","ASNAP","","admin","","","","","","","","","","-1.47","1.24","-1.1","0.9","281.78","41.96","2.21","SciCam","/SciCam.20240814_164150308.jpg","PilotCam","/PilotCam.20240814_164150308.jpg","BrowCam","/BrowCam.20240814_164150308.jpg","UserSelect","/UserSelect.20240814_164150308.jpg","","","-999.99","10.65","-999.99","-999.99","66bcde4e111b2e001a2946d4"
"2024-08-14T16:42:05.337Z","44.5017991","-125.4085976","ASNAP","","admin","","","","","","","","","","-1.42","1.21","-0.3","-3.9","281.97","44.04","0.58","SciCam","/SciCam.20240814_164205337.jpg","PilotCam","/PilotCam.20240814_164205337.jpg","UserSelect","/UserSelect.20240814_164205337.jpg","","","","","-999.99","10.53","-999.99","-999.99","66bcde5d111b2e001a2946d8"
"2024-08-14T16:42:20.369Z","44.5017992","-125.4085981","ASNAP","","admin","","","","","","","","","","-1.46","1.22","-0.5","2.6","281.64","45.18","0.58","SciCam","/SciCam.20240814_164220369.jpg","PilotCam","/PilotCam.20240814_164220369.jpg","BrowCam","/BrowCam.20240814_164220369.jpg","UserSelect","/UserSelect.20240814_164220369.jpg","","","-999.99","10.45","-999.99","-999.99","66bcde6c111b2e001a2946dc"
"2024-08-14T16:42:35.401Z","44.5017990","-125.4085975","ASNAP","","admin","","","","","","","","","","-1.41","1.20","-0.1","-4.5","281.81","46.28","2.23","SciCam","/SciCam.20240814_164235401.jpg","PilotCam","/PilotCam.20240814_164235401.jpg","BrowCam","/BrowCam.20240814_164235401.jpg","UserSelect","/UserSelect.20240814_164235401.jpg","","","-999.99","10.10","-999.99","-999.99","66bcde7b111b2e001a2946e0"
"2024-08-14T16:42:43.780Z","44.5017992","-125.4085980","Biology Type","","guest","","","Jelly","","","","","","","-1.45","1.22","-0.5","0.5","282.03","47.16","2.19","SciCam","/SciCam.20240814_164243780.jpg","PilotCam","/PilotCam.20240814_164243780.jpg","BrowCam","/BrowCam.20240814_164243780.jpg","UserSelect","/UserSelect.20240814_164243780.jpg","","","-999.99","9.98","-999.99","-999.99","66bcde83111b2e001a2946e4"
"2024-08-14T16:42:50.422Z","44.5017993","-125.4085981","ASNAP","","admin","","","","","","","","","","-1.46","1.24","-0.5","-0.4","281.61","48.29","0.58","SciCam","/SciCam.20240814_164250422.jpg","PilotCam","/PilotCam.20240814_164250422.jpg","BrowCam","/BrowCam.20240814_164250422.jpg","UserSelect","/UserSelect.20240814_164250422.jpg","","","-999.99","9.99","-999.99","-999.99","66bcde8a111b2e001a2946e8"
"2024-08-14T16:43:05.455Z","44.5017993","-125.4085981","ASNAP","","admin","","","","","","","","","","-1.46","1.24","-0.6","0.4","281.35","49.20","2.20","SciCam","/SciCam.20240814_164305455.jpg","PilotCam","/PilotCam.20240814_164305455.jpg","BrowCam","/BrowCam.20240814_164305455.jpg","UserSelect","/UserSelect.20240814_164305455.jpg","","","-999.99","9.74","-999.99","-999.99","66bcde99111b2e001a2946ec"
"2024-08-14T16:43:20.479Z","44.5017972","-125.4085978","ASNAP","","admin","","","","","","","","","","-1.43","1.00","-0.9","-1.3","281.60","51.09","2.24","SciCam","/SciCam.20240814_164320479.jpg","PilotCam","/PilotCam.20240814_164320479.jpg","BrowCam","/BrowCam.20240814_164320479.jpg","UserSelect","/UserSelect.20240814_164320479.jpg","","","-999.99","9.71","-999.99","-999.99","66bcdea8111b2e001a2946f0"
"2024-08-14T16:43:35.514Z","44.5017970","-125.4085973","ASNAP","","admin","","","","","","","","","","-1.39","0.98","-0.5","-0.8","281.48","51.71","0.58","SciCam","/SciCam.20240814_164335514.jpg","PilotCam","/PilotCam.20240814_164335514.jpg","BrowCam","/BrowCam.20240814_164335514.jpg","UserSelect","/UserSelect.20240814_164335514.jpg","","","-999.99","9.63","-999.99","-999.99","66bcdeb7111b2e001a2946f4"
"2024-08-14T16:43:50.547Z","44.5017973","-125.4085971","ASNAP","","admin","","","","","","","","","","-1.38","1.01","0.8","-1.2","282.17","51.36","0.58","SciCam","/SciCam.20240814_164350547.jpg","PilotCam","/PilotCam.20240814_164350547.jpg","BrowCam","/BrowCam.20240814_164350547.jpg","UserSelect","/UserSelect.20240814_164350547.jpg","","","-999.99","9.49","-999.99","-999.99","66bcdec6111b2e001a2946f8"
"2024-08-14T16:43:58.296Z","44.5017966","-125.4085973","ROV Actions","on","guest","","Last Football on","","","","","","","","-1.39","0.94","0.6","-1.1","280.82","52.12","0.58","SciCam","/SciCam.20240814_164358296.jpg","PilotCam","/PilotCam.20240814_164358296.jpg","BrowCam","/BrowCam.20240814_164358296.jpg","UserSelect","/UserSelect.20240814_164358296.jpg","","","-999.99","9.44","-999.99","-999.99","66bcdece111b2e001a2946fc"
"2024-08-14T16:44:05.581Z","44.5017967","-125.4085971","ASNAP","","admin","","","","","","","","","","-1.38","0.95","-0.2","-2.0","280.57","53.54","2.23","SciCam","/SciCam.20240814_164405581.jpg","PilotCam","/PilotCam.20240814_164405581.jpg","BrowCam","/BrowCam.20240814_164405581.jpg","UserSelect","/UserSelect.20240814_164405581.jpg","","","-999.99","9.37","-999.99","-999.99","66bcded5111b2e001a294700"
"2024-08-14T16:44:20.607Z","44.5017973","-125.4085970","ASNAP","","admin","","","","","","","","","","-1.37","1.01","0.3","-1.2","281.82","58.15","0.58","SciCam","/SciCam.20240814_164420607.jpg","PilotCam","/PilotCam.20240814_164420607.jpg","BrowCam","/BrowCam.20240814_164420607.jpg","UserSelect","/UserSelect.20240814_164420607.jpg","","","-999.99","9.47","-999.99","-999.99","66bcdee4111b2e001a294704"
"2024-08-14T16:44:35.639Z","44.5017976","-125.4085971","ASNAP","","admin","","","","","","","","","","-1.38","1.05","-0.4","-2.3","281.35","62.38","2.16","SciCam","/SciCam.20240814_164435639.jpg","PilotCam","/PilotCam.20240814_164435639.jpg","BrowCam","/BrowCam.20240814_164435639.jpg","UserSelect","/UserSelect.20240814_164435639.jpg","","","-999.99","9.28","-999.99","-999.99","66bcdef3111b2e001a294708"
"2024-08-14T16:44:50.670Z","44.5017973","-125.4085973","ASNAP","","admin","","","","","","","","","","-1.39","1.01","-0.3","-1.8","280.54","67.99","2.22","SciCam","/SciCam.20240814_164450670.jpg","PilotCam","/PilotCam.20240814_164450670.jpg","BrowCam","/BrowCam.20240814_164450670.jpg","UserSelect","/UserSelect.20240814_164450670.jpg","","","-999.99","9.25","-999.99","-999.99","66bcdf02111b2e001a29470c"
"2024-08-14T16:45:05.701Z","44.5017975","-125.4085975","ASNAP","","admin","","","","","","","","","","-1.41","1.04","0.2","1.7","281.14","72.33","0.58","SciCam","/SciCam.20240814_164505701.jpg","PilotCam","/PilotCam.20240814_164505701.jpg","BrowCam","/BrowCam.20240814_164505701.jpg","UserSelect","/UserSelect.20240814_164505701.jpg","","","-999.99","9.10","-999.99","-999.99","66bcdf11111b2e001a294710"
"2024-08-14T16:45:20.733Z","44.5017975","-125.4085971","ASNAP","","admin","","","","","","","","","","-1.38","1.04","-0.0","-1.1","281.50","77.74","2.23","SciCam","/SciCam.20240814_164520733.jpg","PilotCam","/PilotCam.20240814_164520733.jpg","BrowCam","/BrowCam.20240814_164520733.jpg","UserSelect","/UserSelect.20240814_164520733.jpg","","","-999.99","8.95","-999.99","-999.99","66bcdf20111b2e001a294714"
"2024-08-14T16:45:35.764Z","44.5017973","-125.4085970","ASNAP","","admin","","","","","","","","","","-1.37","1.01","-0.2","-1.9","281.29","84.03","0.58","SciCam","/SciCam.20240814_164535764.jpg","PilotCam","/PilotCam.20240814_164535764.jpg","BrowCam","/BrowCam.20240814_164535764.jpg","UserSelect","/UserSelect.20240814_164535764.jpg","","","-999.99","8.75","-999.99","-999.99","66bcdf2f111b2e001a294718"
"2024-08-14T16:45:50.795Z","44.5017974","-125.4085971","ASNAP","","admin","","","","","","","","","","-1.38","1.02","-0.4","-1.3","281.14","89.57","0.58","SciCam","/SciCam.20240814_164550795.jpg","PilotCam","/PilotCam.20240814_164550795.jpg","BrowCam","/BrowCam.20240814_164550795.jpg","UserSelect","/UserSelect.20240814_164550795.jpg","","","-999.99","8.62","-999.99","-999.99","66bcdf3e111b2e001a29471c"
"2024-08-14T16:46:05.813Z","44.5017974","-125.4085971","ASNAP","","admin","","","","","","","","","","-1.38","1.03","-0.4","-1.9","281.26","95.59","2.22","SciCam","/SciCam.20240814_164605813.jpg","PilotCam","/PilotCam.20240814_164605813.jpg","BrowCam","/BrowCam.20240814_164605813.jpg","UserSelect","/UserSelect.20240814_164605813.jpg","","","-999.99","8.36","-999.99","-999.99","66bcdf4d111b2e001a294720"
"2024-08-14T16:46:20.847Z","44.5017974","-125.4085973","ASNAP","","admin","","","","","","","","","","-1.39","1.03","-0.8","0.7","281.20","101.83","2.21","SciCam","/SciCam.20240814_164620847.jpg","PilotCam","/PilotCam.20240814_164620847.jpg","BrowCam","/BrowCam.20240814_164620847.jpg","UserSelect","/UserSelect.20240814_164620847.jpg","","","-999.99","8.30","-999.99","-999.99","66bcdf5c111b2e001a294724"
"2024-08-14T16:46:35.879Z","44.5017976","-125.4085969","ASNAP","","admin","","","","","","","","","","-1.36","1.05","-0.2","-2.0","282.04","107.52","0.58","SciCam","/SciCam.20240814_164635879.jpg","PilotCam","/PilotCam.20240814_164635879.jpg","BrowCam","/BrowCam.20240814_164635879.jpg","UserSelect","/UserSelect.20240814_164635879.jpg","","","-999.99","8.28","-999.99","-999.99","66bcdf6b111b2e001a294728"
"2024-08-14T16:46:50.913Z","44.5017974","-125.4085969","ASNAP","","admin","","","","","","","","","","-1.36","1.02","-0.5","-2.6","281.84","113.40","0.58","SciCam","/SciCam.20240814_164650913.jpg","PilotCam","/PilotCam.20240814_164650913.jpg","BrowCam","/BrowCam.20240814_164650913.jpg","UserSelect","/UserSelect.20240814_164650913.jpg","","","-999.99","8.08","-999.99","-999.99","66bcdf7a111b2e001a29472c"
"2024-08-14T16:47:05.946Z","44.5017972","-125.4085970","ASNAP","","admin","","","","","","","","","","-1.37","1.00","-0.1","-2.6","281.64","120.05","2.21","SciCam","/SciCam.20240814_164705946.jpg","PilotCam","/PilotCam.20240814_164705946.jpg","BrowCam","/BrowCam.20240814_164705946.jpg","UserSelect","/UserSelect.20240814_164705946.jpg","","","-999.99","8.26","-999.99","-999.99","66bcdf89111b2e001a294730"
"2024-08-14T16:47:20.975Z","44.5017974","-125.4085963","ASNAP","","admin","","","","","","","","","","-1.31","1.03","-0.3","-3.5","281.69","125.71","2.21","SciCam","/SciCam.20240814_164720975.jpg","PilotCam","/PilotCam.20240814_164720975.jpg","BrowCam","/BrowCam.20240814_164720975.jpg","UserSelect","/UserSelect.20240814_164720975.jpg","","","-999.99","8.09","-999.99","-999.99","66bcdf98111b2e001a294734"
"2024-08-14T16:47:35.997Z","44.5017973","-125.4085930","ASNAP","","admin","","","","","","","","","","-1.05","1.01","-0.5","-1.6","281.64","132.29","2.22","SciCam","/SciCam.20240814_164735997.jpg","PilotCam","/PilotCam.20240814_164735997.jpg","BrowCam","/BrowCam.20240814_164735997.jpg","UserSelect","/UserSelect.20240814_164735997.jpg","","","-999.99","7.98","-999.99","-999.99","66bcdfa7111b2e001a294738"
"2024-08-14T16:47:51.025Z","44.5017973","-125.4085932","ASNAP","","admin","","","","","","","","","","-1.07","1.01","-1.3","1.0","281.54","137.90","2.20","SciCam","/SciCam.20240814_164751025.jpg","PilotCam","/PilotCam.20240814_164751025.jpg","BrowCam","/BrowCam.20240814_164751025.jpg","UserSelect","/UserSelect.20240814_164751025.jpg","","","-999.99","7.86","-999.99","-999.99","66bcdfb7111b2e001a29473c"
"2024-08-14T16:48:04.840Z","44.5017974","-125.4085927","FREE_FORM","installing beacon","guest","","","","","","","","","","-1.03","1.02","-0.5","-3.5","282.14","140.66","0.58","SciCam","/SciCam.20240814_164804840.jpg","PilotCam","/PilotCam.20240814_164804840.jpg","BrowCam","/BrowCam.20240814_164804840.jpg","UserSelect","/UserSelect.20240814_164804840.jpg","","","-999.99","7.95","-999.99","-999.99","66bcdfc4111b2e001a294740"
"2024-08-14T16:48:06.057Z","44.5017973","-125.4085926","ASNAP","","admin","","","","","","","","","","-1.02","1.01","-0.4","-4.4","281.86","140.95","2.04","SciCam","/SciCam.20240814_164806057.jpg","PilotCam","/PilotCam.20240814_164806057.jpg","BrowCam","/BrowCam.20240814_164806057.jpg","UserSelect","/UserSelect.20240814_164806057.jpg","","","-999.99","8.02","-999.99","-999.99","66bcdfc6111b2e001a294744"
"2024-08-14T16:48:21.088Z","44.5017974","-125.4085931","ASNAP","","admin","","","","","","","","","","-1.06","1.03","-2.0","1.5","281.93","141.31","2.20","SciCam","/SciCam.20240814_164821088.jpg","PilotCam","/PilotCam.20240814_164821088.jpg","BrowCam","/BrowCam.20240814_164821088.jpg","UserSelect","/UserSelect.20240814_164821088.jpg","","","-999.99","7.94","-999.99","-999.99","66bcdfd5111b2e001a294748"
"2024-08-14T16:48:36.120Z","44.5017973","-125.4085926","ASNAP","","admin","","","","","","","","","","-1.02","1.01","-0.7","-3.2","281.43","140.76","2.22","SciCam","/SciCam.20240814_164836120.jpg","PilotCam","/PilotCam.20240814_164836120.jpg","BrowCam","/BrowCam.20240814_164836120.jpg","UserSelect","/UserSelect.20240814_164836120.jpg","","","-999.99","7.81","-999.99","-999.99","66bcdfe4111b2e001a29474c"
"2024-08-14T16:48:51.154Z","44.5017976","-125.4085929","ASNAP","","admin","","","","","","","","","","-1.04","1.05","-1.9","0.8","281.72","140.95","2.20","SciCam","/SciCam.20240814_164851154.jpg","PilotCam","/PilotCam.20240814_164851154.jpg","BrowCam","/BrowCam.20240814_164851154.jpg","UserSelect","/UserSelect.20240814_164851154.jpg","","","-999.99","7.99","-999.99","-999.99","66bcdff3111b2e001a294750"
"2024-08-14T16:49:06.178Z","44.5017979","-125.4085925","ASNAP","","admin","","","","","","","","","","-1.01","1.08","-0.7","-1.5","282.89","141.41","2.23","SciCam","/SciCam.20240814_164906178.jpg","PilotCam","/PilotCam.20240814_164906178.jpg","BrowCam","/BrowCam.20240814_164906178.jpg","UserSelect","/UserSelect.20240814_164906178.jpg","","","-999.99","8.00","-999.99","-999.99","66bce002111b2e001a294754"
"2024-08-14T16:49:21.207Z","44.5017982","-125.4085922","ASNAP","","admin","","","","","","","","","","-0.99","1.11","-0.8","-1.7","283.45","141.91","2.22","SciCam","/SciCam.20240814_164921207.jpg","PilotCam","/PilotCam.20240814_164921207.jpg","BrowCam","/BrowCam.20240814_164921207.jpg","UserSelect","/UserSelect.20240814_164921207.jpg","","","-999.99","7.78","-999.99","-999.99","66bce011111b2e001a294758"
"2024-08-14T16:49:24.557Z","44.5017981","-125.4085922","ROV Actions","beacon installed","guest","","Transponder off","","","","","","","","-0.99","1.10","-0.7","-2.7","283.10","142.06","2.22","SciCam","/SciCam.20240814_164924557.jpg","PilotCam","/PilotCam.20240814_164924557.jpg","BrowCam","/BrowCam.20240814_164924557.jpg","UserSelect","/UserSelect.20240814_164924557.jpg","","","-999.99","7.81","-999.99","-999.99","66bce014111b2e001a29475c"
"2024-08-14T16:49:36.238Z","44.5017982","-125.4085921","ASNAP","","admin","","","","","","","","","","-0.98","1.11","-1.3","-2.0","283.07","142.84","2.23","SciCam","/SciCam.20240814_164936238.jpg","PilotCam","/PilotCam.20240814_164936238.jpg","BrowCam","/BrowCam.20240814_164936238.jpg","UserSelect","/UserSelect.20240814_164936238.jpg","","","-999.99","7.85","-999.99","-999.99","66bce020111b2e001a294760"
"2024-08-14T16:49:51.269Z","44.5017981","-125.4085922","ASNAP","","admin","","","","","","","","","","-0.99","1.10","-0.2","-2.6","282.95","141.39","2.22","SciCam","/SciCam.20240814_164951269.jpg","PilotCam","/PilotCam.20240814_164951269.jpg","BrowCam","/BrowCam.20240814_164951269.jpg","UserSelect","/UserSelect.20240814_164951269.jpg","","","-999.99","7.77","-999.99","-999.99","66bce02f111b2e001a294764"
"2024-08-14T16:50:06.300Z","44.5017982","-125.4085920","ASNAP","","admin","","","","","","","","","","-0.97","1.11","-0.4","-3.2","283.42","146.97","2.23","SciCam","/SciCam.20240814_165006300.jpg","PilotCam","/PilotCam.20240814_165006300.jpg","BrowCam","/BrowCam.20240814_165006300.jpg","UserSelect","/UserSelect.20240814_165006300.jpg","","","-999.99","7.89","-999.99","-999.99","66bce03e111b2e001a294768"
"2024-08-14T16:50:21.333Z","44.5017983","-125.4085919","ASNAP","","admin","","","","","","","","","","-0.96","1.13","-0.6","-3.1","283.41","152.70","0.58","SciCam","/SciCam.20240814_165021333.jpg","PilotCam","/PilotCam.20240814_165021333.jpg","BrowCam","/BrowCam.20240814_165021333.jpg","UserSelect","/UserSelect.20240814_165021333.jpg","","","-999.99","7.89","-999.99","-999.99","66bce04d111b2e001a29476c"
"2024-08-14T16:50:36.366Z","44.5017981","-125.4085921","ASNAP","","admin","","","","","","","","","","-0.98","1.10","-0.7","-1.8","283.09","157.45","2.23","SciCam","/SciCam.20240814_165036366.jpg","PilotCam","/PilotCam.20240814_165036366.jpg","BrowCam","/BrowCam.20240814_165036366.jpg","UserSelect","/UserSelect.20240814_165036366.jpg","","","-999.99","7.99","-999.99","-999.99","66bce05c111b2e001a294770"
"2024-08-14T16:50:51.397Z","44.5017980","-125.4085920","ASNAP","","admin","","","","","","","","","","-0.97","1.09","-0.6","-2.9","283.08","162.32","2.23","SciCam","/SciCam.20240814_165051397.jpg","PilotCam","/PilotCam.20240814_165051397.jpg","BrowCam","/BrowCam.20240814_165051397.jpg","UserSelect","/UserSelect.20240814_165051397.jpg","","","-999.99","7.78","-999.99","-999.99","66bce06b111b2e001a294774"
"2024-08-14T16:50:57.592Z","44.5017979","-125.4085920","FREE_FORM","testing winch","guest","","","","","","","","","","-0.97","1.08","-0.4","-2.6","283.10","161.89","0.58","SciCam","/SciCam.20240814_165057592.jpg","PilotCam","/PilotCam.20240814_165057592.jpg","BrowCam","/BrowCam.20240814_165057592.jpg","UserSelect","/UserSelect.20240814_165057592.jpg","","","-999.99","7.71","-999.99","-999.99","66bce071111b2e001a294778"
"2024-08-14T16:51:06.426Z","44.5017978","-125.4085907","ASNAP","","admin","","","","","","","","","","-0.87","1.07","-0.6","-2.6","282.90","161.70","0.58","SciCam","/SciCam.20240814_165106426.jpg","PilotCam","/PilotCam.20240814_165106426.jpg","BrowCam","/BrowCam.20240814_165106426.jpg","UserSelect","/UserSelect.20240814_165106426.jpg","","","-999.99","7.70","-999.99","-999.99","66bce07a111b2e001a29477c"
